Name,Code,Changes,lat,lon,terminal lat,terminal lon,linear distance,Journey time,fare,company,fare type,route code,cost per km,cost per min,speed (linear),minutes to travel 1km linear
Abbey Wood,ABW,2.0,51.4910605627019,0.121394025366647,53.79400103725245,-1.75127881876231,285.88233241867255,252.0,140.5,LONDON NORTH EASTERN RAILWAY,ANYTIME S,200.0,0.4914609406300729,0.5575396825396826,1.1344537000740975,0.8814815447599884
Aber,ABE,3.0,51.5749691125956,-3.22982905106563,53.79400103725245,-1.75127881876231,266.3947402476182,342.0,69.5,CROSSCOUNTRY,ANYTIME S,700.0,0.26089103687031745,0.20321637426900585,0.7789319890281233,1.2838091310740802
Abercynon,ACY,3.0,51.6447124034837,-3.32698855170195,53.79400103725245,-1.75127881876231,261.7871979537573,383.0,69.5,CROSSCOUNTRY,ANYTIME S,700.0,0.26548280642919997,0.1814621409921671,0.6835174881299146,1.463020357732138
Aberdare,ABA,3.0,51.7150618291708,-3.44308409477462,53.79400103725245,-1.75127881876231,257.99209047972715,395.0,69.5,CROSSCOUNTRY,ANYTIME S,700.0,0.2693881036072355,0.1759493670886076,0.6531445328600688,1.5310546895663022
Aberdeen,ABD,1.0,57.1437058328662,-2.09868538622245,53.79400103725245,-1.75127881876231,373.57477609883887,376.0,141.0,LONDON NORTH EASTERN RAILWAY,ANYTIME S,0.0,0.37743447636489996,0.375,0.9935499364330821,1.0064919369730667
Aberdour,AUR,2.0,56.0545955695197,-3.30056061487314,53.79400103725245,-1.75127881876231,270.53105439300646,266.0,118.0,LONDON NORTH EASTERN RAILWAY,ANYTIME S,0.0,0.43617913021023746,0.44360902255639095,1.017034039071453,0.9832512596264675
Aberdovey,AVY,2.0,52.5439615025967,-4.05706796158074,53.79400103725245,-1.75127881876231,207.65995749922706,429.0,84.4,TRANSPENNINE EXPRESS,ANYTIME DAY S,0.0,0.4064336765566089,0.19673659673659674,0.48405584498654325,2.065877336999825
Abererch,ABH,2.0,52.8985884658899,-4.37417647351973,53.79400103725245,-1.75127881876231,201.0896541747689,540.0,90.9,TRANSPENNINE EXPRESS,ANYTIME DAY S,0.0,0.45203717900373913,0.16833333333333333,0.37238824847179425,2.6853693802202323
Abergavenny,AGV,2.0,51.8166930409601,-3.00964730040687,53.79400103725245,-1.75127881876231,235.82755932938804,268.0,91.8,TRANSPENNINE EXPRESS,ANYTIME DAY S,312.0,0.38926748112496873,0.34253731343283583,0.8799535795872688,1.1364235832406495
Abergele & Pensarn,AGL,2.0,53.2945771647609,-3.58262268840784,53.79400103725245,-1.75127881876231,133.51415341963315,210.0,51.8,TRANSPENNINE EXPRESS,ANYTIME DAY S,0.0,0.38797384901354476,0.24666666666666665,0.635781682950634,1.5728669554603165
Aberystwyth,AYW,2.0,52.4140498933205,-4.08189442746786,53.79400103725245,-1.75127881876231,218.95297733720813,430.0,87.1,TRANSPENNINE EXPRESS,ANYTIME DAY S,0.0,0.3978023092413026,0.20255813953488372,0.5091929705516468,1.9638919974025275
Accrington,ACR,0.0,53.7529733751372,-2.36954810226505,53.79400103725245,-1.75127881876231,41.0181056092438,62.0,29.5,TRANSPENNINE EXPRESS,ANYTIME DAY S,0.0,0.7191945986250499,0.47580645161290325,0.6615823485361902,1.5115276310085795
Achanalt,AAT,3.0,57.6096018732679,-4.91385256332031,53.79400103725245,-1.75127881876231,468.92253603879675,604.0,172.0,LONDON NORTH EASTERN RAILWAY,ANYTIME S,0.0,0.3667983233498708,0.2847682119205298,0.7763618146337694,1.2880592285076857
Achnasheen,ACN,3.0,57.5792959197415,-5.07233352893289,53.79400103725245,-1.75127881876231,470.2306060833831,613.0,172.0,LONDON NORTH EASTERN RAILWAY,ANYTIME S,0.0,0.36577797738988577,0.2805872756933116,0.7670972366776234,1.303615698488372
Achnashellach,ACH,3.0,57.4820809030767,-5.33305678830677,53.79400103725245,-1.75127881876231,468.3362510439943,633.0,182.0,LONDON NORTH EASTERN RAILWAY,ANYTIME S,0.0,0.38860967861081375,0.28751974723538704,0.7398676951721869,1.3515930030804675
Acklington,ACK,2.0,55.3070993237817,-1.65183479633575,53.79400103725245,-1.75127881876231,168.5536757928682,180.0,63.6,TRANSPENNINE EXPRESS,ANYTIME DAY S,0.0,0.37732787315867616,0.35333333333333333,0.936409309960379,1.0679090749773854
Acle,ACL,2.0,52.6346777628319,1.54391497575916,53.79400103725245,-1.75127881876231,255.11950627581425,301.0,114.0,LONDON NORTH EASTERN RAILWAY,ANYTIME S,700.0,0.446849406633582,0.3787375415282392,0.8475731105508779,1.179839222778142
Acocks Green,ACG,3.0,52.4493240670217,-1.81897562150643,53.79400103725245,-1.75127881876231,149.71573851842047,243.0,68.55,CROSSCOUNTRY,ANYTIME S,0.0,0.45786769432771335,0.2820987654320988,0.6161141502815657,1.6230758529778897
Acton Bridge (Cheshire),ACB,2.0,53.2665097605329,-2.60312690733168,53.79400103725245,-1.75127881876231,81.46942159639956,161.0,42.7,TRANSPENNINE EXPRESS,ANYTIME DAY S,0.0,0.5241230287792675,0.26521739130434785,0.50602125215155,1.976201583921828
Acton Central,ACC,2.0,51.5087150057177,-0.262970693276422,53.79400103725245,-1.75127881876231,273.51072789593826,235.0,140.5,LONDON NORTH EASTERN RAILWAY,ANYTIME S,0.0,0.5136910024730569,0.597872340425532,1.1638754378550564,0.8591984738873193
Acton Main Line,AML,2.0,51.5171788796431,-0.266756440210259,53.79400103725245,-1.75127881876231,272.537463395592,248.0,140.5,LONDON NORTH EASTERN RAILWAY,ANYTIME S,0.0,0.5155254556547415,0.5665322580645161,1.0989413846596452,0.9099666405863053
Adderley Park,ADD,2.0,52.4830872932844,-1.85594463679675,53.79400103725245,-1.75127881876231,146.05810562898668,252.0,68.55,CROSSCOUNTRY,ANYTIME S,0.0,0.4693337607303293,0.2720238095238095,0.5795956572578836,1.7253407396651055
Addiewell,ADW,2.0,55.8434130805542,-3.60652712168835,53.79400103725245,-1.75127881876231,257.40942006232126,273.0,116.5,LONDON NORTH EASTERN RAILWAY,ANYTIME S,0.0,0.4525863893084964,0.4267399267399267,0.9428916485799314,1.0605672470490946
Addlestone,ASN,2.0,51.3730447500684,-0.48445679693337,53.79400103725245,-1.75127881876231,282.74127248002804,299.0,144.0,LONDON NORTH EASTERN RAILWAY,ANYTIME S,0.0,0.5092995399536928,0.4816053511705686,0.945622984883037,1.0575039058760707
Adisham,ADM,2.0,51.2411978022143,1.19908904695378,53.79400103725245,-1.75127881876231,347.50678200662213,352.0,159.0,LONDON NORTH EASTERN RAILWAY,ANYTIME S,0.0,0.45754502712689527,0.45170454545454547,0.9872351761551765,1.012929871375265
Adlington (Cheshire),ADC,2.0,53.3195557900317,-2.13356274381038,53.79400103725245,-1.75127881876231,58.56683831011482,123.0,34.9,TRANSPENNINE EXPRESS,ANYTIME DAY S,0.0,0.5959003594355302,0.283739837398374,0.4761531569928034,2.1001645905607513
Adlington (Lancs),ADL,1.0,53.6132468473224,-2.6030711963325,53.79400103725245,-1.75127881876231,59.74166495507173,149.0,32.1,TRANSPENNINE EXPRESS,ANYTIME DAY S,0.0,0.537313448229817,0.21543624161073827,0.4009507715105485,2.4940717690418293
Adwick,AWK,1.0,53.5723210050351,-1.180356329611,53.79400103725245,-1.75127881876231,45.07445221032456,85.0,10.1,NORTHERN,ANYTIME DAY S,0.0,0.2240737159238629,0.1188235294117647,0.5302876730626419,1.8857688963889454
Aigburth,AIG,3.0,53.3645680055959,-2.92715540113816,53.79400103725245,-1.75127881876231,91.37827082577913,154.0,41.7,TRANSPENNINE EXPRESS,ANYTIME DAY S,0.0,0.45634481396025534,0.2707792207792208,0.5933653949725918,1.685302190644588
Ainsdale,ANS,2.0,53.6020355257546,-3.04265252059266,53.79400103725245,-1.75127881876231,87.92839279910382,176.0,43.2,TRANSPENNINE EXPRESS,ANYTIME DAY S,0.0,0.49130887788091476,0.24545454545454548,0.499593140903999,2.00162876173706
Aintree,AIN,2.0,53.4739127558616,-2.95628079876913,53.79400103725245,-1.75127881876231,87.30787315949847,160.0,41.7,TRANSPENNINE EXPRESS,ANYTIME DAY S,0.0,0.4776201560175486,0.260625,0.5456742072468654,1.8325953228491072
Airbles,AIR,2.0,55.7828378389089,-3.99419330717581,53.79400103725245,-1.75127881876231,264.23258676294887,273.0,124.5,LONDON NORTH EASTERN RAILWAY,ANYTIME S,0.0,0.47117579828143136,0.45604395604395603,0.9678849331976149,1.0331806661110905
Airdrie,ADR,2.0,55.8639835131324,-3.98291292517007,53.79400103725245,-1.75127881876231,271.3849374760261,298.0,124.5,LONDON NORTH EASTERN RAILWAY,ANYTIME S,0.0,0.4587579589268775,0.41778523489932884,0.9106877096510942,1.0980712591181485
Albany Park,AYP,2.0,51.4354507399114,0.12573706592842,53.79400103725245,-1.75127881876231,291.6032272654406,263.0,140.5,LONDON NORTH EASTERN RAILWAY,ANYTIME S,200.0,0.4818190845058984,0.5342205323193916,1.108757518119546,0.9019104571178026
Albrighton,ALB,2.0,52.6379442676754,-2.26890024505565,53.79400103725245,-1.75127881876231,133.22251093337894,260.0,68.55,CROSSCOUNTRY,ANYTIME S,0.0,0.5145526797215227,0.2636538461538461,0.5123942728206883,1.9516221258584379
Alderley Edge,ALD,2.0,53.3037821045932,-2.23679936267512,53.79400103725245,-1.75127881876231,63.343272556114506,126.0,34.9,TRANSPENNINE EXPRESS,ANYTIME DAY S,0.0,0.550966165650548,0.276984126984127,0.5027243853659882,1.9891615149561335
Aldermaston,AMT,2.0,51.4019618556841,-1.1374239270022,53.79400103725245,-1.75127881876231,269.41019900741844,329.0,151.5,CROSSCOUNTRY,ANYTIME S,0.0,0.5623395126025957,0.46048632218844987,0.81887598482498,1.2211861362789043
Aldershot,AHT,2.0,51.2464179114788,-0.759859888333875,53.79400103725245,-1.75127881876231,291.35812251091863,306.0,148.5,CROSSCOUNTRY,ANYTIME S,0.0,0.5096820322709039,0.4852941176470588,0.9521507271598648,1.0502538846794383
Aldrington,AGT,3.0,50.8363824121951,-0.183821512855377,53.79400103725245,-1.75127881876231,346.00512827663704,326.0,154.5,LONDON NORTH EASTERN RAILWAY,ANYTIME S,0.0,0.44652517368608075,0.47392638036809814,1.0613654241614634,0.9421825671305004
Alexandra Palace,AAP,2.0,51.5979224924556,-0.120235220128854,53.79400103725245,-1.75127881876231,268.0895481805522,216.0,132.5,LONDON NORTH EASTERN RAILWAY,ANYTIME S,0.0,0.49423784291196715,0.6134259259259259,1.2411553156507045,0.8057009363696974
Alexandra Parade,AXP,3.0,55.8631759802332,-4.21064896878422,53.79400103725245,-1.75127881876231,279.31507594103095,312.0,124.5,LONDON NORTH EASTERN RAILWAY,ANYTIME S,0.0,0.44573319066488365,0.39903846153846156,0.8952406280161248,1.1170181163650095
Alexandria,ALX,3.0,55.9850887680667,-4.57748537031666,53.79400103725245,-1.75127881876231,303.8949207781564,359.0,129.0,LONDON NORTH EASTERN RAILWAY,ANYTIME S,0.0,0.42448883209262367,0.3593314763231198,0.8465039575993215,1.1813293854360611
Alfreton,ALF,1.0,53.1004322999438,-1.36969621564025,53.79400103725245,-1.75127881876231,81.24709737209191,128.0,24.7,NORTHERN,ANYTIME DAY S,0.0,0.3040108606819517,0.19296875,0.6347429482194681,1.5754408974611263
Allens West,ALW,2.0,54.5246233650745,-1.36111683481751,53.79400103725245,-1.75127881876231,85.2241297938302,142.0,45.9,TRANSPENNINE EXPRESS,ANYTIME DAY S,64.0,0.5385798612557137,0.3232394366197183,0.6001699281255648,1.6661947777409878
Alloa,ALO,3.0,56.1177936041036,-3.79005640302655,53.79400103725245,-1.75127881876231,289.76336525010345,295.0,123.5,LONDON NORTH EASTERN RAILWAY,ANYTIME S,0.0,0.42620984848586174,0.4186440677966102,0.9822486957630625,1.018072107719265
Alness,ASS,2.0,57.6943991747966,-4.24971726526612,53.79400103725245,-1.75127881876231,461.6582577488581,494.0,172.0,LONDON NORTH EASTERN RAILWAY,ANYTIME S,0.0,0.37256996298237544,0.3481781376518219,0.9345308861312916,1.0700555913563574
Alnmouth,ALM,1.0,55.3927786386397,-1.63663783937358,53.79400103725245,-1.75127881876231,178.12366809620525,188.0,63.6,TRANSPENNINE EXPRESS,ANYTIME DAY S,0.0,0.3570553014080611,0.3382978723404255,0.9474663196606662,1.0554464884389227
Alresford (Essex),ALR,3.0,51.8539974379073,0.997436403040026,53.79400103725245,-1.75127881876231,284.4577416416878,361.0,154.5,LONDON NORTH EASTERN RAILWAY,ANYTIME S,0.0,0.543138671875604,0.4279778393351801,0.78797158349498,1.2690812980394373
Alsager,ASG,3.0,53.0930054110113,-2.29905784069112,53.79400103725245,-1.75127881876231,86.08941177834858,160.0,42.7,TRANSPENNINE EXPRESS,ANYTIME DAY S,0.0,0.49599595487930864,0.26687500000000003,0.5380588236146786,1.858532852006777
Althorne (Essex),ALN,2.0,51.6478675266105,0.75248341471277,53.79400103725245,-1.75127881876231,292.6333022956381,325.0,126.0,LONDON NORTH EASTERN RAILWAY,ANYTIME S,700.0,0.4305730038637442,0.38769230769230767,0.9004101609096556,1.110604970283467
Althorpe,ALP,1.0,53.5855003548442,-0.733182290833722,53.79400103725245,-1.75127881876231,71.14795261859604,156.0,21.6,NORTHERN,ANYTIME DAY S,0.0,0.3035927135639653,0.13846153846153847,0.4560766193499746,2.192614042406416
Altnabreac,ABC,3.0,58.3881525009701,-3.7062809681672,53.79400103725245,-1.75127881876231,525.7448690288113,698.0,182.0,LONDON NORTH EASTERN RAILWAY,ANYTIME S,0.0,0.34617551348851344,0.2607449856733524,0.7532161447404173,1.3276401561262767
Alton,AON,2.0,51.1519686627366,-0.966913302570746,53.79400103725245,-1.75127881876231,298.7826269750473,326.0,139.05,LONDON NORTH EASTERN RAILWAY,ANYTIME S,200.0,0.46538850470583987,0.4265337423312884,0.9165111256903292,1.091094228939977
Altrincham,ALT,2.0,53.3877187203289,-2.34688910433965,53.79400103725245,-1.75127881876231,60.00091754439403,147.0,29.9,TRANSPENNINE EXPRESS,ANYTIME DAY S,0.0,0.49832571273393134,0.20340136054421767,0.4081695071047213,2.449962534176853
Alvechurch,ALV,2.0,52.3460721156993,-1.96766073187852,53.79400103725245,-1.75127881876231,161.7876937937067,244.0,72.05,CROSSCOUNTRY,ANYTIME S,0.0,0.44533671449615925,0.29528688524590163,0.6630643188266668,1.5081493176552792
Ambergate,AMB,2.0,53.0605170840145,-1.48069758186533,53.79400103725245,-1.75127881876231,83.59039103464396,214.0,63.4,EAST MIDLANDS TRAINS,ANYTIME S,0.0,0.7584603830089026,0.29626168224299065,0.39060930390020543,2.5601028700931416
Amberley,AMY,2.0,50.8966791881016,-0.541992407726222,53.79400103725245,-1.75127881876231,332.7490059856484,312.0,151.5,LONDON NORTH EASTERN RAILWAY,ANYTIME S,200.0,0.4552981294451538,0.4855769230769231,1.0665032243129757,0.9376436725207128
Amersham,AMR,2.0,51.6742050968552,-0.607596139216709,53.79400103725245,-1.75127881876231,248.21293992052142,278.0,140.5,CROSSCOUNTRY,ANYTIME S,0.0,0.5660462345153663,0.5053956834532374,0.8928523018723792,1.1200060725642125
Ammanford,AMF,3.0,51.7959795450084,-3.99673575596767,53.79400103725245,-1.75127881876231,269.00372856634175,400.0,76.3,CROSSCOUNTRY,ANYTIME S,700.0,0.28363919119873043,0.19075,0.6725093214158544,1.4869682369527155
Ancaster,ANC,1.0,52.9876865844111,-0.535623734022494,53.79400103725245,-1.75127881876231,120.80167113119961,309.0,61.9,LONDON NORTH EASTERN RAILWAY,ANYTIME DAY S,0.0,0.5124101299291794,0.20032362459546926,0.39094391951844537,2.5579116340568087
Anderston,AND,2.0,55.8599021238713,-4.27098003165416,53.79400103725245,-1.75127881876231,281.23082669112,300.0,124.5,LONDON NORTH EASTERN RAILWAY,ANYTIME S,0.0,0.4426968460919834,0.415,0.9374360889704,1.066739388173454
Andover,ADV,2.0,51.2115476149434,-1.49223307188506,53.79400103725245,-1.75127881876231,287.9045863698317,323.0,162.0,CROSSCOUNTRY,ANYTIME S,0.0,0.5626864165057125,0.5015479876160991,0.8913454686372498,1.1218994600700318
Anerley,ANZ,3.0,51.4121513855632,-0.0658859220340606,53.79400103725245,-1.75127881876231,288.57886842610753,243.0,140.5,LONDON NORTH EASTERN RAILWAY,ANYTIME S,200.0,0.48686863583005535,0.5781893004115226,1.1875673597782204,0.842057498268352
Angel Road,AGR,2.0,51.61240330726,-0.0487914234374522,53.79400103725245,-1.75127881876231,268.64578349387995,227.0,132.5,LONDON NORTH EASTERN RAILWAY,ANYTIME S,0.0,0.4932145156970926,0.5837004405286343,1.1834616012946253,0.8449788306659625
Angmering,ANG,3.0,50.8165743892467,-0.489394019247872,53.79400103725245,-1.75127881876231,342.29071283684806,336.0,159.0,LONDON NORTH EASTERN RAILWAY,ANYTIME S,0.0,0.46451742345632063,0.4732142857142857,1.0187223596334765,0.981621725039772
Annan,ANN,2.0,54.9838388790739,-3.2625810423293,53.79400103725245,-1.75127881876231,164.85630086338062,236.0,62.9,NORTHERN,ANYTIME DAY S,0.0,0.38154440971065073,0.26652542372881355,0.698543647726189,1.4315497725232682
Anniesland,ANL,2.0,55.8893555064876,-4.32195784208586,53.79400103725245,-1.75127881876231,285.7625012956454,308.0,129.0,LONDON NORTH EASTERN RAILWAY,ANYTIME S,0.0,0.4514238201832459,0.41883116883116883,0.9278003288819655,1.0778181133057343
Ansdell & Fairhaven,AFV,1.0,53.7414654744213,-2.99303444657805,53.79400103725245,-1.75127881876231,82.08914909017717,166.0,37.3,TRANSPENNINE EXPRESS,ANYTIME DAY S,0.0,0.4543840496997347,0.2246987951807229,0.4945129463263685,2.02219174933394
Apperley Bridge,APY,0.0,53.8417501065548,-1.70582867126391,53.79400103725245,-1.75127881876231,6.099589880067469,14.0,2.9,WEST YORKSHIRE PTE,ANYTIME DAY S,134.0,0.4754418013376208,0.20714285714285713,0.4356849914333906,2.295236282319549
Appleby,APP,1.0,54.5803488158896,-2.48669258391647,53.79400103725245,-1.75127881876231,99.82774750663418,116.0,21.1,NORTHERN,ANYTIME DAY S,321.0,0.21136407989770353,0.18189655172413793,0.8605840302296051,1.1620015766887966
Appledore (Kent),APD,3.0,51.0332342031393,0.816341504124954,53.79400103725245,-1.75127881876231,353.3539075855669,263.0,159.0,LONDON NORTH EASTERN RAILWAY,ANYTIME S,0.0,0.4499737984685995,0.6045627376425855,1.343550979412802,0.7442962830015198
Appleford,APF,2.0,51.6396415502262,-1.24214153179695,53.79400103725245,-1.75127881876231,242.1934571394094,334.0,154.5,CROSSCOUNTRY,ANYTIME S,0.0,0.6379197928169793,0.4625748502994012,0.7251301111958365,1.3790628530800717
Appley Bridge,APB,1.0,53.5786734960166,-2.71925251339081,53.79400103725245,-1.75127881876231,68.29421985193277,130.0,33.6,TRANSPENNINE EXPRESS,ANYTIME DAY S,0.0,0.4919889278016125,0.25846153846153846,0.5253401527071752,1.9035285897086198
Apsley,APS,2.0,51.7325208234117,-0.462934812195194,53.79400103725245,-1.75127881876231,245.32619568789215,242.0,144.0,VIRGIN WEST COAST,ANYTIME S,0.0,0.5869735989514918,0.5950413223140496,1.013744610280546,0.9864417426823682
Arbroath,ARB,1.0,56.5595762979872,-2.58893177406225,53.79400103725245,-1.75127881876231,312.4672545934777,319.0,140.0,LONDON NORTH EASTERN RAILWAY,ANYTIME S,0.0,0.4480469487343276,0.438871473354232,0.9795211742742248,1.0209069760446465
Ardgay,ARD,3.0,57.8814576101148,-4.36209023833324,53.79400103725245,-1.75127881876231,483.50581875651557,656.0,182.0,LONDON NORTH EASTERN RAILWAY,ANYTIME S,0.0,0.3764173934205573,0.2774390243902439,0.7370515529824933,1.3567571982631077
Ardlui,AUI,3.0,56.3019723653141,-4.72165858161935,53.79400103725245,-1.75127881876231,337.5676071031011,400.0,142.5,LONDON NORTH EASTERN RAILWAY,ANYTIME S,0.0,0.4221376607278468,0.35625,0.8439190177577528,1.1849478195869385
Ardrossan Harbour,ADS,2.0,55.6398782290401,-4.82111163323781,53.79400103725245,-1.75127881876231,285.1832263837094,337.0,133.5,LONDON NORTH EASTERN RAILWAY,ANYTIME S,0.0,0.46812009841132074,0.3961424332344214,0.846241027844835,1.181696428199364
Ardrossan South Beach,ASB,2.0,55.641422142645,-4.80121264089138,53.79400103725245,-1.75127881876231,284.41758091868115,331.0,133.5,LONDON NORTH EASTERN RAILWAY,ANYTIME S,0.0,0.46938026674999905,0.4033232628398791,0.8592676160685231,1.163781784975653
Ardrossan Town,ADN,2.0,55.6397124556587,-4.81267645169651,53.79400103725245,-1.75127881876231,284.7937218028578,335.0,133.5,LONDON NORTH EASTERN RAILWAY,ANYTIME S,0.0,0.4687603334613269,0.39850746268656717,0.8501305128443517,1.1762899753523934
Ardwick,ADK,1.0,53.471345820655,-2.21388417456067,53.79400103725245,-1.75127881876231,47.18120174321202,97.0,26.8,TRANSPENNINE EXPRESS,ANYTIME DAY S,0.0,0.568022835574673,0.27628865979381445,0.48640414168259816,2.0559035466695255
Argyle Street,AGS,2.0,55.8573090626122,-4.25069486323156,53.79400103725245,-1.75127881876231,280.2492419654738,291.0,124.5,LONDON NORTH EASTERN RAILWAY,ANYTIME S,0.0,0.4442474103652997,0.42783505154639173,0.963055814314343,1.0383614169984112
Arisaig,ARG,3.0,56.9125537431151,-5.83907949880085,53.79400103725245,-1.75127881876231,433.1645655892731,595.0,172.5,LONDON NORTH EASTERN RAILWAY,ANYTIME S,0.0,0.398232020122266,0.28991596638655465,0.7280076732592825,1.3736118954941927
Arlesey,ARL,2.0,52.0260300130868,-0.266319838272065,53.79400103725245,-1.75127881876231,220.64689878540335,184.0,101.0,LONDON NORTH EASTERN RAILWAY,ANYTIME S,700.0,0.4577449334478548,0.5489130434782609,1.19916792818154,0.8339115619248046
Armadale (West Lothian),ARM,2.0,55.8857140292087,-3.69541334262219,53.79400103725245,-1.75127881876231,264.21249303778353,281.0,124.5,LONDON NORTH EASTERN RAILWAY,ANYTIME S,0.0,0.47121163185192744,0.4430604982206406,0.9402579823408667,1.0635379000031455
Armathwaite,AWT,1.0,54.8094679848183,-2.77207147292765,53.79400103725245,-1.75127881876231,131.11670563611722,152.0,48.4,NORTHERN,ANYTIME DAY S,0.0,0.3691367912668773,0.31842105263157894,0.8626099055007712,1.1592725676149866
Arnside,ARN,1.0,54.2027315043991,-2.82824189170434,53.79400103725245,-1.75127881876231,84.00831208473292,166.0,30.1,NORTHERN,ANYTIME DAY S,0.0,0.3582978785437371,0.1813253012048193,0.506074169185138,1.975994944792703
Arram,ARR,2.0,53.8843427696163,-0.426570132093475,53.79400103725245,-1.75127881876231,87.77977736170834,128.0,36.3,TRANSPENNINE EXPRESS,ANYTIME DAY S,64.0,0.4135348834438367,0.28359375,0.6857795106383464,1.4581946303253748
Arrochar & Tarbet,ART,3.0,56.2039766194239,-4.72277124702392,53.79400103725245,-1.75127881876231,328.7799742188297,386.0,142.5,LONDON NORTH EASTERN RAILWAY,ANYTIME S,0.0,0.4334205583493194,0.36917098445595853,0.8517615912404914,1.1740374422655249
Arundel,ARU,2.0,50.84821399905,-0.546174298416944,53.79400103725245,-1.75127881876231,337.9166424253872,316.0,159.0,LONDON NORTH EASTERN RAILWAY,ANYTIME S,0.0,0.47053024337239496,0.5031645569620253,1.0693564633714785,0.9351418673313007
Ascot (Berks),ACT,2.0,51.406243053303,-0.675833255037063,53.79400103725245,-1.75127881876231,275.50838203626466,285.0,146.5,CROSSCOUNTRY,ANYTIME S,0.0,0.5317442573515475,0.5140350877192983,0.9666960773202269,1.0344512856327035
Ascott-under-Wychwood,AUW,2.0,51.8673416456497,-1.56405280921503,53.79400103725245,-1.75127881876231,214.77534636334147,354.0,110.55,CROSSCOUNTRY,ANYTIME S,700.0,0.514723881822914,0.31228813559322033,0.6067100179755409,1.6482338685238496
Ash,ASH,2.0,51.2495967734882,-0.712805474371656,53.79400103725245,-1.75127881876231,291.76781013190293,382.0,148.5,CROSSCOUNTRY,ANYTIME S,0.0,0.508966359012894,0.3887434554973822,0.763790078879327,1.309260263588724
Ash Vale,AHV,2.0,51.2722464128127,-0.72164859629209,53.79400103725245,-1.75127881876231,289.17347352296906,301.0,148.5,CROSSCOUNTRY,ANYTIME S,0.0,0.5135325802565519,0.49335548172757476,0.9607092143620235,1.0408976879274217
Ashburys,ABY,2.0,53.471639721401,-2.19443661452133,53.79400103725245,-1.75127881876231,46.33173771650451,103.0,26.8,TRANSPENNINE EXPRESS,ANYTIME DAY S,0.0,0.5784371862757303,0.26019417475728157,0.4498226962767428,2.2230981412835904
Ashchurch for Tewkesbury,ASC,2.0,51.9989057939667,-2.10876020926952,53.79400103725245,-1.75127881876231,201.2085813378074,248.0,100.35,CROSSCOUNTRY,ANYTIME S,700.0,0.4987361837789772,0.4046370967741935,0.8113249247492234,1.2325518044562667
Ashfield,ASF,3.0,55.8889269328418,-4.24921509407071,53.79400103725245,-1.75127881876231,283.0510865024197,316.0,129.0,LONDON NORTH EASTERN RAILWAY,ANYTIME S,0.0,0.4557481181012786,0.40822784810126583,0.8957312864000624,1.1164062427907289
Ashford (Surrey),AFS,2.0,51.4365062586203,-0.468070995385795,53.79400103725245,-1.75127881876231,276.35033623978154,269.0,142.0,LONDON NORTH EASTERN RAILWAY,ANYTIME S,0.0,0.5138405182789085,0.5278810408921933,1.0273246700363625,0.9734021085706085
Ashford International,AFK,2.0,51.1437026741936,0.876197214386404,53.79400103725245,-1.75127881876231,344.7026722746193,253.0,154.5,LONDON NORTH EASTERN RAILWAY,ANYTIME S,0.0,0.44821236511016144,0.6106719367588933,1.3624611552356494,0.7339658794360573
Ashford International (Eurostar),ASI,-999.0,nan,nan,53.79400103725245,-1.75127881876231,-999.0,-999.0,-999.0,N/A,no route found,-998.0,-999.0,-999.0,-999.0,-999.0
Ashley,ASY,2.0,53.3557258053839,-2.34146074338483,53.79400103725245,-1.75127881876231,62.51175129810743,155.0,29.9,TRANSPENNINE EXPRESS,ANYTIME DAY S,0.0,0.47831006777289303,0.1929032258064516,0.4033016212781124,2.4795337961471047
Ashtead,AHD,2.0,51.317872587997,-0.307571763628547,53.79400103725245,-1.75127881876231,292.4034818813565,256.0,142.0,LONDON NORTH EASTERN RAILWAY,ANYTIME S,0.0,0.4856303320547218,0.5546875,1.142201101099049,0.8755025704648506
Ashton-under-Lyne,AHN,2.0,53.4912746360398,-2.09431253377749,53.79400103725245,-1.75127881876231,40.618984188303784,98.0,23.5,TRANSPENNINE EXPRESS,ANYTIME DAY S,0.0,0.5785472106111116,0.23979591836734693,0.41447943049289576,2.412664963399529
Ashurst (Kent),AHS,2.0,51.1286608253579,0.152652111896866,53.79400103725245,-1.75127881876231,323.56187721279684,273.0,144.0,LONDON NORTH EASTERN RAILWAY,ANYTIME S,0.0,0.4450462497017087,0.5274725274725275,1.1852083414388164,0.8437335150594895
Ashurst New Forest,ANF,2.0,50.8898511647037,-1.52663085660955,53.79400103725245,-1.75127881876231,323.5177591199338,349.0,165.0,CROSSCOUNTRY,ANYTIME S,0.0,0.5100183694671041,0.47277936962750716,0.9269849831516729,1.0787661269334505
Ashwell & Morden,AWM,1.0,52.0307706434447,-0.109788918120069,53.79400103725245,-1.75127881876231,225.14491884144527,188.0,116.5,LONDON NORTH EASTERN RAILWAY,ANYTIME S,700.0,0.5174445001889795,0.6196808510638298,1.1975793555396026,0.835017734210542
Askam,ASK,2.0,54.1889331625586,-3.20451175494515,53.79400103725245,-1.75127881876231,104.96162506665961,224.0,40.2,NORTHERN,ANYTIME DAY S,0.0,0.3829971189419901,0.17946428571428572,0.4685786833333018,2.1341132995772583
Aslockton,ALK,1.0,52.9515495737311,-0.898097621841918,53.79400103725245,-1.75127881876231,109.61286754488708,146.0,61.9,LONDON NORTH EASTERN RAILWAY,ANYTIME DAY S,0.0,0.5647147217880383,0.42397260273972603,0.7507730653759389,1.331960410033176
Aspatria,ASP,2.0,54.7589599137074,-3.33187421074512,53.79400103725245,-1.75127881876231,148.7804071778208,232.0,59.9,NORTHERN,ANYTIME DAY S,0.0,0.40260677555753793,0.25818965517241377,0.6412948585250896,1.5593451073347044
Aspley Guise,APG,3.0,52.0212361960308,-0.632334507265971,53.79400103725245,-1.75127881876231,211.1503988824642,306.0,151.5,CROSSCOUNTRY,ANYTIME S,0.0,0.7174980525816184,0.4950980392156863,0.6900339832760268,1.4492039873925757
Aston,AST,2.0,52.5042320347358,-1.8719337575538,53.79400103725245,-1.75127881876231,143.7639408805572,218.0,68.55,CROSSCOUNTRY,ANYTIME S,0.0,0.4768233228731057,0.31444954128440367,0.6594676187181522,1.516374681055245
Atherstone,ATH,2.0,52.5789720633612,-1.55281147568713,53.79400103725245,-1.75127881876231,135.86942202817153,203.0,66.7,CROSSCOUNTRY,ANYTIME S,0.0,0.4909125173592793,0.32857142857142857,0.6693074976757218,1.4940815745717195
Atherton,ATN,1.0,53.5291462480773,-2.47897234425216,53.79400103725245,-1.75127881876231,56.41827274196976,109.0,33.6,TRANSPENNINE EXPRESS,ANYTIME DAY S,0.0,0.5955517311504795,0.30825688073394497,0.5175988324951354,1.9319981754584008
Attadale,ATT,3.0,57.3950433711996,-5.4555786528295,53.79400103725245,-1.75127881876231,463.8204002395425,649.0,182.0,LONDON NORTH EASTERN RAILWAY,ANYTIME S,0.0,0.3923932623619081,0.28043143297380585,0.7146693378113136,1.3992485014993314
Attenborough,ATB,2.0,52.9062133028873,-1.23141560765685,53.79400103725245,-1.75127881876231,104.69308684582853,190.0,54.0,NORTHERN,ANYTIME S,79.0,0.5157933692366968,0.28421052631578947,0.5510162465569922,1.8148285213883777
Attleborough,ATL,1.0,52.5145445883409,1.02234755537498,53.79400103725245,-1.75127881876231,233.85871771357654,324.0,101.0,LONDON NORTH EASTERN RAILWAY,ANYTIME S,700.0,0.4318846908401418,0.3117283950617284,0.7217861657826437,1.3854518795267916
Auchinleck,AUK,2.0,55.4702784722357,-4.29535018687193,53.79400103725245,-1.75127881876231,248.58421835833482,269.0,133.5,LONDON NORTH EASTERN RAILWAY,ANYTIME S,0.0,0.5370413330405367,0.4962825278810409,0.9241049009603525,1.0821282291228793
Audley End,AUD,2.0,52.0044405435161,0.207160027997398,53.79400103725245,-1.75127881876231,238.78751034806552,242.0,151.5,LONDON NORTH EASTERN RAILWAY,ANYTIME S,0.0,0.6344552936590695,0.6260330578512396,0.9867252493721715,1.0134533403663024
Aughton Park,AUG,2.0,53.5542504500956,-2.89522128047861,53.79400103725245,-1.75127881876231,80.1695066398362,146.0,41.7,TRANSPENNINE EXPRESS,ANYTIME DAY S,0.0,0.5201478934794802,0.2856164383561644,0.5491062098618917,1.8211413057075325
Aviemore,AVM,1.0,57.1885162452285,-3.82886797624022,53.79400103725245,-1.75127881876231,400.03859859263076,398.0,141.0,LONDON NORTH EASTERN RAILWAY,ANYTIME S,0.0,0.3524659882722562,0.3542713567839196,1.0051221070166603,0.9949039952649501
Avoncliff,AVF,3.0,51.3396528744674,-2.28132558221387,53.79400103725245,-1.75127881876231,275.4675815715358,386.0,211.0,LONDON NORTH EASTERN RAILWAY,ANYTIME S,0.0,0.7659703504719146,0.5466321243523317,0.7136465843822171,1.4012538165031234
Avonmouth,AVN,3.0,51.5003648679963,-2.69946651797304,53.79400103725245,-1.75127881876231,263.1729432759832,337.0,215.5,LONDON NORTH EASTERN RAILWAY,ANYTIME S,0.0,0.8188531743326299,0.6394658753709199,0.7809286150622646,1.2805267737823494
Axminster,AXM,2.0,50.7792744117621,-3.00472359764506,53.79400103725245,-1.75127881876231,346.1746325631922,443.0,188.0,CROSSCOUNTRY,ANYTIME S,0.0,0.5430784994497876,0.42437923250564336,0.781432579149418,1.2797009322141273
Aylesbury,AYS,2.0,51.8138902206829,-0.815095998270687,53.79400103725245,-1.75127881876231,229.2131490667243,299.0,148.5,LONDON NORTH EASTERN RAILWAY,ANYTIME S,0.0,0.6478685913292497,0.49665551839464883,0.7665991607582753,1.3044626855720247
Aylesbury Vale Parkway,AVP,2.0,51.8311587338339,-0.860182437861177,53.79400103725245,-1.75127881876231,226.53861713224694,316.0,148.5,LONDON NORTH EASTERN RAILWAY,ANYTIME S,0.0,0.6555173765950457,0.4699367088607595,0.7168943580134397,1.3949056633268313
Aylesford,AYL,3.0,51.3013153585378,0.466170568242092,53.79400103725245,-1.75127881876231,315.50556940458097,289.0,148.5,LONDON NORTH EASTERN RAILWAY,ANYTIME S,200.0,0.4706731493844871,0.513840830449827,1.0917147730262318,0.9159901695092039
Aylesham,AYH,3.0,51.2272505439136,1.2094526827124,53.79400103725245,-1.75127881876231,349.1979548708401,326.0,159.0,LONDON NORTH EASTERN RAILWAY,ANYTIME S,0.0,0.4553291271674551,0.48773006134969327,1.071159370769448,0.9335678959533986
Ayr,AYR,2.0,55.4581477383334,-4.62587677242484,53.79400103725245,-1.75127881876231,262.23275823848115,347.0,133.5,LONDON NORTH EASTERN RAILWAY,ANYTIME S,0.0,0.5090897144078075,0.38472622478386165,0.7557140006872656,1.3232519168502561
Bache,BAC,2.0,53.2087886904783,-2.89167051075084,53.79400103725245,-1.75127881876231,99.8401638486814,171.0,40.9,TRANSPENNINE EXPRESS,ANYTIME DAY S,0.0,0.40965477642833587,0.2391812865497076,0.5838606073022304,1.7127375738201818
Baglan,BAJ,2.0,51.615545271975,-3.81113654529303,53.79400103725245,-1.75127881876231,279.53171134904017,347.0,68.3,CROSSCOUNTRY,ANYTIME S,700.0,0.24433721551797927,0.19682997118155618,0.805566891495793,1.2413618416506413
Bagshot,BAG,3.0,51.3643669407293,-0.688661997063008,53.79400103725245,-1.75127881876231,279.7881006847353,317.0,148.5,CROSSCOUNTRY,ANYTIME S,0.0,0.5307588122460202,0.46845425867507884,0.882612304999165,1.1330002928080025
Baildon,BLD,0.0,53.8502255005868,-1.75363638811678,53.79400103725245,-1.75127881876231,6.259803180759915,12.0,2.6,WEST YORKSHIRE PTE,ANYTIME DAY S,134.0,0.41534852213745965,0.21666666666666667,0.5216502650633262,1.9169931790959676
Baillieston,BIO,2.0,55.844505909339,-4.11369931815988,53.79400103725245,-1.75127881876231,274.1271120130592,293.0,124.5,LONDON NORTH EASTERN RAILWAY,ANYTIME S,0.0,0.4541688674488677,0.4249146757679181,0.935587413013854,1.068847214156773
Balcombe,BAB,2.0,51.0555201604538,-0.136933757536862,53.79400103725245,-1.75127881876231,323.88738856077646,277.0,148.5,LONDON NORTH EASTERN RAILWAY,ANYTIME S,200.0,0.45849268988173164,0.5361010830324909,1.169268550760926,0.8552355225403344
Baldock,BDK,1.0,51.9928698318742,-0.187563753520231,53.79400103725245,-1.75127881876231,226.37334563589866,184.0,116.5,LONDON NORTH EASTERN RAILWAY,ANYTIME S,700.0,0.5146365605577075,0.6331521739130435,1.2302899219342318,0.8128165419967225
Balham,BAL,2.0,51.4432234163815,-0.152424495700288,53.79400103725245,-1.75127881876231,283.10034152628225,229.0,140.5,LONDON NORTH EASTERN RAILWAY,ANYTIME S,200.0,0.4962904645134678,0.6135371179039302,1.2362460328658613,0.8089004724098514
Balloch,BHC,3.0,56.0029392993731,-4.58348654319574,53.79400103725245,-1.75127881876231,305.69631425770837,361.0,129.0,LONDON NORTH EASTERN RAILWAY,ANYTIME S,0.0,0.4219874234114917,0.3573407202216066,0.8468041946196908,1.180910541484872
Balmossie,BSI,2.0,56.4745685552318,-2.83895622541232,53.79400103725245,-1.75127881876231,306.3635411905079,464.0,135.0,LONDON NORTH EASTERN RAILWAY,ANYTIME S,0.0,0.44065295588175796,0.29094827586206895,0.6602662525657498,1.5145405298454495
Bamber Bridge,BMB,0.0,53.7268691714662,-2.6607753764786,53.79400103725245,-1.75127881876231,60.445990092079285,88.0,32.1,TRANSPENNINE EXPRESS,ANYTIME DAY S,0.0,0.5310525967247961,0.3647727272727273,0.6868862510463555,1.455845124977634
Bamford,BAM,2.0,53.3390008432273,-1.68908191470249,53.79400103725245,-1.75127881876231,50.80749957072892,114.0,18.9,NORTHERN,ANYTIME DAY S,0.0,0.3719923271108704,0.16578947368421051,0.4456798207958677,2.243763242890964
Banavie,BNV,3.0,56.8433146084024,-5.09542698683765,53.79400103725245,-1.75127881876231,400.29141485287766,537.0,165.0,LONDON NORTH EASTERN RAILWAY,ANYTIME S,0.0,0.4121996972146999,0.30726256983240224,0.745421629148748,1.3415226509351141
Banbury,BAN,1.0,52.0603086671337,-1.32813289497966,53.79400103725245,-1.75127881876231,195.02004527658613,254.0,97.45,CROSSCOUNTRY,ANYTIME S,700.0,0.49969222323680657,0.38366141732283465,0.7677954538448273,1.3024302175695113
Bangor (Gwynedd),BNG,2.0,53.2222875881889,-4.1358808597691,53.79400103725245,-1.75127881876231,170.51476706097796,253.0,64.4,TRANSPENNINE EXPRESS,ANYTIME DAY S,0.0,0.37767989899062443,0.2545454545454546,0.6739714113082133,1.48374246032031
Bank Hall,BAH,3.0,53.4374965462522,-2.98751189569183,53.79400103725245,-1.75127881876231,90.92411530421151,164.0,41.7,TRANSPENNINE EXPRESS,ANYTIME DAY S,0.0,0.4586242039362301,0.25426829268292683,0.5544153372208019,1.8037019051688665
Banstead,BAD,2.0,51.3293474848423,-0.213158931277083,53.79400103725245,-1.75127881876231,293.40903876069655,287.0,140.5,LONDON NORTH EASTERN RAILWAY,ANYTIME S,200.0,0.47885368696698993,0.4895470383275261,1.0223311455076536,0.9781566417048122
Barassie,BSS,2.0,55.5610644543682,-4.65113966824502,53.79400103725245,-1.75127881876231,271.40338009862757,338.0,133.5,LONDON NORTH EASTERN RAILWAY,ANYTIME S,0.0,0.4918877574460801,0.39497041420118345,0.8029685801734543,1.2453787416986897
Barbican,ZBB,1.0,nan,nan,53.79400103725245,-1.75127881876231,-999.0,187.0,135.5,VIRGIN WEST COAST,ANYTIME S,0.0,-999.0,0.7245989304812834,-999.0,-999.0
Bardon Mill,BLL,2.0,54.9744957852522,-2.34650475516335,53.79400103725245,-1.75127881876231,136.9744790109495,250.0,56.4,TRANSPENNINE EXPRESS,ANYTIME DAY S,0.0,0.4117555358286231,0.2256,0.547897916043798,1.8251575169708472
Bare Lane,BAR,1.0,54.0745443408907,-2.83533086719705,53.79400103725245,-1.75127881876231,77.74467275382224,122.0,30.1,NORTHERN,ANYTIME DAY S,0.0,0.38716479128173015,0.24672131147540985,0.6372514160149364,1.5692393533678097
Bargeddie,BGI,2.0,55.8512961462984,-4.07380825280165,53.79400103725245,-1.75127881876231,273.34231366110527,290.0,124.5,LONDON NORTH EASTERN RAILWAY,ANYTIME S,0.0,0.4554728403826908,0.42931034482758623,0.9425597022796733,1.0609407526986372
Bargoed,BGD,3.0,51.6923127611933,-3.22968013064506,53.79400103725245,-1.75127881876231,254.2848733957598,364.0,69.5,CROSSCOUNTRY,ANYTIME S,700.0,0.2733155105606015,0.19093406593406592,0.6985848170213181,1.431465407828186
Barking,BKG,2.0,51.5394928787692,0.0809024258638578,53.79400103725245,-1.75127881876231,279.8084030373299,241.0,140.5,LONDON NORTH EASTERN RAILWAY,ANYTIME S,0.0,0.5021293087515157,0.58298755186722,1.1610307179972197,0.8613036541574043
Barlaston,BRT,4.0,nan,nan,53.79400103725245,-1.75127881876231,-999.0,185.0,47.6,TRANSPENNINE EXPRESS,ANYTIME DAY S,0.0,-999.0,0.2572972972972973,-999.0,-999.0
Barming,BMG,2.0,51.2848926922128,0.478958086821072,53.79400103725245,-1.75127881876231,317.53800694324536,296.0,148.5,LONDON NORTH EASTERN RAILWAY,ANYTIME S,200.0,0.4676605532343154,0.5016891891891891,1.0727635369704236,0.9321718771539216
Barmouth,BRM,2.0,52.7228954666472,-4.05659664341287,53.79400103725245,-1.75127881876231,194.60759484949318,465.0,87.1,TRANSPENNINE EXPRESS,ANYTIME DAY S,0.0,0.4475673216523843,0.18731182795698922,0.41851095666557675,2.389423703425473
Barnehurst,BNH,3.0,51.4649571594916,0.159646215915891,53.79400103725245,-1.75127881876231,289.6512338568457,257.0,140.5,LONDON NORTH EASTERN RAILWAY,ANYTIME S,200.0,0.4850661194470841,0.546692607003891,1.1270476025558198,0.8872739693800755
Barnes,BNS,2.0,51.4670847781107,-0.242164290131055,53.79400103725245,-1.75127881876231,278.35280406857714,231.0,140.5,LONDON NORTH EASTERN RAILWAY,ANYTIME S,0.0,0.5047551091505632,0.6082251082251082,1.2049904938033642,0.8298820655785061
Barnes Bridge,BNI,2.0,51.4720072305495,-0.252630234454485,53.79400103725245,-1.75127881876231,277.5818125497824,238.0,140.5,LONDON NORTH EASTERN RAILWAY,ANYTIME S,0.0,0.5061570810760604,0.5903361344537815,1.1663101367637916,0.85740487755233
Barnetby,BTB,1.0,53.575120046432,-0.409679706265516,53.79400103725245,-1.75127881876231,91.92525008726639,155.0,29.8,NORTHERN,ANYTIME DAY S,0.0,0.324176436525441,0.19225806451612903,0.593066129595267,1.686152606088703
Barnham,BAA,2.0,50.8309058508596,-0.639679954401345,53.79400103725245,-1.75127881876231,338.304640664836,312.0,159.0,LONDON NORTH EASTERN RAILWAY,ANYTIME S,0.0,0.46999059689968586,0.5096153846153846,1.084309745720628,0.9222456995767421
Barnhill,BNL,3.0,55.8774948886876,-4.22300584363342,53.79400103725245,-1.75127881876231,281.06248898484677,315.0,124.5,LONDON NORTH EASTERN RAILWAY,ANYTIME S,0.0,0.44296199200994163,0.3952380952380952,0.8922618697931644,1.1207472086998522
Barnsley,BNY,1.0,53.5543015489003,-1.47716484028851,53.79400103725245,-1.75127881876231,32.24736597825836,78.0,12.5,NORTHERN,ANYTIME DAY S,0.0,0.3876285588233061,0.16025641025641027,0.4134277689520302,2.41880220705743
Barnstaple,BNP,2.0,51.0739744679973,-4.06311775092404,53.79400103725245,-1.75127881876231,341.0312519575381,466.0,231.0,LONDON NORTH EASTERN RAILWAY,ANYTIME S,0.0,0.6773572764198218,0.4957081545064378,0.7318267209389229,1.3664436831672595
Barnt Green,BTG,2.0,52.3610898378667,-1.99246673824797,53.79400103725245,-1.75127881876231,160.28223499835838,238.0,72.05,CROSSCOUNTRY,ANYTIME S,0.0,0.4495195615455321,0.30273109243697477,0.6734547689006655,1.4848807168332636
Barrhead,BRR,2.0,55.8037583421428,-4.39728431394783,53.79400103725245,-1.75127881876231,281.0486003538295,315.0,129.0,LONDON NORTH EASTERN RAILWAY,ANYTIME S,0.0,0.4589953475576605,0.4095238095238095,0.892217778901046,1.1208025928733572
Barrhill,BRL,2.0,55.0970106102442,-4.78178229089313,53.79400103725245,-1.75127881876231,244.2770227483331,399.0,139.5,LONDON NORTH EASTERN RAILWAY,ANYTIME S,0.0,0.5710729500077465,0.34962406015037595,0.6122231146574765,1.6333914484092535
Barrow Haven,BAV,2.0,53.697419946542,-0.392955239385703,53.79400103725245,-1.75127881876231,90.25606767618675,334.0,35.2,NORTHERN,ANYTIME DAY S,0.0,0.39000148030255044,0.10538922155688624,0.27022774753349327,3.7005822278707905
Barrow-in-Furness,BIF,1.0,54.1190037011827,-3.22612090695349,53.79400103725245,-1.75127881876231,103.34965384105267,204.0,40.2,NORTHERN,ANYTIME DAY S,0.0,0.38897082385806414,0.1970588235294118,0.5066159502012386,1.9738817927125643
Barrow-Upon-Soar,BWS,2.0,52.7493358553102,-1.14484305880024,53.79400103725245,-1.75127881876231,123.09949296416559,217.0,66.2,LONDON NORTH EASTERN RAILWAY,ANYTIME S,76.0,0.5377763823874636,0.30506912442396317,0.5672787694201179,1.762801736828997
Barry,BRY,3.0,51.3967862682376,-3.28498495899336,53.79400103725245,-1.75127881876231,286.27138303955525,342.0,66.2,CROSSCOUNTRY,ANYTIME S,700.0,0.23124910110506186,0.1935672514619883,0.8370508276010388,1.1946705827482047
Barry Docks,BYD,3.0,51.4024452836283,-3.26070393235989,53.79400103725245,-1.75127881876231,285.08863735275355,339.0,66.2,CROSSCOUNTRY,ANYTIME S,700.0,0.2322084829992282,0.1952802359882006,0.840969431719037,1.1891038630927244
Barry Island,BYI,3.0,51.3924170726249,-3.27336400852697,53.79400103725245,-1.75127881876231,286.4419716527733,362.0,66.2,CROSSCOUNTRY,ANYTIME S,700.0,0.23111138223922031,0.1828729281767956,0.7912761647866666,1.2637812744803285
Barry Links,BYL,2.0,56.4931516826701,-2.74544214683501,53.79400103725245,-1.75127881876231,307.09131033172116,471.0,140.0,LONDON NORTH EASTERN RAILWAY,ANYTIME S,0.0,0.45589046413840717,0.29723991507430997,0.6519985357361383,1.533745775779927
Barton-on-Humber,BAU,2.0,53.6889177395454,-0.44343673614012,53.79400103725245,-1.75127881876231,87.08099054495858,339.0,35.2,NORTHERN,ANYTIME DAY S,0.0,0.4042214010166407,0.10383480825958703,0.2568760783037126,3.892927697290943
Basildon,BSO,2.0,51.5681040297501,0.456788850539816,53.79400103725245,-1.75127881876231,289.1987765315514,262.0,142.0,LONDON NORTH EASTERN RAILWAY,ANYTIME S,0.0,0.4910117591196237,0.5419847328244275,1.1038121241662266,0.9059512738686014
Basingstoke,BSK,2.0,51.2683569850094,-1.08726383162934,53.79400103725245,-1.75127881876231,284.63301831872167,283.0,151.5,CROSSCOUNTRY,ANYTIME S,0.0,0.532264320193365,0.5353356890459364,1.0057703827516666,0.9942627235295202
Bat & Ball,BBL,3.0,51.2897587469008,0.194227480292899,53.79400103725245,-1.75127881876231,308.31670428966856,263.0,144.0,LONDON NORTH EASTERN RAILWAY,ANYTIME S,0.0,0.46705221610279557,0.5475285171102662,1.1723068604169908,0.8530189780210781
Bath Spa,BTH,2.0,51.3776883852266,-2.3570184714201,53.79400103725245,-1.75127881876231,271.99694078306584,327.0,211.0,LONDON NORTH EASTERN RAILWAY,ANYTIME S,0.0,0.775744019004557,0.6452599388379205,0.8317949259420974,1.2022194038601428
Bathgate,BHG,2.0,55.8971563834902,-3.63609679157923,53.79400103725245,-1.75127881876231,263.556842594242,276.0,116.5,LONDON NORTH EASTERN RAILWAY,ANYTIME S,0.0,0.4420298818777289,0.4221014492753623,0.9549160963559494,1.0472124240193406
Batley,BTL,1.0,53.7099423400798,-1.6229526318262,53.79400103725245,-1.75127881876231,12.61693258024076,64.0,4.8,WEST YORKSHIRE PTE,ANYTIME DAY S,64.0,0.380441123028368,0.075,0.19713957156626188,5.072548307044907
Battersby,BTT,2.0,54.457680170473,-1.09297186288525,53.79400103725245,-1.75127881876231,85.49445051517907,171.0,47.3,TRANSPENNINE EXPRESS,ANYTIME DAY S,64.0,0.5532522838029369,0.2766081871345029,0.4999675468723922,2.000129820936622
Battersea Park,BAK,2.0,51.4769582891996,-0.147533519657093,53.79400103725245,-1.75127881876231,279.7485528845011,219.0,140.5,LONDON NORTH EASTERN RAILWAY,ANYTIME S,0.0,0.5022367356374057,0.6415525114155252,1.2773906524406444,0.782845872630547
Battle,BAT,2.0,50.9129130238687,0.494702777064857,53.79400103725245,-1.75127881876231,355.19718898015606,327.0,154.5,LONDON NORTH EASTERN RAILWAY,ANYTIME S,0.0,0.43496965852573655,0.4724770642201835,1.0862299357191316,0.9206153937729181
Battlesbridge,BLB,2.0,51.624822766888,0.56528550890708,53.79400103725245,-1.75127881876231,287.68382095967263,310.0,126.0,LONDON NORTH EASTERN RAILWAY,ANYTIME S,700.0,0.4379808345831955,0.4064516129032258,0.9280123256763633,1.0775718946094492
Bayford,BAY,1.0,51.7577148923117,-0.0956100209046352,53.79400103725245,-1.75127881876231,252.63365742786905,204.0,142.0,LONDON NORTH EASTERN RAILWAY,ANYTIME S,0.0,0.5620787089326895,0.696078431372549,1.238400281509162,0.8074933564948497
Beaconsfield,BCF,2.0,51.6112905925788,-0.643822282354315,53.79400103725245,-1.75127881876231,254.15964028283693,281.0,142.0,CROSSCOUNTRY,ANYTIME S,0.0,0.5587039698434334,0.505338078291815,0.9044827056328717,1.1056043346901745
Bearley,BER,2.0,52.2444115945748,-1.75025547969474,53.79400103725245,-1.75127881876231,172.44857420327838,266.0,73.2,CROSSCOUNTRY,ANYTIME S,0.0,0.42447437062433196,0.27518796992481204,0.6483029105386405,1.5424888331430642
Bearsden,BRN,2.0,55.9171345827093,-4.3320211452141,53.79400103725245,-1.75127881876231,288.62944390888737,325.0,129.0,LONDON NORTH EASTERN RAILWAY,ANYTIME S,0.0,0.44693984873117054,0.39692307692307693,0.8880905966427304,1.1260112468033368
Bearsted,BSD,2.0,51.2758187894535,0.577580355704965,53.79400103725245,-1.75127881876231,321.66382426944983,307.0,151.5,LONDON NORTH EASTERN RAILWAY,ANYTIME S,200.0,0.470988617834414,0.49348534201954397,1.047764899900488,0.954412578713961
Beasdale,BSL,3.0,56.8995610683265,-5.76380325043513,53.79400103725245,-1.75127881876231,429.18949953439454,590.0,172.5,LONDON NORTH EASTERN RAILWAY,ANYTIME S,0.0,0.4019203642846256,0.2923728813559322,0.7274398297193128,1.374684144509734
Beaulieu Road,BEU,2.0,50.8550493435382,-1.50474962699015,53.79400103725245,-1.75127881876231,327.4583958809002,449.0,165.0,CROSSCOUNTRY,ANYTIME S,0.0,0.5038808046320856,0.3674832962138085,0.7293060041890873,1.371166553210948
Beauly,BEL,2.0,57.4782879378611,-4.46986686037102,53.79400103725245,-1.75127881876231,444.3988010102135,461.0,172.0,LONDON NORTH EASTERN RAILWAY,ANYTIME S,0.0,0.3870397481023964,0.37310195227765725,0.9639887223648883,1.037356534158167
Bebington,BEB,2.0,53.3576570664328,-3.00363517233964,53.79400103725245,-1.75127881876231,96.12431509437563,151.0,40.9,TRANSPENNINE EXPRESS,ANYTIME DAY S,0.0,0.4254906779813624,0.27086092715231785,0.6365848681746731,1.5708824541610202
Beccles,BCC,3.0,52.4585181871493,1.5694932615698,53.79400103725245,-1.75127881876231,267.3608077013854,397.0,165.0,LONDON NORTH EASTERN RAILWAY,ANYTIME S,0.0,0.6171435574966099,0.4156171284634761,0.6734529161243965,1.4848848019766916
Beckenham Hill,BEC,2.0,51.4245808668055,-0.0159511139458484,53.79400103725245,-1.75127881876231,288.6626815682865,230.0,140.5,LONDON NORTH EASTERN RAILWAY,ANYTIME S,200.0,0.48672727363534557,0.6108695652173913,1.2550551372534196,0.7967777433176476
Beckenham Junction,BKJ,2.0,51.4111718661491,-0.0260225635677561,53.79400103725245,-1.75127881876231,289.75734179569884,244.0,140.5,LONDON NORTH EASTERN RAILWAY,ANYTIME S,200.0,0.48488849024251224,0.5758196721311475,1.1875300893266345,0.8420839261151102
Bedford,BDM,1.0,52.1361864656103,-0.479442379912954,53.79400103725245,-1.75127881876231,203.31328527305834,222.0,154.5,LONDON NORTH EASTERN RAILWAY,ANYTIME S,0.0,0.7599109905311892,0.6959459459459459,0.9158256093381006,1.0919109378506409
Bedford St Johns,BSJ,2.0,52.1294772366621,-0.467501028060375,53.79400103725245,-1.75127881876231,204.33096140279594,256.0,154.5,LONDON NORTH EASTERN RAILWAY,ANYTIME S,0.0,0.7561262323600358,0.603515625,0.7981678179796716,1.2528693558845903
Bedhampton,BDH,2.0,50.8539566355958,-0.99582843515536,53.79400103725245,-1.75127881876231,331.17344383960324,363.0,159.0,CROSSCOUNTRY,ANYTIME S,0.0,0.48011095985404023,0.4380165289256198,0.9123235367482183,1.0961023800441296
Bedminster,BMT,2.0,51.4400904239394,-2.59414932604792,53.79400103725245,-1.75127881876231,268.08415780202716,350.0,215.5,LONDON NORTH EASTERN RAILWAY,ANYTIME S,0.0,0.803852050665153,0.6157142857142858,0.7659547365772205,1.3055601750942158
Bedworth,BEH,3.0,52.4792974206142,-1.46739223305473,53.79400103725245,-1.75127881876231,147.53987839733082,259.0,68.55,CROSSCOUNTRY,ANYTIME S,0.0,0.4646201470723196,0.26467181467181466,0.5696520401441345,1.7554575943359705
Bedwyn,BDW,2.0,51.3796409426581,-1.59878627020561,53.79400103725245,-1.75127881876231,268.8647505035139,356.0,151.5,CROSSCOUNTRY,ANYTIME S,0.0,0.5634803361775012,0.425561797752809,0.7552380632121177,1.3240858064633032
Beeston,BEE,1.0,52.9207551214346,-1.20765801407939,53.79400103725245,-1.75127881876231,103.70661869717372,151.0,54.0,NORTHERN,ANYTIME S,79.0,0.5206996494378198,0.3576158940397351,0.6867987993190313,1.4560305012057553
Bekesbourne,BKS,2.0,51.2613539349877,1.13670763163281,53.79400103725245,-1.75127881876231,343.2183830330753,323.0,159.0,LONDON NORTH EASTERN RAILWAY,ANYTIME S,0.0,0.46326189930414496,0.49226006191950467,1.0625956131054963,0.9410917828631372
Belle Vue,BLV,2.0,53.4623764935822,-2.18050724055323,53.79400103725245,-1.75127881876231,46.56898900226719,110.0,26.8,TRANSPENNINE EXPRESS,ANYTIME DAY S,0.0,0.5754902688287963,0.24363636363636365,0.42335444547515627,2.362086924297298
Bellgrove,BLG,2.0,55.8567093051092,-4.22437490020632,53.79400103725245,-1.75127881876231,279.22975013096806,290.0,124.5,LONDON NORTH EASTERN RAILWAY,ANYTIME S,0.0,0.4458693958706239,0.42931034482758623,0.9628612073481657,1.0385712835540637
Bellingham,BGM,2.0,51.4329113825773,-0.0193308081217253,53.79400103725245,-1.75127881876231,287.71862585338187,228.0,140.5,LONDON NORTH EASTERN RAILWAY,ANYTIME S,200.0,0.4883243119324405,0.6162280701754386,1.2619237976025521,0.7924408763031775
Bellshill,BLH,2.0,55.8170682424416,-4.02449996284266,53.79400103725245,-1.75127881876231,268.4553372075426,273.0,124.5,LONDON NORTH EASTERN RAILWAY,ANYTIME S,0.0,0.463764294258561,0.45604395604395603,0.983352883544112,1.0169289343982904
Belmont,BLM,2.0,51.3438134158344,-0.198855124360003,53.79400103725245,-1.75127881876231,292.2468625740415,284.0,140.5,LONDON NORTH EASTERN RAILWAY,ANYTIME S,200.0,0.48075794129151334,0.49471830985915494,1.0290382485001461,0.9717811767031301
Belper,BLP,2.0,53.0237591485711,-1.48251049959613,53.79400103725245,-1.75127881876231,87.56657742440387,208.0,60.1,CROSSCOUNTRY,ANYTIME S,79.0,0.6863349210134913,0.2889423076923077,0.4209931606942494,2.3753355003461927
Beltring,BEG,3.0,51.2047063375307,0.403495486821792,53.79400103725245,-1.75127881876231,323.1215965972861,284.0,148.5,LONDON NORTH EASTERN RAILWAY,ANYTIME S,200.0,0.4595793087302641,0.522887323943662,1.1377521006946694,0.8789260853831313
Belvedere,BVD,3.0,51.4921162437256,0.152286098901381,53.79400103725245,-1.75127881876231,286.709168017265,257.0,140.5,LONDON NORTH EASTERN RAILWAY,ANYTIME S,200.0,0.4900436249444922,0.546692607003891,1.11559987555356,0.8963787303255124
Bempton,BEM,2.0,54.1276580609781,-0.18045684367924,53.79400103725245,-1.75127881876231,109.58604547541671,173.0,43.7,TRANSPENNINE EXPRESS,ANYTIME DAY S,64.0,0.3987734004855861,0.2526011560693642,0.6334453495688828,1.5786681529520914
Ben Rhydding,BEY,0.0,53.9257153348267,-1.79743026313235,53.79400103725245,-1.75127881876231,14.971297442358217,30.0,4.1,WEST YORKSHIRE PTE,ANYTIME DAY S,134.0,0.27385736044491976,0.13666666666666666,0.4990432480786072,2.0038343447189253
Benfleet,BEF,2.0,51.5439424321207,0.561713345502072,53.79400103725245,-1.75127881876231,295.22139515444087,268.0,142.0,LONDON NORTH EASTERN RAILWAY,ANYTIME S,0.0,0.4809949493183403,0.5298507462686567,1.101572369979257,0.9077932846289802
Bentham,BEN,1.0,54.1155197017626,-2.51067651046258,53.79400103725245,-1.75127881876231,61.36632066324697,83.0,30.1,NORTHERN,ANYTIME DAY S,0.0,0.4904970621454784,0.3626506024096386,0.7393532610029755,1.3525334271785616
Bentley (Hants),BTY,2.0,51.1812327932647,-0.868126900052275,53.79400103725245,-1.75127881876231,296.85826632821164,319.0,139.05,LONDON NORTH EASTERN RAILWAY,ANYTIME S,200.0,0.46840534952886886,0.43589341692789974,0.930590176577466,1.0745868860101342
Bentley (South Yorks),BYK,1.0,53.543936635355,-1.15094859528964,53.79400103725245,-1.75127881876231,48.466410957720335,89.0,10.5,NORTHERN,ANYTIME DAY S,0.0,0.21664488441613045,0.11797752808988764,0.5445664152552847,1.8363233060033914
Bere Alston,BAS,3.0,50.4855988011236,-4.20035543651004,53.79400103725245,-1.75127881876231,404.4521083161622,515.0,231.0,LONDON NORTH EASTERN RAILWAY,ANYTIME S,0.0,0.5711430234885219,0.44854368932038835,0.7853438996430334,1.2733275198986527
Bere Ferrers,BFE,3.0,50.4512820780774,-4.18143518031599,53.79400103725245,-1.75127881876231,407.4248464222585,510.0,231.0,LONDON NORTH EASTERN RAILWAY,ANYTIME S,0.0,0.5669757306862667,0.45294117647058824,0.7988722478867814,1.2517646002164329
Berkhamsted,BKM,2.0,51.7631330812332,-0.562012981628892,53.79400103725245,-1.75127881876231,239.81589578497716,250.0,144.0,VIRGIN WEST COAST,ANYTIME S,0.0,0.6004606138748732,0.576,0.9592635831399087,1.042466343532766
Berkswell,BKW,2.0,52.3958819317755,-1.64284047482006,53.79400103725245,-1.75127881876231,155.76336614361028,241.0,68.55,CROSSCOUNTRY,ANYTIME S,0.0,0.44009064324405045,0.28443983402489625,0.6463210213427812,1.5472187457595354
Bermuda Park,BEP,3.0,52.5014343619449,-1.47217775464212,53.79400103725245,-1.75127881876231,145.05521961662922,263.0,66.7,CROSSCOUNTRY,ANYTIME S,0.0,0.45982488721387227,0.2536121673003802,0.5515407589985902,1.813102628744354
Berney Arms,BYA,-999.0,52.5897827472666,1.63037533346209,53.79400103725245,-1.75127881876231,262.73058430368764,-999.0,114.0,LONDON NORTH EASTERN RAILWAY,ANYTIME S,700.0,0.43390456540159994,-999.0,-999.0,-999.0
Berry Brow,BBW,1.0,53.6210419716152,-1.79343228301033,53.79400103725245,-1.75127881876231,19.450476098481236,55.0,5.4,WEST YORKSHIRE PTE,ANYTIME DAY S,0.0,0.27762816563763454,0.09818181818181819,0.3536450199723861,2.827694279642574
Berrylands,BRS,2.0,51.3990439366779,-0.280713667843256,53.79400103725245,-1.75127881876231,284.5112822079167,265.0,140.5,LONDON NORTH EASTERN RAILWAY,ANYTIME S,0.0,0.49382927421951817,0.530188679245283,1.0736274800298742,0.9314217627627922
Berwick (Sussex),BRK,3.0,50.8403762860459,0.166017608785235,53.79400103725245,-1.75127881876231,353.6765770947114,397.0,159.0,LONDON NORTH EASTERN RAILWAY,ANYTIME S,0.0,0.4495632741814883,0.4005037783375315,0.8908729901630009,1.1224944644657286
Berwick-upon-Tweed,BWK,1.0,55.7743389009866,-2.01097357377303,53.79400103725245,-1.75127881876231,221.08205270299928,168.0,70.7,TRANSPENNINE EXPRESS,ANYTIME DAY S,0.0,0.31979077060125766,0.42083333333333334,1.3159645994226148,0.7598988608346717
Bescar Lane,BES,1.0,53.623855333027,-2.9146110021991,53.79400103725245,-1.75127881876231,79.11634795038715,150.0,43.2,TRANSPENNINE EXPRESS,ANYTIME DAY S,0.0,0.5460312706432072,0.28800000000000003,0.5274423196692477,1.8959419119555807
Bescot Stadium,BSC,2.0,52.5630947071172,-1.9911057185482,53.79400103725245,-1.75127881876231,137.9221369279215,243.0,68.55,CROSSCOUNTRY,ANYTIME S,0.0,0.4970195613763178,0.2820987654320988,0.5675808104029691,1.7618636530188947
Betchworth,BTO,2.0,51.2481879331766,-0.266973015200458,53.79400103725245,-1.75127881876231,300.65595082483327,427.0,144.0,LONDON NORTH EASTERN RAILWAY,ANYTIME S,0.0,0.4789527684549194,0.3372365339578454,0.7041122970136611,1.4202280009045178
Bethnal Green,BET,2.0,51.5239156627757,-0.0595680464428894,53.79400103725245,-1.75127881876231,277.31985121725336,219.0,132.5,LONDON NORTH EASTERN RAILWAY,ANYTIME S,0.0,0.47778764995874395,0.6050228310502284,1.2663006904897414,0.789701851629924
Betws-y-Coed,BYC,3.0,53.0920709395504,-3.80086212197837,53.79400103725245,-1.75127881876231,156.99684660541374,275.0,64.9,TRANSPENNINE EXPRESS,ANYTIME DAY S,0.0,0.4133840991285366,0.23600000000000002,0.5708976240196864,1.7516275386802396
Beverley,BEV,2.0,53.8422725915824,-0.422980126740875,53.79400103725245,-1.75127881876231,87.6469593671294,123.0,36.3,TRANSPENNINE EXPRESS,ANYTIME DAY S,64.0,0.4141615437901173,0.2951219512195122,0.7125769054238162,1.4033572971400672
Bexhill,BEX,3.0,50.84103990242,0.477016592346932,53.79400103725245,-1.75127881876231,361.9733001659962,304.0,159.0,LONDON NORTH EASTERN RAILWAY,ANYTIME S,0.0,0.43925891751431584,0.5230263157894737,1.1907016452828822,0.839840949209761
Bexley,BXY,3.0,51.4402175270263,0.147902494716889,53.79400103725245,-1.75127881876231,291.7811323835021,257.0,140.5,LONDON NORTH EASTERN RAILWAY,ANYTIME S,200.0,0.48152530923532794,0.546692607003891,1.1353351454610976,0.8807971848646212
Bexleyheath,BXH,3.0,51.4634982236074,0.133734871030645,53.79400103725245,-1.75127881876231,289.01905815890285,254.0,140.5,LONDON NORTH EASTERN RAILWAY,ANYTIME S,200.0,0.4861271118071149,0.5531496062992126,1.1378703077122159,0.8788347786406204
Bicester North,BCS,2.0,51.9034829537461,-1.15038352192815,53.79400103725245,-1.75127881876231,214.24070309717345,307.0,154.5,LONDON NORTH EASTERN RAILWAY,ANYTIME S,0.0,0.7211514794643071,0.503257328990228,0.6978524530852556,1.4329676646960665
Bicester Village,BIT,2.0,51.8930236127002,-1.14876425178293,53.79400103725245,-1.75127881876231,215.40503971247747,282.0,154.5,CROSSCOUNTRY,ANYTIME S,0.0,0.7172534134123626,0.5478723404255319,0.7638476585548847,1.3091615701118853
Bickley,BKL,2.0,51.4001024308637,0.0452405405139698,53.79400103725245,-1.75127881876231,292.8625439800121,240.0,140.5,LONDON NORTH EASTERN RAILWAY,ANYTIME S,200.0,0.47974724965029714,0.5854166666666667,1.220260599916717,0.8194970812531767
Bidston,BID,2.0,53.4091398593576,-3.07856110228132,53.79400103725245,-1.75127881876231,97.74905852564967,156.0,41.7,TRANSPENNINE EXPRESS,ANYTIME DAY S,0.0,0.4266025742750022,0.2673076923076923,0.6265965290105748,1.5959232994460513
Biggleswade,BIW,2.0,52.0846785950736,-0.261187193156868,53.79400103725245,-1.75127881876231,214.97817907890578,179.0,101.0,LONDON NORTH EASTERN RAILWAY,ANYTIME S,700.0,0.4698151246454128,0.5642458100558659,1.2009954138486356,0.8326426466488009
Bilbrook,BBK,2.0,52.6237197237583,-2.18608801838282,53.79400103725245,-1.75127881876231,133.4407482840384,250.0,68.55,CROSSCOUNTRY,ANYTIME S,0.0,0.5137111480676525,0.2742,0.5337629931361536,1.8734906931715993
Billericay,BIC,2.0,51.6288812691945,0.418629610467223,53.79400103725245,-1.75127881876231,282.0272132822925,248.0,144.0,LONDON NORTH EASTERN RAILWAY,ANYTIME S,0.0,0.5105890255202591,0.5806451612903226,1.1372065051705342,0.8793477661737795
Billingham (Cleveland),BIL,2.0,54.605606575355,-1.27971968622732,53.79400103725245,-1.75127881876231,95.43614535745593,139.0,45.9,TRANSPENNINE EXPRESS,ANYTIME DAY S,64.0,0.4809498521559271,0.3302158273381295,0.686590973794647,1.4564712298403895
Billingshurst,BIG,2.0,51.0152034952011,-0.450302232654151,53.79400103725245,-1.75127881876231,321.6226492814408,298.0,151.5,LONDON NORTH EASTERN RAILWAY,ANYTIME S,200.0,0.4710489150514634,0.5083892617449665,1.07927063517262,0.9265516612893472
Bingham,BIN,1.0,52.9541905628363,-0.95154335353279,53.79400103725245,-1.75127881876231,107.55692373383735,151.0,41.5,LONDON NORTH EASTERN RAILWAY,ANYTIME S,0.0,0.38584219926833146,0.27483443708609273,0.7122975081711083,1.403907761193206
Bingley,BIY,0.0,53.8486154371384,-1.8373224993653,53.79400103725245,-1.75127881876231,8.310215155270024,17.0,3.0,WEST YORKSHIRE PTE,ANYTIME DAY S,134.0,0.3610014835894488,0.17647058823529413,0.48883618560411907,2.045675073673543
Birchgrove,BCG,3.0,51.5215597229164,-3.20185379786194,53.79400103725245,-1.75127881876231,271.2436547259566,337.0,67.0,CROSSCOUNTRY,ANYTIME S,700.0,0.24701038653859594,0.19881305637982197,0.8048773137268742,1.2424253770672662
Birchington-on-sea,BCH,2.0,51.3774886896266,1.3014083545974,53.79400103725245,-1.75127881876231,339.22655974556653,294.0,162.0,LONDON NORTH EASTERN RAILWAY,ANYTIME S,200.0,0.4775569463709047,0.5510204081632653,1.1538318358692738,0.8666774211916418
Birchwood,BWD,2.0,53.4127205850305,-2.5253082468513,53.79400103725245,-1.75127881876231,66.529021272734,142.0,33.6,TRANSPENNINE EXPRESS,ANYTIME DAY S,0.0,0.5050427521285435,0.23661971830985917,0.46851423431502814,2.1344068691146783
Birkbeck,BIK,2.0,51.4038899816034,-0.0557387405611835,53.79400103725245,-1.75127881876231,289.6990920296331,249.0,140.5,LONDON NORTH EASTERN RAILWAY,ANYTIME S,200.0,0.48498598672041526,0.5642570281124498,1.1634501687937073,0.8595125316255047
Birkdale,BDL,2.0,53.6340528065899,-3.01445011129132,53.79400103725245,-1.75127881876231,85.27768716955165,171.0,43.2,TRANSPENNINE EXPRESS,ANYTIME DAY S,0.0,0.5065803428053632,0.25263157894736843,0.4986999249681383,2.005213856937896
Birkenhead Central,BKC,2.0,53.3883166263867,-3.02082115838918,53.79400103725245,-1.75127881876231,95.42106758277437,143.0,41.7,TRANSPENNINE EXPRESS,ANYTIME DAY S,0.0,0.43701041139396957,0.29160839160839164,0.6672801928865341,1.4986208352359147
Birkenhead Hamilton Square,BKQ,2.0,53.3946967251861,-3.01368016573114,53.79400103725245,-1.75127881876231,94.66385839580032,141.0,41.7,TRANSPENNINE EXPRESS,ANYTIME DAY S,0.0,0.4405060252841964,0.29574468085106387,0.6713748822397185,1.4894808049177863
Birkenhead North,BKN,2.0,53.4044379353974,-3.05753365912751,53.79400103725245,-1.75127881876231,96.73748406041446,153.0,41.7,TRANSPENNINE EXPRESS,ANYTIME DAY S,0.0,0.43106351591651415,0.27254901960784317,0.6322711376497677,1.5815999504850518
Birkenhead Park,BKP,2.0,53.3974085855031,-3.03910128885113,53.79400103725245,-1.75127881876231,96.01165025032068,151.0,41.7,TRANSPENNINE EXPRESS,ANYTIME DAY S,0.0,0.43432229204768535,0.276158940397351,0.6358387433796072,1.5727258057362226
Birmingham International,BHI,2.0,52.4508081112451,-1.72585685988124,53.79400103725245,-1.75127881876231,149.49169083897803,217.0,68.55,CROSSCOUNTRY,ANYTIME S,0.0,0.4585539143699783,0.3158986175115207,0.6889018011012813,1.4515856953798
Birmingham Moor Street,BMO,2.0,52.479080623723,-1.89247273057604,53.79400103725245,-1.75127881876231,146.64063803184513,211.0,68.55,CROSSCOUNTRY,ANYTIME S,0.0,0.4674693244659327,0.3248815165876777,0.6949793271651428,1.4388917208214704
Birmingham New Street,BHM,1.0,52.4778198092097,-1.9002055706822,53.79400103725245,-1.75127881876231,146.81487125981815,191.0,68.55,CROSSCOUNTRY,ANYTIME S,0.0,0.4669145530815276,0.3589005235602094,0.7686642474336028,1.3009581274773416
Birmingham Snow Hill,BSW,2.0,52.4833566780576,-1.89908868312646,53.79400103725245,-1.75127881876231,146.19505733896938,213.0,68.55,CROSSCOUNTRY,ANYTIME S,0.0,0.46889410112586266,0.3218309859154929,0.6863617715444572,1.4569576008724836
Bishop Auckland,BIA,2.0,54.6571963763698,-1.67771509725951,53.79400103725245,-1.75127881876231,96.20128045686174,139.0,43.2,TRANSPENNINE EXPRESS,ANYTIME DAY S,95.0,0.4490584719334542,0.31079136690647485,0.6920955428551204,1.4448872129340309
Bishopbriggs,BBG,3.0,55.9038831792009,-4.22491571705821,53.79400103725245,-1.75127881876231,283.53062558984305,280.0,124.5,LONDON NORTH EASTERN RAILWAY,ANYTIME S,0.0,0.43910600394929605,0.4446428571428571,1.0126093771065823,0.9875476394040392
Bishops Stortford,BIS,2.0,51.8666894209812,0.16489410333554,53.79400103725245,-1.75127881876231,250.3386291871881,241.0,146.5,LONDON NORTH EASTERN RAILWAY,ANYTIME S,0.0,0.5852073268742561,0.6078838174273858,1.0387494987020254,0.962696012127616
Bishopstone (Sussex),BIP,3.0,50.7801416620368,0.082756921439231,53.79400103725245,-1.75127881876231,357.9199090431195,343.0,159.0,LONDON NORTH EASTERN RAILWAY,ANYTIME S,0.0,0.44423346112564216,0.46355685131195334,1.043498277093643,0.9583149507301588
Bishopton (Strathclyde),BPT,2.0,55.9022694882255,-4.5004875625329,53.79400103725245,-1.75127881876231,293.66462062099083,326.0,129.0,LONDON NORTH EASTERN RAILWAY,ANYTIME S,0.0,0.4392766133258179,0.39570552147239263,0.9008117196962909,1.110109891040439
Bitterne,BTE,2.0,50.9182213632939,-1.37699961416727,53.79400103725245,-1.75127881876231,321.0127969436768,385.0,165.0,CROSSCOUNTRY,ANYTIME S,0.0,0.5139982006042894,0.42857142857142855,0.8337994725809786,1.199329134743342
Blackburn,BBN,0.0,53.7465184457461,-2.47912240276289,53.79400103725245,-1.75127881876231,48.28120875448833,70.0,29.5,TRANSPENNINE EXPRESS,ANYTIME DAY S,0.0,0.6110037582117828,0.42142857142857143,0.6897315536355476,1.4498394262652474
Blackheath,BKH,3.0,51.4657945200002,0.00887187089452019,53.79400103725245,-1.75127881876231,285.15619769704614,239.0,140.5,LONDON NORTH EASTERN RAILWAY,ANYTIME S,200.0,0.4927124191397345,0.5878661087866108,1.1931221660964273,0.8381371400312921
Blackhorse Road,BHO,1.0,51.58660384873,-0.0412357433706351,53.79400103725245,-1.75127881876231,271.47351302569524,210.0,132.5,LONDON NORTH EASTERN RAILWAY,ANYTIME S,0.0,0.48807708171315684,0.6309523809523809,1.2927310144080726,0.7735561295076447
Blackpool North,BPN,1.0,53.8219180942013,-3.04927516714828,53.79400103725245,-1.75127881876231,85.56362757594151,130.0,37.3,TRANSPENNINE EXPRESS,ANYTIME DAY S,0.0,0.4359328964505928,0.2869230769230769,0.6581817505841655,1.5193371726160072
Blackpool Pleasure Beach,BPB,1.0,53.7879555202556,-3.05387646984086,53.79400103725245,-1.75127881876231,85.84761545601393,176.0,37.3,TRANSPENNINE EXPRESS,ANYTIME DAY S,0.0,0.43449081027895925,0.21193181818181817,0.4877705423637155,2.0501443058739097
Blackpool South,BPS,1.0,53.7987040263195,-3.04893832565541,53.79400103725245,-1.75127881876231,85.51022033931092,178.0,37.3,TRANSPENNINE EXPRESS,ANYTIME DAY S,0.0,0.43620516766289247,0.2095505617977528,0.4803944962882636,2.081622515924795
Blackridge,BKR,2.0,55.8842557507999,-3.75079743413867,53.79400103725245,-1.75127881876231,265.7706539869927,285.0,124.5,LONDON NORTH EASTERN RAILWAY,ANYTIME S,0.0,0.46844901095097297,0.4368421052631579,0.9325286104806763,1.0723531575986127
Blackrod,BLK,1.0,53.5915244932358,-2.56952431744104,53.79400103725245,-1.75127881876231,58.560652360110375,121.0,29.9,TRANSPENNINE EXPRESS,ANYTIME DAY S,0.0,0.5105817437984504,0.2471074380165289,0.4839723335546312,2.0662338126960704
Blackwater,BAW,2.0,51.3315811457068,-0.776741026218888,53.79400103725245,-1.75127881876231,281.8624741826049,339.0,148.5,CROSSCOUNTRY,ANYTIME S,0.0,0.526852680303211,0.43805309734513276,0.8314527262023743,1.2027141994800574
Blaenau Ffestiniog,BFF,3.0,52.9945530771849,-3.93859577234881,53.79400103725245,-1.75127881876231,170.5441787811026,301.0,65.8,TRANSPENNINE EXPRESS,ANYTIME DAY S,0.0,0.3858237816751038,0.21860465116279068,0.5665919560833973,1.7649385757478153
Blair Atholl,BLA,2.0,56.7655504660718,-3.85022876626298,53.79400103725245,-1.75127881876231,356.65370896463605,388.0,140.0,LONDON NORTH EASTERN RAILWAY,ANYTIME S,0.0,0.3925376253801462,0.36082474226804123,0.9192105901150414,1.0878899903392623
Blairhill,BAI,2.0,55.8664556230225,-4.0432911996593,53.79400103725245,-1.75127881876231,273.6829227461463,286.0,124.5,LONDON NORTH EASTERN RAILWAY,ANYTIME S,0.0,0.4549059866460122,0.4353146853146853,0.9569332963151969,1.045004917114534
Blake Street,BKT,2.0,52.6048860712992,-1.84491459685048,53.79400103725245,-1.75127881876231,132.48443953650218,249.0,68.55,CROSSCOUNTRY,ANYTIME S,0.0,0.5174192549692831,0.2753012048192771,0.5320660222349485,1.8794660027330636
Blakedown,BKD,3.0,52.4064026596129,-2.17686566095142,53.79400103725245,-1.75127881876231,157.0315452272668,276.0,79.1,CROSSCOUNTRY,ANYTIME S,0.0,0.5037204460130673,0.2865942028985507,0.5689548740118362,1.7576086358989458
Blantyre,BLT,2.0,55.7973304780703,-4.08697164977011,53.79400103725245,-1.75127881876231,268.85695110330886,284.0,124.5,LONDON NORTH EASTERN RAILWAY,ANYTIME S,0.0,0.463071531121249,0.43838028169014087,0.946679405293341,1.056323813963331
Blaydon,BLO,2.0,54.9657896857216,-1.71258088882198,53.79400103725245,-1.75127881876231,130.4584308898955,164.0,55.9,TRANSPENNINE EXPRESS,ANYTIME DAY S,95.0,0.4284889801194877,0.34085365853658534,0.7954782371335092,1.2571054157351698
Bleasby,BSB,2.0,53.0413649497003,-0.943687538181265,53.79400103725245,-1.75127881876231,99.49486829008819,217.0,54.0,NORTHERN,ANYTIME S,79.0,0.5427415597210208,0.2488479262672811,0.4585016971893465,2.1810170085085465
Bletchley,BLY,2.0,51.9953339717924,-0.736320506839459,53.79400103725245,-1.75127881876231,211.49175212139176,288.0,151.5,CROSSCOUNTRY,ANYTIME S,0.0,0.7163399918926495,0.5260416666666666,0.7343463615326102,1.3617552321127593
Bloxwich,BLX,2.0,52.6182018754768,-2.01147807238452,53.79400103725245,-1.75127881876231,132.00449928216307,256.0,72.05,CROSSCOUNTRY,ANYTIME S,0.0,0.5458147289812542,0.2814453125,0.5156425753209495,1.9393278364913404
Bloxwich North,BWN,2.0,52.6254378492086,-2.01768461058018,53.79400103725245,-1.75127881876231,131.26172401163592,259.0,72.05,CROSSCOUNTRY,ANYTIME S,0.0,0.5489033497199306,0.27818532818532815,0.5068020232109495,1.97315707949288
Blundellsands & Crosby,BLN,2.0,53.4876867000616,-3.03986028592851,53.79400103725245,-1.75127881876231,91.78964444244878,547.0,41.7,TRANSPENNINE EXPRESS,ANYTIME DAY S,0.0,0.45429961357073895,0.07623400365630713,0.16780556570831587,5.959277904632954
Blythe Bridge,BYB,2.0,52.9681439666743,-2.06696136521393,53.79400103725245,-1.75127881876231,94.28225567752898,224.0,47.6,TRANSPENNINE EXPRESS,ANYTIME DAY S,0.0,0.5048670044849688,0.2125,0.4209029271318258,2.3758447269880887
Bodmin Parkway,BOD,2.0,50.4458686645733,-4.66292953056928,53.79400103725245,-1.75127881876231,422.48075576074694,494.0,232.5,LONDON NORTH EASTERN RAILWAY,ANYTIME S,0.0,0.550320924278184,0.4706477732793522,0.8552242019448318,1.1692840283588084
Bodorgan,BOR,3.0,53.2043074000119,-4.41800424551237,53.79400103725245,-1.75127881876231,188.7285579044116,285.0,64.4,TRANSPENNINE EXPRESS,ANYTIME DAY S,0.0,0.3412308169737498,0.22596491228070179,0.6622054663312688,1.5101053235639545
Bognor Regis,BOG,3.0,50.7865584395345,-0.676178286011514,53.79400103725245,-1.75127881876231,342.58145476268373,322.0,159.0,LONDON NORTH EASTERN RAILWAY,ANYTIME S,0.0,0.4641231969493036,0.4937888198757764,1.0639175613747942,0.939922449167772
Bogston,BGS,2.0,55.9370473872407,-4.71140217696609,53.79400103725245,-1.75127881876231,304.96356833202344,351.0,133.5,LONDON NORTH EASTERN RAILWAY,ANYTIME S,0.0,0.43775720729583784,0.3803418803418803,0.8688420750200098,1.1509571517665849
Bolton,BON,1.0,53.5741455351566,-2.42582497565139,53.79400103725245,-1.75127881876231,50.8434316187082,96.0,29.9,TRANSPENNINE EXPRESS,ANYTIME DAY S,0.0,0.5880798964206436,0.31145833333333334,0.5296190793615437,1.8881495002134379
Bolton-Upon-Dearne,BTD,1.0,53.5189470302023,-1.31154616002462,53.79400103725245,-1.75127881876231,42.21814149225248,87.0,18.6,LONDON NORTH EASTERN RAILWAY,ANYTIME DAY S,0.0,0.44056889627444445,0.21379310344827587,0.4852659941638216,2.0607254825740142
Bookham,BKA,2.0,51.2887375770933,-0.384020684769355,53.79400103725245,-1.75127881876231,293.7933393785509,281.0,142.0,LONDON NORTH EASTERN RAILWAY,ANYTIME S,0.0,0.48333294519326686,0.505338078291815,1.0455278981443092,0.9564546309810422
Bootle (Cumbria),BOC,2.0,54.2913058315169,-3.39386227213438,53.79400103725245,-1.75127881876231,121.00189434135451,276.0,45.3,NORTHERN,ANYTIME DAY S,0.0,0.37437430419234297,0.1641304347826087,0.43841266065708157,2.280956025542752
Bootle New Strand,BNW,3.0,53.4533917659639,-2.99474773972908,53.79400103725245,-1.75127881876231,90.5868822777643,415.0,41.7,TRANSPENNINE EXPRESS,ANYTIME DAY S,0.0,0.46033155078829546,0.10048192771084338,0.21828164404280556,4.5812372560465855
Bootle Oriel Road,BOT,3.0,53.4466239167649,-2.9957338918952,53.79400103725245,-1.75127881876231,90.96965738901011,170.0,41.7,TRANSPENNINE EXPRESS,ANYTIME DAY S,0.0,0.4583946031771876,0.24529411764705883,0.5351156317000595,1.8687549769813403
Bordesley,BBS,3.0,52.4718743800827,-1.87776885469942,53.79400103725245,-1.75127881876231,147.38112591650182,219.0,68.55,CROSSCOUNTRY,ANYTIME S,0.0,0.46512061550429956,0.31301369863013695,0.6729731777009216,1.4859433230553114
Borough Green & Wrotham,BRG,2.0,51.2932170234776,0.306244959659036,53.79400103725245,-1.75127881876231,311.2959941797581,283.0,146.5,LONDON NORTH EASTERN RAILWAY,ANYTIME S,0.0,0.4706131872529123,0.5176678445229682,1.099985845158156,0.9091026074578442
Borth,BRH,2.0,52.4910318901744,-4.05017708151719,53.79400103725245,-1.75127881876231,211.38312351164583,417.0,84.4,TRANSPENNINE EXPRESS,ANYTIME DAY S,0.0,0.39927501589477704,0.2023980815347722,0.5069139652557454,1.972721346304763
Bosham,BOH,3.0,50.8427472866996,-0.847431235664145,53.79400103725245,-1.75127881876231,334.121759686002,359.0,159.0,LONDON NORTH EASTERN RAILWAY,ANYTIME S,0.0,0.4758744241902222,0.4428969359331476,0.9307012804624011,1.0744586055615708
Boston,BSN,1.0,52.9780883520384,-0.03100323679323,53.79400103725245,-1.75127881876231,146.09969170005738,281.0,62.9,LONDON NORTH EASTERN RAILWAY,ANYTIME DAY S,0.0,0.4305279447757746,0.22384341637010677,0.519927728469955,1.9233442365976576
Botley,BOE,2.0,50.9164546156522,-1.25923650546392,53.79400103725245,-1.75127881876231,321.9441791850826,365.0,162.0,CROSSCOUNTRY,ANYTIME S,0.0,0.5031928218427821,0.4438356164383562,0.8820388470824181,1.1337369134112067
Bottesford,BTF,1.0,52.9446141670485,-0.794842711685305,53.79400103725245,-1.75127881876231,113.96742250586195,139.0,61.9,LONDON NORTH EASTERN RAILWAY,ANYTIME DAY S,0.0,0.5431376672295642,0.44532374100719424,0.8199095144306615,1.2196467810163074
Bourne End,BNE,3.0,51.5771173647136,-0.710473547391366,53.79400103725245,-1.75127881876231,256.53183429577274,313.0,144.0,CROSSCOUNTRY,ANYTIME S,0.0,0.5613338414521012,0.46006389776357826,0.8195905249066222,1.22012147482297
Bournemouth,BMH,2.0,50.7272746595869,-1.86450316465566,53.79400103725245,-1.75127881876231,341.32893085485625,341.0,179.0,CROSSCOUNTRY,ANYTIME S,0.0,0.5244208264201209,0.5249266862170088,1.0009646066124818,0.9990363229567665
Bournville,BRV,2.0,52.4269645832552,-1.92642405915734,53.79400103725245,-1.75127881876231,152.58651232859404,222.0,68.55,CROSSCOUNTRY,ANYTIME S,0.0,0.44925333801704587,0.3087837837837838,0.6873266321107839,1.4549123419370413
Bow Brickhill,BWB,3.0,52.0043001848605,-0.696077833880482,53.79400103725245,-1.75127881876231,211.43908108946144,299.0,151.5,CROSSCOUNTRY,ANYTIME S,0.0,0.7165184374590582,0.5066889632107023,0.7071541173560584,1.4141188963713425
Bowes Park,BOP,2.0,51.6070103763875,-0.120581954633459,53.79400103725245,-1.75127881876231,267.1539255464463,200.0,132.5,LONDON NORTH EASTERN RAILWAY,ANYTIME S,0.0,0.49596875557407477,0.6625,1.3357696277322315,0.7486320838853958
Bowling,BWG,3.0,55.9310849001239,-4.49384261915191,53.79400103725245,-1.75127881876231,295.94244507839255,335.0,129.0,LONDON NORTH EASTERN RAILWAY,ANYTIME S,0.0,0.43589556734867496,0.3850746268656716,0.8834102838160972,1.1319768609442333
Box Hill & Westhumble,BXW,2.0,51.2540106794359,-0.328489952956063,53.79400103725245,-1.75127881876231,298.66891200730896,270.0,144.0,LONDON NORTH EASTERN RAILWAY,ANYTIME S,0.0,0.48213923247718554,0.5333333333333333,1.1061811555826258,0.9040110608947228
Bracknell,BCE,2.0,51.4130914141393,-0.751703650172948,53.79400103725245,-1.75127881876231,273.45525860099764,297.0,146.5,CROSSCOUNTRY,ANYTIME S,0.0,0.5357366347588151,0.49326599326599324,0.9207247764343355,1.086100890944492
Bradford Forster Square,BDQ,-1.0,53.7969256219995,-1.75296173787813,53.79400103725245,-1.75127881876231,0.34388252007754305,-999.0,-999.0,N/A,no route found,-998.0,-999.0,-999.0,-999.0,-999.0
Bradford Interchange,BDI,-1.0,53.7910764525054,-1.74959589964649,53.79400103725245,-1.75127881876231,0.3438848568958167,-999.0,-999.0,N/A,no route found,-998.0,-999.0,-999.0,-999.0,-999.0
Bradford-on-Avon,BOA,2.0,51.3449161602034,-2.25232693866303,53.79400103725245,-1.75127881876231,274.63684689395257,376.0,211.0,LONDON NORTH EASTERN RAILWAY,ANYTIME S,0.0,0.7682872942445151,0.5611702127659575,0.7304171459945547,1.3690806759997047
Brading,BDN,4.0,50.6783720718463,-1.13872244962043,53.79400103725245,-1.75127881876231,349.19435308368526,395.0,181.0,LONDON NORTH EASTERN RAILWAY,ANYTIME S,981.0,0.5183359879723568,0.4582278481012658,0.8840363369207221,1.1311752223706129
Braintree,BTR,2.0,51.8753890748181,0.556686982906197,53.79400103725245,-1.75127881876231,264.1271906805087,329.0,151.5,LONDON NORTH EASTERN RAILWAY,ANYTIME S,0.0,0.5735872918258391,0.46048632218844987,0.8028182087553456,1.2456120066712941
Braintree Freeport,BTP,2.0,51.8694135093739,0.568434688069829,53.79400103725245,-1.75127881876231,265.1368008501239,327.0,151.5,LONDON NORTH EASTERN RAILWAY,ANYTIME S,0.0,0.5714031379809839,0.463302752293578,0.8108159047404401,1.2333255849490543
Bramhall,BML,2.0,53.360614520234,-2.16359288123925,53.79400103725245,-1.75127881876231,55.42965788349486,117.0,29.9,TRANSPENNINE EXPRESS,ANYTIME DAY S,0.0,0.5394224164768522,0.25555555555555554,0.4737577596879903,2.110783368822465
Bramley (Hants),BMY,2.0,51.3302932744388,-1.06100278415591,53.79400103725245,-1.75127881876231,278.1202566366371,330.0,151.5,CROSSCOUNTRY,ANYTIME S,0.0,0.5447283913517097,0.4590909090909091,0.842788656474658,1.186537090073031
Bramley (W Yorks),BLE,0.0,53.8053497570895,-1.63720635437646,53.79400103725245,-1.75127881876231,7.621653964527377,14.0,2.9,WEST YORKSHIRE PTE,ANYTIME DAY S,1000.0,0.3804948392431813,0.20714285714285713,0.5444038546090983,1.8368716377257028
Brampton (Cumbria),BMP,2.0,54.9323930102284,-2.70294760254176,53.79400103725245,-1.75127881876231,141.00717563234193,224.0,48.4,NORTHERN,ANYTIME DAY S,0.0,0.34324494326584326,0.21607142857142855,0.6294963197872407,1.5885716382551422
Brampton (Suffolk),BRP,3.0,52.3954307722651,1.54381046672808,53.79400103725245,-1.75127881876231,270.04959137023087,389.0,165.0,LONDON NORTH EASTERN RAILWAY,ANYTIME S,0.0,0.6109988878812609,0.4241645244215938,0.6942148878412104,1.4404761659746088
Branchton,BCN,2.0,55.9406016000061,-4.80354935893801,53.79400103725245,-1.75127881876231,308.98178306621514,333.0,133.5,LONDON NORTH EASTERN RAILWAY,ANYTIME S,0.0,0.43206430707725835,0.4009009009009009,0.9278732224210665,1.077733440125296
Brandon,BND,2.0,52.4540047306678,0.624731734521936,53.79400103725245,-1.75127881876231,218.01268856941476,248.0,101.0,LONDON NORTH EASTERN RAILWAY,ANYTIME S,700.0,0.4632757875826196,0.40725806451612906,0.879083421650866,1.1375484685196997
Branksome,BSM,2.0,50.7269660330633,-1.91975842787338,53.79400103725245,-1.75127881876231,341.4693752988796,392.0,179.0,CROSSCOUNTRY,ANYTIME S,0.0,0.5242051350676054,0.45663265306122447,0.871095345150203,1.1479799605949794
Braystones (Cumbria),BYS,2.0,54.4393640536404,-3.54182643942065,53.79400103725245,-1.75127881876231,137.36059759630507,310.0,53.1,NORTHERN,ANYTIME DAY S,0.0,0.3865737404263329,0.17129032258064517,0.44309870192356476,2.2568335128467645
Bredbury,BDY,2.0,53.4231550957567,-2.11048830300964,53.79400103725245,-1.75127881876231,47.632393774341146,123.0,29.9,TRANSPENNINE EXPRESS,ANYTIME DAY S,0.0,0.6277240682391797,0.24308943089430893,0.3872552339377329,2.5822762673384316
Breich,BRC,2.0,55.8273164832767,-3.66812586892786,53.79400103725245,-1.75127881876231,257.70256437358955,273.0,116.5,LONDON NORTH EASTERN RAILWAY,ANYTIME S,0.0,0.4520715588654787,0.4267399267399267,0.9439654372658958,1.059360820345714
Brentford,BFD,2.0,51.4875457097478,-0.3096509962364,53.79400103725245,-1.75127881876231,274.5726742940939,245.0,140.5,LONDON NORTH EASTERN RAILWAY,ANYTIME S,0.0,0.5117042340838001,0.573469387755102,1.120704793037118,0.8922956395055588
Brentwood,BRE,2.0,51.6136030493508,0.2995857793073,53.79400103725245,-1.75127881876231,279.41879560355494,253.0,144.0,LONDON NORTH EASTERN RAILWAY,ANYTIME S,0.0,0.5153554530537384,0.5691699604743083,1.1044221170100985,0.9054509001569155
Bricket Wood,BWO,3.0,51.7054267834401,-0.359115040469,53.79400103725245,-1.75127881876231,250.69830063749347,267.0,144.0,VIRGIN WEST COAST,ANYTIME S,0.0,0.5743955967544517,0.5393258426966292,0.9389449462078407,1.0650251689822126
Bridge of Allan,BEA,2.0,56.1566398048563,-3.95722936202684,53.79400103725245,-1.75127881876231,298.51050333114017,280.0,123.5,LONDON NORTH EASTERN RAILWAY,ANYTIME S,0.0,0.41372078577416227,0.44107142857142856,1.0661089404683577,0.9379904454798821
Bridge of Orchy,BRO,3.0,56.5158728605762,-4.76299400728156,53.79400103725245,-1.75127881876231,358.64005246207927,427.0,142.5,LONDON NORTH EASTERN RAILWAY,ANYTIME S,0.0,0.39733431618061454,0.3337236533957845,0.839906446047024,1.190608793046473
Bridgend,BGN,2.0,51.5069776497295,-3.57527638119945,53.79400103725245,-1.75127881876231,282.83410759276524,328.0,68.3,CROSSCOUNTRY,ANYTIME S,700.0,0.2414843124165944,0.20823170731707316,0.8622991085145282,1.1596904022348897
Bridgeton,BDG,2.0,55.8489676845822,-4.22605724682491,53.79400103725245,-1.75127881876231,278.5919801103835,294.0,129.0,LONDON NORTH EASTERN RAILWAY,ANYTIME S,0.0,0.46304276221048335,0.4387755102040816,0.947591769082937,1.055306760386683
Bridgwater,BWT,3.0,51.1278595271724,-2.99040597303838,53.79400103725245,-1.75127881876231,308.388315897218,412.0,220.5,LONDON NORTH EASTERN RAILWAY,ANYTIME S,0.0,0.7150076336662831,0.5351941747572816,0.7485153298476165,1.3359779821791773
Bridlington,BDT,2.0,54.0841300013586,-0.198720390714093,53.79400103725245,-1.75127881876231,106.94786668963577,172.0,43.7,TRANSPENNINE EXPRESS,ANYTIME DAY S,64.0,0.4086103010059847,0.2540697674418605,0.6217899226141614,1.6082602236391161
Brierfield,BRF,1.0,53.8239823807197,-2.23649020577414,53.79400103725245,-1.75127881876231,32.13724231278108,114.0,29.5,NORTHERN,ANYTIME DAY S,0.0,0.917938126516467,0.25877192982456143,0.2819056343226411,3.5472863194195674
Brigg,BGG,2.0,53.5491442686681,-0.486124757673641,53.79400103725245,-1.75127881876231,87.94269920073988,297.0,35.6,LONDON NORTH EASTERN RAILWAY,ANYTIME DAY S,0.0,0.40480904411108287,0.11986531986531987,0.2961033643122555,3.377199047780663
Brighouse,BGH,0.0,53.6981985445311,-1.77943904000537,53.79400103725245,-1.75127881876231,10.823484061623473,28.0,5.4,WEST YORKSHIRE PTE,ANYTIME DAY S,0.0,0.4989151339120672,0.19285714285714287,0.3865530022008383,2.5869673610255335
Brighton (East Sussex),BTN,2.0,50.8290032740444,-0.141280362604851,53.79400103725245,-1.75127881876231,347.69267105600915,272.0,154.5,LONDON NORTH EASTERN RAILWAY,ANYTIME S,0.0,0.4443579426933388,0.5680147058823529,1.2782818788823866,0.7823000673953925
Brimsdown,BMD,2.0,51.6555817179022,-0.0308174334464399,53.79400103725245,-1.75127881876231,264.81883519689063,243.0,132.5,LONDON NORTH EASTERN RAILWAY,ANYTIME S,0.0,0.5003420542254381,0.5452674897119342,1.089789445254694,0.9176084466172185
Brinnington,BNT,2.0,53.4321182782686,-2.13512015019042,53.79400103725245,-1.75127881876231,47.6186966653219,121.0,29.9,TRANSPENNINE EXPRESS,ANYTIME DAY S,0.0,0.627904627674838,0.2471074380165289,0.3935429476472884,2.5410187273797793
Bristol Parkway,BPW,2.0,51.5138036668802,-2.54216343130652,53.79400103725245,-1.75127881876231,259.3183627010994,300.0,215.5,LONDON NORTH EASTERN RAILWAY,ANYTIME S,0.0,0.8310248366344726,0.7183333333333334,0.8643945423369979,1.1568791229250197
Bristol Temple Meads,BRI,2.0,51.449146420501,-2.58131562733598,53.79400103725245,-1.75127881876231,266.91434354060635,311.0,215.5,LONDON NORTH EASTERN RAILWAY,ANYTIME S,0.0,0.8073751194536889,0.6929260450160771,0.8582454776225285,1.1651678058009152
Brithdir,BHD,3.0,51.7103060616454,-3.22872077880337,53.79400103725245,-1.75127881876231,252.41129858947565,383.0,69.5,CROSSCOUNTRY,ANYTIME S,700.0,0.2753442511820183,0.1814621409921671,0.6590373331317902,1.5173647223411943
Briton Ferry,BNF,2.0,51.6379005035521,-3.81925304025098,53.79400103725245,-1.75127881876231,277.63555170822593,350.0,68.3,CROSSCOUNTRY,ANYTIME S,700.0,0.24600595845800813,0.19514285714285715,0.7932444334520741,1.2606454679400125
Brixton,BRX,2.0,51.4632974069132,-0.114183479348404,53.79400103725245,-1.75127881876231,282.03539956326404,228.0,140.5,LONDON NORTH EASTERN RAILWAY,ANYTIME S,200.0,0.49816441559310043,0.6162280701754386,1.236997366505544,0.8084091584001915
Broad Green,BGE,1.0,53.4065063198581,-2.8934843782564,53.79400103725245,-1.75127881876231,87.04932601303985,415.0,41.7,TRANSPENNINE EXPRESS,ANYTIME DAY S,0.0,0.47903874630520876,0.10048192771084338,0.2097574120796141,4.7674119836129885
Broadbottom,BDB,2.0,53.4409753914717,-2.01652101691897,53.79400103725245,-1.75127881876231,43.033323698329106,117.0,31.9,TRANSPENNINE EXPRESS,ANYTIME DAY S,0.0,0.7412859909130981,0.2726495726495726,0.36780618545580435,2.7188232268599526
Broadstairs,BSR,2.0,51.3606706129939,1.43356042841681,53.79400103725245,-1.75127881876231,346.2424193178237,304.0,162.0,LONDON NORTH EASTERN RAILWAY,ANYTIME S,200.0,0.46788027971609264,0.5328947368421053,1.1389553267033674,0.8779975619363715
Brockenhurst,BCU,2.0,50.8168418133325,-1.57353117285741,53.79400103725245,-1.75127881876231,331.4991813151946,325.0,170.5,CROSSCOUNTRY,ANYTIME S,0.0,0.514330078655265,0.5246153846153846,1.0199974809698296,0.9803945780818835
Brockholes,BHS,1.0,53.5969730380642,-1.76969142002127,53.79400103725245,-1.75127881876231,21.96278243981787,61.0,5.4,WEST YORKSHIRE PTE,ANYTIME DAY S,0.0,0.24587048634648226,0.08852459016393444,0.3600456137675061,2.7774258642843366
Brockley,BCY,3.0,51.4646472014469,-0.0375366925196268,53.79400103725245,-1.75127881876231,283.975574551343,243.0,140.5,LONDON NORTH EASTERN RAILWAY,ANYTIME S,200.0,0.4947608618169993,0.5781893004115226,1.1686237635857737,0.855707398018013
Bromborough,BOM,2.0,53.3218495381578,-2.98689585549247,53.79400103725245,-1.75127881876231,97.29198462628462,159.0,40.9,TRANSPENNINE EXPRESS,ANYTIME DAY S,0.0,0.42038406511187937,0.2572327044025157,0.6118992743791485,1.6342559010461815
Bromborough Rake,BMR,2.0,53.3299093778849,-2.98946942122466,53.79400103725245,-1.75127881876231,96.94816804905238,157.0,40.9,TRANSPENNINE EXPRESS,ANYTIME DAY S,0.0,0.42187491340017924,0.2605095541401274,0.6175042550895057,1.619422039213402
Bromley Cross (Lancs),BMC,1.0,53.6140430093272,-2.41089911446368,53.79400103725245,-1.75127881876231,47.945161194007426,105.0,29.9,TRANSPENNINE EXPRESS,ANYTIME DAY S,0.0,0.6236291474547622,0.28476190476190477,0.45662058280007073,2.1900020228344492
Bromley North,BMN,3.0,51.4083259856208,0.0169926357417391,53.79400103725245,-1.75127881876231,291.2342036824624,255.0,140.5,LONDON NORTH EASTERN RAILWAY,ANYTIME S,200.0,0.48242959866482416,0.5509803921568628,1.1420949164018133,0.8755839691069762
Bromley South,BMS,2.0,51.3999745779484,0.0173440284479178,53.79400103725245,-1.75127881876231,292.0956960317833,237.0,140.5,LONDON NORTH EASTERN RAILWAY,ANYTIME S,200.0,0.48100674507957153,0.5928270042194093,1.2324712912733473,0.8113779258637612
Bromsgrove,BMV,2.0,52.3222879772082,-2.04734524157192,53.79400103725245,-1.75127881876231,164.98116466140692,239.0,88.05,CROSSCOUNTRY,ANYTIME S,0.0,0.5336972870855058,0.3684100418410042,0.6902977600895687,1.4486502170747972
Brondesbury,BSY,3.0,51.5451643215911,-0.202308734122339,53.79400103725245,-1.75127881876231,271.2863203863935,232.0,140.5,LONDON NORTH EASTERN RAILWAY,ANYTIME S,0.0,0.5179030029965597,0.6056034482758621,1.169337587872386,0.8551850298590877
Brondesbury Park,BSP,3.0,51.5406977630272,-0.210127665126915,53.79400103725245,-1.75127881876231,271.54343062223506,234.0,140.5,LONDON NORTH EASTERN RAILWAY,ANYTIME S,0.0,0.5174126277997141,0.6004273504273504,1.1604420112061327,0.8617406043069972
Brookmans Park,BPK,2.0,51.7210604040222,-0.204548729285783,53.79400103725245,-1.75127881876231,253.19946162247962,198.0,132.5,LONDON NORTH EASTERN RAILWAY,ANYTIME S,0.0,0.5233028504521763,0.6691919191919192,1.278785159709493,0.7819921840719314
Brookwood,BKO,2.0,51.3037572593507,-0.635747900032551,53.79400103725245,-1.75127881876231,287.2451902788952,287.0,144.0,LONDON NORTH EASTERN RAILWAY,ANYTIME S,0.0,0.5013138770406772,0.5017421602787456,1.0008543215292516,0.9991464077130163
Broome,BME,3.0,52.4227745962921,-2.88520796216339,53.79400103725245,-1.75127881876231,170.44626671968092,247.0,69.9,TRANSPENNINE EXPRESS,ANYTIME DAY S,0.0,0.4100999179698012,0.28299595141700407,0.6900658571647,1.4491370491922875
Broomfleet,BMF,1.0,53.7402076992399,-0.671828400321333,53.79400103725245,-1.75127881876231,71.43097075793973,101.0,24.0,TRANSPENNINE EXPRESS,ANYTIME DAY S,64.0,0.33598871393375734,0.2376237623762376,0.7072373342370271,1.4139525044712289
Brora,BRA,3.0,58.012954677959,-3.85228367382381,53.79400103725245,-1.75127881876231,487.71195597541015,625.0,182.0,LONDON NORTH EASTERN RAILWAY,ANYTIME S,0.0,0.3731710854535135,0.2912,0.7803391295606562,1.2814941121343184
Brough,BUH,1.0,53.726959736948,-0.578724236728498,53.79400103725245,-1.75127881876231,77.69013839234417,77.0,24.0,TRANSPENNINE EXPRESS,ANYTIME DAY S,64.0,0.30891951664183204,0.3116883116883117,1.00896283626421,0.9911167825592112
Broughty Ferry,BYF,2.0,56.4671632427311,-2.87315275743822,53.79400103725245,-1.75127881876231,306.06387689492556,318.0,135.0,LONDON NORTH EASTERN RAILWAY,ANYTIME S,0.0,0.44108439509294556,0.42452830188679247,0.9624650216821559,1.0389987973300496
Broxbourne,BXB,2.0,51.7469087203036,-0.0110867237416249,53.79400103725245,-1.75127881876231,256.28036545353694,234.0,142.0,LONDON NORTH EASTERN RAILWAY,ANYTIME S,0.0,0.5540806832731955,0.6068376068376068,1.0952152369809272,0.9130625344079419
Bruce Grove,BCV,2.0,51.5939575362971,-0.0698670703254643,53.79400103725245,-1.75127881876231,269.90907968171325,221.0,132.5,LONDON NORTH EASTERN RAILWAY,ANYTIME S,0.0,0.49090604938614474,0.5995475113122172,1.221308052858431,0.8187942408629282
Brundall,BDA,2.0,52.6194794445227,1.43929868679443,53.79400103725245,-1.75127881876231,250.02931742576857,292.0,107.0,LONDON NORTH EASTERN RAILWAY,ANYTIME S,700.0,0.4279498144523285,0.3664383561643836,0.8562647857046869,1.1678630450474758
Brundall Gardens,BGA,2.0,52.623439277351,1.41841612253682,53.79400103725245,-1.75127881876231,248.6020169675437,289.0,107.0,LONDON NORTH EASTERN RAILWAY,ANYTIME S,700.0,0.43040680564538386,0.370242214532872,0.8602145915831962,1.162500624593607
Brunstane,BSU,2.0,55.9425140850115,-3.10098653970798,53.79400103725245,-1.75127881876231,254.3764778802723,236.0,116.5,LONDON NORTH EASTERN RAILWAY,ANYTIME S,0.0,0.45798259717564455,0.4936440677966102,1.077866431696069,0.9277587376261984
Brunswick,BRW,3.0,53.3832435421687,-2.97607735757102,53.79400103725245,-1.75127881876231,93.10183842970405,164.0,41.7,TRANSPENNINE EXPRESS,ANYTIME DAY S,0.0,0.4478966334428006,0.25426829268292683,0.5676941367664881,1.76151193967912
Bruton,BRU,2.0,51.1116412233567,-2.44707381432238,53.79400103725245,-1.75127881876231,302.20270933005173,420.0,217.0,LONDON NORTH EASTERN RAILWAY,ANYTIME S,0.0,0.7180610672917651,0.5166666666666667,0.719530260309647,1.3897956141130936
Bryn,BYN,1.0,53.4998691660173,-2.6472139954436,53.79400103725245,-1.75127881876231,67.68943914895812,390.0,33.6,TRANSPENNINE EXPRESS,ANYTIME DAY S,0.0,0.49638467126399843,0.08615384615384616,0.173562664484508,5.761607791457124
Buckenham (Norfolk),BUC,-999.0,52.5977342869752,1.47032522512213,53.79400103725245,-1.75127881876231,253.10839860406833,-999.0,107.0,LONDON NORTH EASTERN RAILWAY,ANYTIME S,700.0,0.42274377535522895,-999.0,-999.0,-999.0
Buckley,BCK,3.0,53.163039091322,-3.05592619131988,53.79400103725245,-1.75127881876231,111.50522725129036,245.0,43.6,TRANSPENNINE EXPRESS,ANYTIME DAY S,0.0,0.3910130589819093,0.17795918367346938,0.45512337653587903,2.197206409416692
Bucknell,BUK,3.0,52.3573820377697,-2.94737831871819,53.79400103725245,-1.75127881876231,178.8426360278404,256.0,69.9,TRANSPENNINE EXPRESS,ANYTIME DAY S,0.0,0.39084639743913574,0.273046875,0.6986040469837516,1.4314260049273066
Buckshaw Parkway,BSV,1.0,53.6733436562841,-2.6608302706882,53.79400103725245,-1.75127881876231,61.50802274501457,120.0,32.1,TRANSPENNINE EXPRESS,ANYTIME DAY S,0.0,0.5218831392625414,0.2675,0.5125668562084548,1.9509650065889397
Bugle,BGL,4.0,50.4003548175137,-4.79210144517706,53.79400103725245,-1.75127881876231,431.19622679259584,598.0,238.0,LONDON NORTH EASTERN RAILWAY,ANYTIME S,0.0,0.5519528818012531,0.3979933110367893,0.7210639244023341,1.3868395937695353
Builth Road,BHR,3.0,52.1693260878635,-3.42703322967269,53.79400103725245,-1.75127881876231,212.96051102862015,330.0,80.1,TRANSPENNINE EXPRESS,ANYTIME DAY S,0.0,0.37612606963191975,0.2427272727272727,0.6453348819049095,1.5495830584086583
Bulwell,BLW,2.0,52.9996957837852,-1.19623056375416,53.79400103725245,-1.75127881876231,95.80105950917054,202.0,54.0,NORTHERN,ANYTIME S,79.0,0.5636680875625478,0.26732673267326734,0.4742626708374779,2.108536179400642
Bures,BUE,3.0,51.9711590332091,0.769143780923498,53.79400103725245,-1.75127881876231,264.42426341788297,356.0,154.5,LONDON NORTH EASTERN RAILWAY,ANYTIME S,0.0,0.5842882873264769,0.4339887640449438,0.7427647848816937,1.3463212316390016
Burgess Hill,BUG,2.0,50.9536546008005,-0.127412852764647,53.79400103725245,-1.75127881876231,334.8246664138664,258.0,151.5,LONDON NORTH EASTERN RAILWAY,ANYTIME S,200.0,0.4524756243995941,0.5872093023255814,1.2977700248599473,0.7705525484824771
Burley Park,BUY,1.0,53.8120311080587,-1.57776768947798,53.79400103725245,-1.75127881876231,11.606572986958215,46.0,4.6,WEST YORKSHIRE PTE,ANYTIME DAY S,64.0,0.39632715058689705,0.09999999999999999,0.252316804064309,3.9632715058689705
Burley-in-Wharfedale,BUW,0.0,53.9081516997075,-1.75337211508043,53.79400103725245,-1.75127881876231,12.705969599018971,25.0,3.7,WEST YORKSHIRE PTE,ANYTIME DAY S,134.0,0.2912017041411525,0.14800000000000002,0.5082387839607588,1.967579082034814
Burnage,BNA,2.0,53.4211687602571,-2.21567840315285,53.79400103725245,-1.75127881876231,51.640383661788924,106.0,26.8,TRANSPENNINE EXPRESS,ANYTIME DAY S,0.0,0.5189736810540109,0.2528301886792453,0.48717343077159364,2.0526570967061626
Burneside (Cumbria),BUD,1.0,54.3549826054845,-2.76667730640148,53.79400103725245,-1.75127881876231,91.19404788299174,148.0,37.9,NORTHERN,ANYTIME DAY S,0.0,0.41559729916395766,0.2560810810810811,0.6161759992094037,1.6229129360492278
Burnham (Bucks),BNM,2.0,51.5235048795581,-0.646373823188634,53.79400103725245,-1.75127881876231,263.4810408082279,264.0,142.0,CROSSCOUNTRY,ANYTIME S,0.0,0.5389382080942716,0.5378787878787878,0.9980342454857116,1.0019696263161106
Burnham-on-Crouch,BUU,2.0,51.6336547723703,0.814027782561537,53.79400103725245,-1.75127881876231,296.35209547482907,330.0,126.0,LONDON NORTH EASTERN RAILWAY,ANYTIME S,700.0,0.4251699310514979,0.38181818181818183,0.8980366529540275,1.113540295611066
Burnley Barracks,BUB,2.0,53.7908801067712,-2.25808600820696,53.79400103725245,-1.75127881876231,33.40111180180239,83.0,29.5,NORTHERN,ANYTIME DAY S,0.0,0.8832041332949918,0.35542168674698793,0.4024230337566553,2.484947222490994
Burnley Central,BNC,1.0,53.7935141377532,-2.24497131410056,53.79400103725245,-1.75127881876231,32.53405828767545,79.0,29.5,NORTHERN,ANYTIME DAY S,0.0,0.9067420897556819,0.37341772151898733,0.4118235226288032,2.4282245793457244
Burnley Manchester Road,BYM,0.0,53.784967519749,-2.24886752625716,53.79400103725245,-1.75127881876231,32.809511947981214,53.0,29.5,NORTHERN,ANYTIME DAY S,0.0,0.8991294977740487,0.5566037735849056,0.6190473952449286,1.6153851993906638
Burnside (Strathclyde),BUI,2.0,55.8169313339993,-4.20239033426663,53.79400103725245,-1.75127881876231,274.8332606767499,317.0,129.0,LONDON NORTH EASTERN RAILWAY,ANYTIME S,0.0,0.46937550310450116,0.4069400630914827,0.8669818948793372,1.1534266239079602
Burntisland,BTS,2.0,56.0570842114504,-3.23319831966981,53.79400103725245,-1.75127881876231,269.23502766482807,270.0,118.0,LONDON NORTH EASTERN RAILWAY,ANYTIME S,0.0,0.4382787820123418,0.43703703703703706,0.9971667691289928,1.0028412808756975
Burscough Bridge,BCB,1.0,53.6052595050232,-2.84088028461687,53.79400103725245,-1.75127881876231,74.96726825526032,136.0,33.6,TRANSPENNINE EXPRESS,ANYTIME DAY S,0.0,0.44819560298760586,0.24705882352941178,0.55122991364162,1.8141250597117378
Burscough Junction,BCJ,1.0,53.5975223038556,-2.84060569626726,53.79400103725245,-1.75127881876231,75.20205500822163,131.0,41.7,TRANSPENNINE EXPRESS,ANYTIME DAY S,0.0,0.5545061234754962,0.31832061068702294,0.5740614886123789,1.7419736732683453
Bursledon,BUO,2.0,50.8836886125224,-1.30503236047306,53.79400103725245,-1.75127881876231,325.2646252634396,400.0,165.0,CROSSCOUNTRY,ANYTIME S,0.0,0.5072792648950453,0.4125,0.813161563158599,1.2297679148970793
Burton Joyce,BUJ,2.0,52.9834418843688,-1.04087761567102,53.79400103725245,-1.75127881876231,101.84085694045822,205.0,54.0,NORTHERN,ANYTIME S,79.0,0.5302390575088285,0.2634146341463415,0.49678466800223525,2.0129445701724045
Burton-on-Trent,BUT,2.0,52.8058165084357,-1.64245997205794,53.79400103725245,-1.75127881876231,110.21594143346849,188.0,75.15,CROSSCOUNTRY,ANYTIME S,0.0,0.681843288934424,0.3997340425531915,0.5862550076248324,1.7057423595432029
Bury St Edmunds,BSE,2.0,52.2537604920335,0.713306656862091,53.79400103725245,-1.75127881876231,238.15190493704577,208.0,101.0,LONDON NORTH EASTERN RAILWAY,ANYTIME S,700.0,0.42409906411077763,0.4855769230769231,1.1449610814281046,0.8733921320301163
Busby,BUS,2.0,55.7803445376612,-4.26220173231044,53.79400103725245,-1.75127881876231,273.7983638022049,335.0,129.0,LONDON NORTH EASTERN RAILWAY,ANYTIME S,0.0,0.4711496380350581,0.3850746268656716,0.8173085486632983,1.2235281297809648
Bush Hill Park,BHK,2.0,51.6415169536941,-0.0692211146516689,53.79400103725245,-1.75127881876231,265.1117980240433,230.0,132.5,LONDON NORTH EASTERN RAILWAY,ANYTIME S,0.0,0.4997891492855532,0.5760869565217391,1.152659991408884,0.86755852328813
Bushey,BSH,2.0,51.6457502336329,-0.385321269560704,53.79400103725245,-1.75127881876231,256.2461283123678,231.0,142.0,VIRGIN WEST COAST,ANYTIME S,0.0,0.5541547142007934,0.6147186147186147,1.109290598754839,0.9014770350731217
Butlers Lane,BUL,2.0,52.5924709448511,-1.83802031828625,53.79400103725245,-1.75127881876231,133.84374823781863,247.0,68.55,CROSSCOUNTRY,ANYTIME S,0.0,0.5121643775112885,0.27753036437246964,0.5418775232300349,1.8454354667438113
Buxted,BXD,2.0,50.9900108378352,0.131438921683175,53.79400103725245,-1.75127881876231,337.28135598965844,292.0,146.5,LONDON NORTH EASTERN RAILWAY,ANYTIME S,0.0,0.4343554643574545,0.5017123287671232,1.155073136950885,0.8657460449991584
Buxton,BUX,1.0,53.2607227045765,-1.91286358993768,53.79400103725245,-1.75127881876231,60.3113707571952,145.0,36.3,TRANSPENNINE EXPRESS,ANYTIME DAY S,0.0,0.6018765540272416,0.25034482758620685,0.4159404879806565,2.4041900918443537
Byfleet & New Haw,BFN,2.0,51.3497957278428,-0.481389767596653,53.79400103725245,-1.75127881876231,285.276120835754,259.0,144.0,LONDON NORTH EASTERN RAILWAY,ANYTIME S,0.0,0.5047741100030841,0.555984555984556,1.1014522039990502,0.9078923228527693
Bynea,BYE,3.0,51.6720366859549,-4.09888164715589,53.79400103725245,-1.75127881876231,284.40790488869834,419.0,76.3,CROSSCOUNTRY,ANYTIME S,700.0,0.2682766501509852,0.1821002386634845,0.6787778159634805,1.4732361259929594
Cadoxton,CAD,3.0,51.4122831697514,-3.24889594393883,53.79400103725245,-1.75127881876231,283.77643066725415,336.0,66.2,CROSSCOUNTRY,ANYTIME S,700.0,0.233282235047997,0.19702380952380955,0.8445727103192088,1.1840306793976887
Caergwrle,CGW,3.0,53.1078664074892,-3.03291327418616,53.79400103725245,-1.75127881876231,114.3698208571295,254.0,43.6,TRANSPENNINE EXPRESS,ANYTIME DAY S,0.0,0.38121944821846854,0.17165354330708663,0.4502748852642894,2.2208655928323626
Caerphilly,CPH,3.0,51.57158067131,-3.21848255919666,53.79400103725245,-1.75127881876231,266.45918687663556,339.0,69.5,CROSSCOUNTRY,ANYTIME S,700.0,0.2608279369709887,0.20501474926253688,0.7860153005210488,1.2722398652253981
Caersws,CWS,2.0,52.5161279090032,-3.43249879239218,53.79400103725245,-1.75127881876231,181.30008412337224,366.0,68.1,TRANSPENNINE EXPRESS,ANYTIME DAY S,0.0,0.3756203441894647,0.1860655737704918,0.49535542110210995,2.018752510621793
Caldercruix,CAC,2.0,55.8879475461776,-3.88771190821316,53.79400103725245,-1.75127881876231,270.47949375431796,291.0,124.5,LONDON NORTH EASTERN RAILWAY,ANYTIME S,0.0,0.46029367428898654,0.42783505154639173,0.9294827964065909,1.0758671423140167
Caldicot,CDT,2.0,51.5847930591881,-2.76057390572724,53.79400103725245,-1.75127881876231,255.13132470703985,348.0,66.0,CROSSCOUNTRY,ANYTIME S,700.0,0.2586903042023003,0.1896551724137931,0.7331359905374708,1.3640034221575836
Caledonian Rd & Barnsbury,CIR,2.0,51.5430392840645,-0.116729249835755,53.79400103725245,-1.75127881876231,273.78995298800845,205.0,132.5,LONDON NORTH EASTERN RAILWAY,ANYTIME S,0.0,0.4839476341405533,0.6463414634146342,1.335560746282968,0.7487491698023655
Calstock,CSK,3.0,50.4978023671618,-4.20898850028348,53.79400103725245,-1.75127881876231,403.4534403289936,524.0,231.0,LONDON NORTH EASTERN RAILWAY,ANYTIME S,0.0,0.5725567733705096,0.44083969465648853,0.7699493136049497,1.2987867932733637
Cam & Dursley,CDU,3.0,51.71762106741,-2.35908298700462,53.79400103725245,-1.75127881876231,234.67616409455061,313.0,100.35,CROSSCOUNTRY,ANYTIME S,700.0,0.4276105346581733,0.3206070287539936,0.7497641025385003,1.3337528385451742
Camberley,CAM,3.0,51.3363271281171,-0.744271720142327,53.79400103725245,-1.75127881876231,281.87314273709546,322.0,148.5,CROSSCOUNTRY,ANYTIME S,0.0,0.5268327395721654,0.4611801242236025,0.8753824308605449,1.1423578595436852
