Name,Code,Changes,lat,lon,terminal lat,terminal lon,linear distance,Journey time,fare,company,fare type,route code,cost per km,cost per min,speed (linear),minutes to travel 1km linear
Abbey Wood,ABW,2.0,51.4910605627019,0.121394025366647,55.860977200298095,-4.25455055888237,565.5834857558885,351.0,191.5,VIRGIN WEST COAST,ANYTIME S,0.0,0.3385883867243134,0.5455840455840456,1.6113489622674888,0.6205980351970445
Aber,ABE,2.0,51.5749691125956,-3.22982905106563,55.860977200298095,-4.25455055888237,481.789316324387,451.0,159.0,VIRGIN WEST COAST,ANYTIME S,700.0,0.3300197713245801,0.352549889135255,1.068268994067377,0.9360938167760103
Abercynon,ACY,2.0,51.6447124034837,-3.32698855170195,55.860977200298095,-4.25455055888237,473.2314431897502,447.0,159.0,VIRGIN WEST COAST,ANYTIME S,700.0,0.3359878179866553,0.35570469798657717,1.0586833180978752,0.9445695260379554
Aberdare,ABA,2.0,51.7150618291708,-3.44308409477462,55.860977200298095,-4.25455055888237,464.52425660979713,481.0,159.0,VIRGIN WEST COAST,ANYTIME S,700.0,0.34228567773923774,0.3305613305613306,0.9657468952386635,1.0354679936639835
Aberdeen,ABD,0.0,57.1437058328662,-2.09868538622245,55.860977200298095,-4.25455055888237,194.9855663186601,157.0,43.1,SCOTRAIL,ANYTIME DAY S,0.0,0.22104200230678991,0.27452229299363057,1.2419462822844591,0.8051878042265896
Aberdour,AUR,1.0,56.0545955695197,-3.30056061487314,55.860977200298095,-4.25455055888237,63.36603781346847,87.0,16.4,SCOTRAIL,ANYTIME DAY S,0.0,0.25881372050240725,0.18850574712643678,0.7283452622237756,1.3729752246164288
Aberdovey,AVY,1.0,52.5439615025967,-4.05706796158074,55.860977200298095,-4.25455055888237,369.4370371195549,467.0,136.7,VIRGIN WEST COAST,ANYTIME S,287.0,0.37002245650795973,0.29271948608137044,0.7910857325900532,1.2640854951661828
Abererch,ABH,1.0,52.8985884658899,-4.37417647351973,55.860977200298095,-4.25455055888237,329.8408355272543,586.0,142.9,VIRGIN WEST COAST,ANYTIME S,287.0,0.4332392615110035,0.2438566552901024,0.5628683200123793,1.7766144663782226
Abergavenny,AGV,1.0,51.8166930409601,-3.00964730040687,55.860977200298095,-4.25455055888237,457.5149777872499,359.0,159.0,VIRGIN WEST COAST,ANYTIME S,307.0,0.3475296060666607,0.4428969359331476,1.274414979908774,0.7846737646410767
Abergele & Pensarn,AGL,1.0,53.2945771647609,-3.58262268840784,55.860977200298095,-4.25455055888237,288.96203062107014,259.0,115.0,VIRGIN WEST COAST,ANYTIME S,317.0,0.3979761623104215,0.444015444015444,1.1156835159114677,0.8963115307686884
Aberystwyth,AYW,1.0,52.4140498933205,-4.08189442746786,55.860977200298095,-4.25455055888237,383.8343057345519,465.0,139.3,VIRGIN WEST COAST,ANYTIME S,287.0,0.3629170137187676,0.2995698924731183,0.8254501198592514,1.2114602396211553
Accrington,ACR,1.0,53.7529733751372,-2.36954810226505,55.860977200298095,-4.25455055888237,264.0934442978565,201.0,132.0,LONDON NORTH EASTERN RAILWAY,ANYTIME S,0.0,0.49982308478329535,0.6567164179104478,1.3138977328251567,0.7610942427381997
Achanalt,AAT,1.0,57.6096018732679,-4.91385256332031,55.860977200298095,-4.25455055888237,198.85271745627765,277.0,108.1,SCOTRAIL,ANYTIME DAY S,0.0,0.5436184196163589,0.39025270758122743,0.7178798464125546,1.3929907699697635
Achnasheen,ACN,1.0,57.5792959197415,-5.07233352893289,55.860977200298095,-4.25455055888237,197.78204799682692,286.0,108.1,SCOTRAIL,ANYTIME DAY S,0.0,0.5465612329069132,0.37797202797202795,0.6915456223665277,1.4460361943698166
Achnashellach,ACH,1.0,57.4820809030767,-5.33305678830677,55.860977200298095,-4.25455055888237,192.2381810522464,306.0,114.0,SCOTRAIL,ANYTIME DAY S,0.0,0.593014350094257,0.37254901960784315,0.6282293498439425,1.5917753607793212
Acklington,ACK,1.0,55.3070993237817,-1.65183479633575,55.860977200298095,-4.25455055888237,175.31900045083083,393.0,74.5,LONDON NORTH EASTERN RAILWAY,ANYTIME S,0.0,0.4249396802880697,0.1895674300254453,0.44610432684689777,2.2416281121236428
Acle,ACL,2.0,52.6346777628319,1.54391497575916,55.860977200298095,-4.25455055888237,521.0519709849397,568.0,159.5,LONDON NORTH EASTERN RAILWAY,ANYTIME S,700.0,0.3061114992013151,0.28080985915492956,0.9173450193396825,1.0901023921401063
Acocks Green,ACG,2.0,52.4493240670217,-1.81897562150643,55.860977200298095,-4.25455055888237,411.66897601338263,280.0,115.5,VIRGIN WEST COAST,ANYTIME S,317.0,0.28056522771889736,0.4125,1.470246342904938,0.6801581278033876
Acton Bridge (Cheshire),ACB,1.0,53.2665097605329,-2.60312690733168,55.860977200298095,-4.25455055888237,307.9048491297021,254.0,94.9,VIRGIN WEST COAST,ANYTIME S,275.0,0.3082120995113794,0.37362204724409454,1.2122238154712681,0.824930171505694
Acton Central,ACC,2.0,51.5087150057177,-0.262970693276422,55.860977200298095,-4.25455055888237,551.3238994491838,326.0,186.5,VIRGIN WEST COAST,ANYTIME S,0.0,0.3382766467884455,0.5720858895705522,1.691177605672343,0.5913039509546018
Acton Main Line,AML,2.0,51.5171788796431,-0.266756440210259,55.860977200298095,-4.25455055888237,550.3654893690906,327.0,186.5,VIRGIN WEST COAST,ANYTIME S,0.0,0.33886572396425796,0.5703363914373089,1.6830748910369744,0.5941506259319698
Adderley Park,ADD,1.0,52.4830872932844,-1.85594463679675,55.860977200298095,-4.25455055888237,407.2491667748206,294.0,115.5,VIRGIN WEST COAST,ANYTIME S,317.0,0.28361015668784206,0.39285714285714285,1.3852012475334035,0.7219167624781435
Addiewell,ADW,0.0,55.8434130805542,-3.60652712168835,55.860977200298095,-4.25455055888237,40.63308677072259,55.0,8.6,SCOTRAIL,ANYTIME DAY S,0.0,0.2116501768257628,0.15636363636363634,0.7387833958313198,1.3535767122577853
Addlestone,ASN,2.0,51.3730447500684,-0.48445679693337,55.860977200298095,-4.25455055888237,558.1394091250111,422.0,196.5,VIRGIN WEST COAST,ANYTIME S,0.0,0.3520625793259266,0.4656398104265403,1.3226052348933912,0.7560835036923207
Adisham,ADM,2.0,51.2411978022143,1.19908904695378,55.860977200298095,-4.25455055888237,628.089590290947,442.0,214.0,VIRGIN WEST COAST,ANYTIME S,0.0,0.3407157248074591,0.4841628959276018,1.4210171726039524,0.7037212633873687
Adlington (Cheshire),ADC,1.0,53.3195557900317,-2.13356274381038,55.860977200298095,-4.25455055888237,314.3392832140457,257.0,78.9,VIRGIN WEST COAST,ANYTIME S,275.0,0.2510026719958955,0.3070038910505837,1.22311005141652,0.8175879176545645
Adlington (Lancs),ADL,1.0,53.6132468473224,-2.6030711963325,55.860977200298095,-4.25455055888237,271.867782823713,171.0,132.0,LONDON NORTH EASTERN RAILWAY,ANYTIME S,0.0,0.485530130230961,0.7719298245614035,1.5898700749924737,0.6289822141628358
Adwick,AWK,1.0,53.5723210050351,-1.180356329611,55.860977200298095,-4.25455055888237,322.66673064787847,303.0,121.5,LONDON NORTH EASTERN RAILWAY,ANYTIME S,0.0,0.37654951211127863,0.400990099009901,1.0649067018081797,0.939049400573806
Aigburth,AIG,3.0,53.3645680055959,-2.92715540113816,55.860977200298095,-4.25455055888237,290.809560744458,235.0,132.0,LONDON NORTH EASTERN RAILWAY,ANYTIME S,0.0,0.4539052968619277,0.5617021276595745,1.2374874925296084,0.8080889754738864
Ainsdale,ANS,3.0,53.6020355257546,-3.04265252059266,55.860977200298095,-4.25455055888237,263.2918999319259,224.0,71.2,VIRGIN WEST COAST,ANYTIME S,275.0,0.2704222956285733,0.3178571428571429,1.1754102675532407,0.8507667727640508
Aintree,AIN,2.0,53.4739127558616,-2.95628079876913,55.860977200298095,-4.25455055888237,278.5995192441948,245.0,132.0,LONDON NORTH EASTERN RAILWAY,ANYTIME S,0.0,0.4737983768173731,0.5387755102040817,1.1371408948742645,0.8793985024261849
Airbles,AIR,0.0,55.7828378389089,-3.99419330717581,55.860977200298095,-4.25455055888237,18.493211969944404,34.0,4.3,SCOTRAIL,ANYTIME DAY S,0.0,0.23251774797090194,0.1264705882352941,0.5439179991160119,1.838512425816434
Airdrie,ADR,0.0,55.8639835131324,-3.98291292517007,55.860977200298095,-4.25455055888237,17.011639455952004,27.0,4.3,SCOTRAIL,ANYTIME DAY S,0.0,0.2527681127462129,0.15925925925925924,0.630060720590815,1.587148614918081
Albany Park,AYP,2.0,51.4354507399114,0.12573706592842,55.860977200298095,-4.25455055888237,571.1482484305928,352.0,191.5,VIRGIN WEST COAST,ANYTIME S,0.0,0.3352894813670631,0.5440340909090909,1.6225802512232752,0.6163023365076042
Albrighton,ALB,1.0,52.6379442676754,-2.26890024505565,55.860977200298095,-4.25455055888237,381.3474504140031,294.0,108.5,VIRGIN WEST COAST,ANYTIME S,317.0,0.2845174391023433,0.36904761904761907,1.297100171476201,0.770950480148285
Alderley Edge,ALD,1.0,53.3037821045932,-2.23679936267512,55.860977200298095,-4.25455055888237,313.0952311030877,239.0,94.9,VIRGIN WEST COAST,ANYTIME S,275.0,0.30310266836595107,0.397071129707113,1.310021887460618,0.7633460246518683
Aldermaston,AMT,2.0,51.4019618556841,-1.1374239270022,55.860977200298095,-4.25455055888237,537.2784040104702,427.0,209.0,VIRGIN WEST COAST,ANYTIME S,0.0,0.38899758196111506,0.4894613583138173,1.2582632412423191,0.7947462559684025
Aldershot,AHT,2.0,51.2464179114788,-0.759859888333875,55.860977200298095,-4.25455055888237,563.2165914402536,395.0,209.5,VIRGIN WEST COAST,ANYTIME S,0.0,0.3719705761228873,0.5303797468354431,1.4258647884563382,0.7013287712102172
Aldrington,AGT,3.0,50.8363824121951,-0.183821512855377,55.860977200298095,-4.25455055888237,621.1861992333812,413.0,212.5,VIRGIN WEST COAST,ANYTIME S,0.0,0.34208744537829505,0.5145278450363197,1.5040828068604872,0.6648570114881687
Alexandra Palace,AAP,2.0,51.5979224924556,-0.120235220128854,55.860977200298095,-4.25455055888237,547.1171262018676,314.0,186.5,VIRGIN WEST COAST,ANYTIME S,0.0,0.34087764953493316,0.5939490445859873,1.7424112299422534,0.5739173295118981
Alexandra Parade,AXP,0.0,55.8631759802332,-4.21064896878422,55.860977200298095,-4.25455055888237,2.759768462507949,8.0,2.2,SCOTRAIL,ANYTIME DAY S,0.0,0.7971683240414823,0.275,0.34497105781349363,2.89879390560539
Alexandria,ALX,0.0,55.9850887680667,-4.57748537031666,55.860977200298095,-4.25455055888237,24.465103620464053,48.0,5.6,SCOTRAIL,ANYTIME DAY S,1000.0,0.2288974568379032,0.11666666666666665,0.5096896587596678,1.9619782014677418
Alfreton,ALF,1.0,53.1004322999438,-1.36969621564025,55.860977200298095,-4.25455055888237,359.63744842904237,330.0,101.0,VIRGIN WEST COAST,ANYTIME S,307.0,0.28083838443739717,0.30606060606060603,1.0898104497849768,0.9175907610330799
Allens West,ALW,1.0,54.5246233650745,-1.36111683481751,55.860977200298095,-4.25455055888237,236.79966615931986,244.0,91.5,LONDON NORTH EASTERN RAILWAY,ANYTIME S,0.0,0.38640257177743825,0.375,0.9704904350791798,1.0304068580731687
Alloa,ALO,0.0,56.1177936041036,-3.79005640302655,55.860977200298095,-4.25455055888237,40.71838369501052,52.0,10.5,SCOTRAIL,ANYTIME DAY S,0.0,0.2578687817926975,0.20192307692307693,0.7830458402886639,1.2770644431638352
Alness,ASS,1.0,57.6943991747966,-4.24971726526612,55.860977200298095,-4.25455055888237,204.16247343050182,281.0,103.9,SCOTRAIL,ANYTIME DAY S,0.0,0.508908411297085,0.3697508896797153,0.726556844948405,1.3763547985994309
Alnmouth,ALM,0.0,55.3927786386397,-1.63663783937358,55.860977200298095,-4.25455055888237,172.93884266851228,135.0,74.5,LONDON NORTH EASTERN RAILWAY,ANYTIME S,0.0,0.4307881263135372,0.5518518518518518,1.281028464211202,0.7806227792258728
Alresford (Essex),ALR,2.0,51.8539974379073,0.997436403040026,55.860977200298095,-4.25455055888237,563.8706579105038,419.0,210.0,VIRGIN WEST COAST,ANYTIME S,0.0,0.37242583392826706,0.5011933174224343,1.345753360168267,0.7430782115044948
Alsager,ASG,1.0,53.0930054110113,-2.29905784069112,55.860977200298095,-4.25455055888237,333.1366801082761,240.0,90.8,VIRGIN WEST COAST,ANYTIME S,287.0,0.2725607998809623,0.3783333333333333,1.3880695004511503,0.7204250217117947
Althorne (Essex),ALN,2.0,51.6478675266105,0.75248341471277,55.860977200298095,-4.25455055888237,573.2320318776214,408.0,204.5,VIRGIN WEST COAST,ANYTIME S,0.0,0.35674908000196764,0.5012254901960784,1.4049804702882875,0.711753665725197
Althorpe,ALP,1.0,53.5855003548442,-0.733182290833722,55.860977200298095,-4.25455055888237,339.978522842676,334.0,127.5,LONDON NORTH EASTERN RAILWAY,ANYTIME S,0.0,0.37502368953758947,0.38173652694610777,1.017899768990048,0.9824149984749403
Altnabreac,ABC,1.0,58.3881525009701,-3.7062809681672,55.860977200298095,-4.25455055888237,283.38124127457195,544.0,111.9,SCOTRAIL,ANYTIME DAY S,0.0,0.3948744084001614,0.20569852941176472,0.5209213994017867,1.919675408129471
Alton,AON,2.0,51.1519686627366,-0.966913302570746,55.860977200298095,-4.25455055888237,567.513189427151,404.0,209.0,VIRGIN WEST COAST,ANYTIME S,0.0,0.36827337918078173,0.5173267326732673,1.4047356173939383,0.7118777281772048
Altrincham,ALT,1.0,53.3877187203289,-2.34688910433965,55.860977200298095,-4.25455055888237,301.60106852184333,281.0,71.2,VIRGIN WEST COAST,ANYTIME S,275.0,0.23607343418560658,0.25338078291814947,1.0733134111097626,0.9316943118842057
Alvechurch,ALV,1.0,52.3460721156993,-1.96766073187852,55.860977200298095,-4.25455055888237,418.79803207285016,306.0,118.0,VIRGIN WEST COAST,ANYTIME S,317.0,0.28175872607604285,0.38562091503267976,1.3686210198459157,0.7306624591463484
Ambergate,AMB,1.0,53.0605170840145,-1.48069758186533,55.860977200298095,-4.25455055888237,359.8392660532818,416.0,116.5,VIRGIN WEST COAST,ANYTIME S,0.0,0.32375566257060373,0.2800480769230769,0.8649982357050043,1.156071722140525
Amberley,AMY,2.0,50.8966791881016,-0.541992407726222,55.860977200298095,-4.25455055888237,605.0030543670352,402.0,209.0,VIRGIN WEST COAST,ANYTIME S,0.0,0.3454528014220679,0.5199004975124378,1.504982722306058,0.6644594553668484
Amersham,AMR,2.0,51.6742050968552,-0.607596139216709,55.860977200298095,-4.25455055888237,524.2095280938406,380.0,129.0,VIRGIN WEST COAST,ANYTIME S,302.0,0.2460848059535981,0.3394736842105263,1.3794987581416858,0.7249009787780409
Ammanford,AMF,1.0,51.7959795450084,-3.99673575596767,55.860977200298095,-4.25455055888237,452.7584801066383,508.0,159.0,VIRGIN WEST COAST,ANYTIME S,0.0,0.35118061170836756,0.31299212598425197,0.8912568506036187,1.122011010992772
Ancaster,ANC,2.0,52.9876865844111,-0.535623734022494,55.860977200298095,-4.25455055888237,400.57820356477805,410.0,144.5,LONDON NORTH EASTERN RAILWAY,ANYTIME S,0.0,0.3607285636464559,0.3524390243902439,0.9770200086945806,1.0235204920072452
Anderston,AND,0.0,55.8599021238713,-4.27098003165416,55.860977200298095,-4.25455055888237,1.0357113243191645,2.0,1.3,SCOTRAIL,ANYTIME DAY S,1000.0,1.2551760026902945,0.65,0.5178556621595822,1.9310400041389146
Andover,ADV,2.0,51.2115476149434,-1.49223307188506,55.860977200298095,-4.25455055888237,548.8059715632138,413.0,218.0,VIRGIN WEST COAST,ANYTIME S,0.0,0.39722599843265344,0.5278450363196125,1.3288280183128665,0.7525428318930544
Anerley,ANZ,2.0,51.4121513855632,-0.0658859220340606,55.860977200298095,-4.25455055888237,567.1488582379698,349.0,191.5,VIRGIN WEST COAST,ANYTIME S,0.0,0.33765385792180963,0.5487106017191977,1.6250683617133803,0.6153587280141596
Angel Road,AGR,2.0,51.61240330726,-0.0487914234374522,55.860977200298095,-4.25455055888237,548.0621310520829,377.0,186.5,VIRGIN WEST COAST,ANYTIME S,0.0,0.34028988582368724,0.4946949602122016,1.4537457057084429,0.6878782142387672
Angmering,ANG,2.0,50.8165743892467,-0.489394019247872,55.860977200298095,-4.25455055888237,614.6533543267221,441.0,214.0,VIRGIN WEST COAST,ANYTIME S,0.0,0.34816372267977114,0.4852607709750567,1.3937717785186443,0.7174775780456967
Annan,ANN,0.0,54.9838388790739,-3.2625810423293,55.860977200298095,-4.25455055888237,116.10667396759726,130.0,17.6,SCOTRAIL,ANYTIME DAY S,0.0,0.15158474012365356,0.1353846153846154,0.8931282612892097,1.1196600122769864
Anniesland,ANL,0.0,55.8893555064876,-4.32195784208586,55.860977200298095,-4.25455055888237,5.271196759685785,20.0,2.8,SCOTRAIL,ANYTIME DAY S,1000.0,0.5311886707425635,0.13999999999999999,0.2635598379842893,3.7942047910183105
Ansdell & Fairhaven,AFV,1.0,53.7414654744213,-2.99303444657805,55.860977200298095,-4.25455055888237,249.49097123033917,212.0,132.0,LONDON NORTH EASTERN RAILWAY,ANYTIME S,0.0,0.529077262191315,0.6226415094339622,1.1768442039166942,0.8497301483678696
Apperley Bridge,APY,1.0,53.8417501065548,-1.70582867126391,55.860977200298095,-4.25455055888237,278.035750703094,279.0,124.5,LONDON NORTH EASTERN RAILWAY,ANYTIME S,0.0,0.44778414173416786,0.44623655913978494,0.996543909330086,1.0034680766572919
Appleby,APP,1.0,54.5803488158896,-2.48669258391647,55.860977200298095,-4.25455055888237,181.6044716947734,131.0,37.4,NORTHERN,ANYTIME DAY S,0.0,0.20594206547325,0.28549618320610687,1.3862936770593388,0.7213478763902608
Appledore (Kent),APD,3.0,51.0332342031393,0.816341504124954,55.860977200298095,-4.25455055888237,633.8170743855304,363.0,214.0,VIRGIN WEST COAST,ANYTIME S,0.0,0.3376368492557061,0.5895316804407713,1.7460525465166128,0.5727204499057071
Appleford,APF,1.0,51.6396415502262,-1.24214153179695,55.860977200298095,-4.25455055888237,510.011607587452,587.0,214.5,VIRGIN WEST COAST,ANYTIME S,0.0,0.4205786629340972,0.36541737649063033,0.8688443059411448,1.1509541964676693
Appley Bridge,APB,2.0,53.5786734960166,-2.71925251339081,55.860977200298095,-4.25455055888237,272.6279159666519,180.0,132.0,VIRGIN WEST COAST,ANYTIME S,0.0,0.4841763893912696,0.7333333333333333,1.5145995331480662,0.660240530988095
Apsley,APS,1.0,51.7325208234117,-0.462934812195194,55.860977200298095,-4.25455055888237,522.8500825867958,336.0,196.5,VIRGIN WEST COAST,ANYTIME S,0.0,0.37582474698639834,0.5848214285714286,1.5561014362702257,0.6426316284347574
Arbroath,ARB,0.0,56.5595762979872,-2.58893177406225,55.860977200298095,-4.25455055888237,129.3518890412507,102.0,27.8,SCOTRAIL,ANYTIME DAY S,0.0,0.21491761895440506,0.27254901960784317,1.2681557749142225,0.788546659472997
Ardgay,ARD,1.0,57.8814576101148,-4.36209023833324,55.860977200298095,-4.25455055888237,225.09116086832717,323.0,109.5,SCOTRAIL,ANYTIME DAY S,0.0,0.48646956894080273,0.33900928792569657,0.6968766590350686,1.4349741622637378
Ardlui,AUI,0.0,56.3019723653141,-4.72165858161935,55.860977200298095,-4.25455055888237,57.06809965108246,94.0,16.8,SCOTRAIL,ANYTIME DAY S,1000.0,0.2943851311453533,0.17872340425531916,0.6071074430966219,1.6471549004561432
Ardrossan Harbour,ADS,0.0,55.6398782290401,-4.82111163323781,55.860977200298095,-4.25455055888237,43.262721978174625,43.0,8.2,SCOTRAIL,ANYTIME DAY S,1000.0,0.18953962268339872,0.19069767441860463,1.0061098134459214,0.9939272896812372
Ardrossan South Beach,ASB,0.0,55.641422142645,-4.80121264089138,55.860977200298095,-4.25455055888237,42.14068384825294,48.0,8.0,SCOTRAIL,ANYTIME DAY S,0.0,0.1898402984822863,0.16666666666666666,0.8779309135052696,1.1390417908937178
Ardrossan Town,ADN,0.0,55.6397124556587,-4.81267645169651,55.860977200298095,-4.25455055888237,42.83888371317842,41.0,8.0,SCOTRAIL,ANYTIME DAY S,1000.0,0.1867462292799889,0.1951219512195122,1.0448508222726443,0.9570744250599432
Ardwick,ADK,1.0,53.471345820655,-2.21388417456067,55.860977200298095,-4.25455055888237,296.78080296011586,300.0,71.2,LONDON NORTH EASTERN RAILWAY,ANYTIME S,95.0,0.23990770053131946,0.23733333333333334,0.9892693432003862,1.0108470528005034
Argyle Street,AGS,0.0,55.8573090626122,-4.25069486323156,55.860977200298095,-4.25455055888237,0.4744375848744386,1.0,1.3,SCOTRAIL,ANYTIME DAY S,0.0,2.7400864548790946,1.3,0.4744375848744386,2.1077588114454575
Arisaig,ARG,0.0,56.9125537431151,-5.83907949880085,55.860977200298095,-4.25455055888237,152.60146107063517,315.0,37.0,SCOTRAIL,ANYTIME DAY S,0.0,0.2424616366082739,0.11746031746031746,0.4844490827639212,2.0642004197731425
Arlesey,ARL,2.0,52.0260300130868,-0.266319838272065,55.860977200298095,-4.25455055888237,500.590684785879,358.0,204.5,VIRGIN WEST COAST,ANYTIME S,0.0,0.4085173899859366,0.5712290502793296,1.3982980021951927,0.715155137481493
Armadale (West Lothian),ARM,0.0,55.8857140292087,-3.69541334262219,55.860977200298095,-4.25455055888237,35.10822487848579,50.0,8.5,SCOTRAIL,ANYTIME DAY S,0.0,0.2421085095990932,0.17,0.7021644975697159,1.4241677035240776
Armathwaite,AWT,1.0,54.8094679848183,-2.77207147292765,55.860977200298095,-4.25455055888237,150.17466726585144,103.0,29.4,VIRGIN WEST COAST,ANYTIME S,0.0,0.19577203356111803,0.2854368932038835,1.4580064783092372,0.6858680087345291
Arnside,ARN,1.0,54.2027315043991,-2.82824189170434,55.860977200298095,-4.25455055888237,205.89248370258406,181.0,57.7,VIRGIN WEST COAST,ANYTIME S,0.0,0.2802433530470634,0.3187845303867404,1.1375275342684201,0.8790995996796961
Arram,ARR,2.0,53.8843427696163,-0.426570132093475,55.860977200298095,-4.25455055888237,329.773574304909,370.0,129.5,LONDON NORTH EASTERN RAILWAY,ANYTIME S,0.0,0.39269368466820864,0.35,0.8912799305538082,1.1219819561948818
Arrochar & Tarbet,ART,0.0,56.2039766194239,-4.72277124702392,55.860977200298095,-4.25455055888237,48.06750880033634,80.0,12.8,SCOTRAIL,ANYTIME DAY S,1000.0,0.26629214451634814,0.16,0.6008438600042043,1.6643259032271758
Arundel,ARU,2.0,50.84821399905,-0.546174298416944,55.860977200298095,-4.25455055888237,609.8712530323933,406.0,214.0,VIRGIN WEST COAST,ANYTIME S,0.0,0.3508937319736784,0.5270935960591133,1.50214594342954,0.6657142765481936
Ascot (Berks),ACT,2.0,51.406243053303,-0.675833255037063,55.860977200298095,-4.25455055888237,549.2417739366056,394.0,201.5,VIRGIN WEST COAST,ANYTIME S,0.0,0.36686939989247336,0.5114213197969543,1.3940146546614354,0.7173525734870199
Ascott-under-Wychwood,AUW,1.0,51.8673416456497,-1.56405280921503,55.860977200298095,-4.25455055888237,478.35554558656185,628.0,132.5,VIRGIN WEST COAST,ANYTIME S,700.0,0.2769906217717783,0.21098726114649682,0.7617126522079011,1.3128310224352964
Ash,ASH,2.0,51.2495967734882,-0.712805474371656,55.860977200298095,-4.25455055888237,564.1759592175515,418.0,209.5,VIRGIN WEST COAST,ANYTIME S,0.0,0.3713380490202966,0.5011961722488039,1.3497032517166303,0.7409036013865584
Ash Vale,AHV,2.0,51.2722464128127,-0.72164859629209,55.860977200298095,-4.25455055888237,561.6166197072426,380.0,209.5,VIRGIN WEST COAST,ANYTIME S,0.0,0.3730302712715435,0.5513157894736842,1.4779384729137965,0.6766181531417018
Ashburys,ABY,1.0,53.471639721401,-2.19443661452133,55.860977200298095,-4.25455055888237,297.3095507654755,222.0,71.2,LONDON NORTH EASTERN RAILWAY,ANYTIME S,95.0,0.23948103858985742,0.3207207207207207,1.339232210655295,0.7466964967268026
Ashchurch for Tewkesbury,ASC,1.0,51.9989057939667,-2.10876020926952,55.860977200298095,-4.25455055888237,452.3232321937723,310.0,136.0,VIRGIN WEST COAST,ANYTIME S,700.0,0.3006699420244205,0.43870967741935485,1.4591072006250718,0.6853506031438996
Ashfield,ASF,0.0,55.8889269328418,-4.24921509407071,55.860977200298095,-4.25455055888237,3.1297800927530166,7.0,2.2,SCOTRAIL,ANYTIME DAY S,1000.0,0.7029247853847893,0.31428571428571433,0.4471114418218595,2.2365788625879657
Ashford (Surrey),AFS,2.0,51.4365062586203,-0.468070995385795,55.860977200298095,-4.25455055888237,552.239014976598,348.0,193.5,VIRGIN WEST COAST,ANYTIME S,0.0,0.3503917592787244,0.5560344827586207,1.5868937211971208,0.6301619236640624
Ashford International,AFK,2.0,51.1437026741936,0.876197214386404,55.860977200298095,-4.25455055888237,625.3559834417082,376.0,212.5,VIRGIN WEST COAST,ANYTIME S,0.0,0.33980645524567515,0.5651595744680851,1.6631808070258196,0.6012575396347005
Ashford International (Eurostar),ASI,-999.0,nan,nan,55.860977200298095,-4.25455055888237,-999.0,-999.0,-999.0,N/A,no route found,-998.0,-999.0,-999.0,-999.0,-999.0
Ashley,ASY,1.0,53.3557258053839,-2.34146074338483,55.860977200298095,-4.25455055888237,305.01545775629876,289.0,71.2,VIRGIN WEST COAST,ANYTIME S,275.0,0.23343079240556844,0.24636678200692042,1.0554168088453244,0.9474929635563101
Ashtead,AHD,2.0,51.317872587997,-0.307571763628547,55.860977200298095,-4.25455055888237,568.9706850838999,362.0,193.5,VIRGIN WEST COAST,ANYTIME S,0.0,0.3400878201158407,0.5345303867403315,1.5717422239886736,0.6362366453846736
Ashton-under-Lyne,AHN,1.0,53.4912746360398,-2.09431253377749,55.860977200298095,-4.25455055888237,298.30095525581373,274.0,71.2,VIRGIN WEST COAST,ANYTIME S,275.0,0.2386851223421027,0.2598540145985402,1.0886896177219478,0.9185354427210132
Ashurst (Kent),AHS,2.0,51.1286608253579,0.152652111896866,55.860977200298095,-4.25455055888237,602.1682336061547,423.0,198.0,VIRGIN WEST COAST,ANYTIME S,0.0,0.32881176546669344,0.46808510638297873,1.4235655640807439,0.7024614989515724
Ashurst New Forest,ANF,2.0,50.8898511647037,-1.52663085660955,55.860977200298095,-4.25455055888237,582.1614938351344,439.0,223.5,VIRGIN WEST COAST,ANYTIME S,0.0,0.38391408976165337,0.5091116173120729,1.3261081864126067,0.7540862881671849
Ashwell & Morden,AWM,2.0,52.0307706434447,-0.109788918120069,55.860977200298095,-4.25455055888237,505.5745415346305,377.0,209.0,VIRGIN WEST COAST,ANYTIME S,0.0,0.41339106863569014,0.5543766578249337,1.341046529269577,0.7456862817016994
Askam,ASK,1.0,54.1889331625586,-3.20451175494515,55.860977200298095,-4.25455055888237,197.87606580367486,226.0,71.2,VIRGIN WEST COAST,ANYTIME S,307.0,0.35982118257112483,0.31504424778761064,0.8755578132905968,1.142129034565649
Aslockton,ALK,2.0,52.9515495737311,-0.898097621841918,55.860977200298095,-4.25455055888237,390.2653363654627,342.0,144.5,LONDON NORTH EASTERN RAILWAY,ANYTIME S,0.0,0.3702609136279617,0.42251461988304095,1.1411267145188968,0.8763268682405737
Aspatria,ASP,1.0,54.7589599137074,-3.33187421074512,55.860977200298095,-4.25455055888237,135.95578933406372,136.0,59.8,VIRGIN WEST COAST,ANYTIME S,0.0,0.43984886773054177,0.43970588235294117,0.999674921573998,1.0003251841363492
Aspley Guise,APG,2.0,52.0212361960308,-0.632334507265971,55.860977200298095,-4.25455055888237,488.95577729433046,352.0,159.5,VIRGIN WEST COAST,ANYTIME S,700.0,0.3262053694970206,0.453125,1.3890789127679843,0.7199015050968731
Aston,AST,1.0,52.5042320347358,-1.8719337575538,55.860977200298095,-4.25455055888237,404.66158729470203,262.0,115.5,VIRGIN WEST COAST,ANYTIME S,317.0,0.28542368148199115,0.44083969465648853,1.5445098751706183,0.6474545848336077
Atherstone,ATH,1.0,52.5789720633612,-1.55281147568713,55.860977200298095,-4.25455055888237,405.5280957993886,284.0,125.3,CROSSCOUNTRY,ANYTIME S,95.0,0.308979824820781,0.4411971830985915,1.4279158302795374,0.7003213906552419
Atherton,ATN,1.0,53.5291462480773,-2.47897234425216,55.860977200298095,-4.25455055888237,283.6771585697642,180.0,132.0,VIRGIN WEST COAST,ANYTIME S,0.0,0.46531768953663394,0.7333333333333333,1.5759842142764677,0.6345241220954099
Attadale,ATT,1.0,57.3950433711996,-5.4555786528295,55.860977200298095,-4.25455055888237,186.04259277330866,322.0,117.6,SCOTRAIL,ANYTIME DAY S,0.0,0.6321133147359144,0.3652173913043478,0.5777720272463002,1.7307864570150036
Attenborough,ATB,1.0,52.9062133028873,-1.23141560765685,55.860977200298095,-4.25455055888237,383.0026185066134,412.0,123.5,VIRGIN WEST COAST,ANYTIME S,0.0,0.3224521035431707,0.29975728155339804,0.929618006084013,1.0757106612128446
Attleborough,ATL,1.0,52.5145445883409,1.02234755537498,55.860977200298095,-4.25455055888237,507.07697919161757,510.0,158.5,LONDON NORTH EASTERN RAILWAY,ANYTIME S,700.0,0.31257581492396047,0.3107843137254902,0.9942685866502305,1.0057644518058033
Auchinleck,AUK,0.0,55.4702784722357,-4.29535018687193,55.860977200298095,-4.25455055888237,43.574437231006286,61.0,8.2,SCOTRAIL,ANYTIME DAY S,0.0,0.1881837269986615,0.13442622950819672,0.7143350365738735,1.3999033349900432
Audley End,AUD,1.0,52.0044405435161,0.207160027997398,55.860977200298095,-4.25455055888237,519.506854777233,457.0,209.0,VIRGIN WEST COAST,ANYTIME S,0.0,0.4023046049885524,0.4573304157549234,1.136776487477534,0.8796804042094185
Aughton Park,AUG,2.0,53.5542504500956,-2.89522128047861,55.860977200298095,-4.25455055888237,271.3043213013445,193.0,71.2,VIRGIN WEST COAST,ANYTIME S,275.0,0.26243592309359637,0.3689119170984456,1.4057218720276916,0.7113782746778665
Aviemore,AVM,0.0,57.1885162452285,-3.82886797624022,55.860977200298095,-4.25455055888237,150.12601847531135,162.0,43.8,SCOTRAIL,ANYTIME DAY S,0.0,0.29175488995735294,0.27037037037037037,0.9267038177488355,1.0790934286093876
Avoncliff,AVF,2.0,51.3396528744674,-2.28132558221387,55.860977200298095,-4.25455055888237,519.8342219324346,436.0,236.5,VIRGIN WEST COAST,ANYTIME S,0.0,0.4549527330479198,0.5424311926605505,1.192280325533107,0.8387289285788289
Avonmouth,AVN,2.0,51.5003648679963,-2.69946651797304,55.860977200298095,-4.25455055888237,496.055545780441,409.0,159.0,VIRGIN WEST COAST,ANYTIME S,0.0,0.320528620942734,0.38875305623471884,1.2128497451844522,0.824504440035083
Axminster,AXM,2.0,50.7792744117621,-3.00472359764506,55.860977200298095,-4.25455055888237,571.6275244073081,518.0,236.5,VIRGIN WEST COAST,ANYTIME S,0.0,0.41373095224064826,0.45656370656370654,1.1035280393963476,0.9061844958167264
Aylesbury,AYS,2.0,51.8138902206829,-0.815095998270687,55.860977200298095,-4.25455055888237,504.00348306258593,416.0,204.5,VIRGIN WEST COAST,ANYTIME S,0.0,0.405751164173216,0.49158653846153844,1.2115468342850624,0.8253911212521167
Aylesbury Vale Parkway,AVP,2.0,51.8311587338339,-0.860182437861177,55.860977200298095,-4.25455055888237,500.9409047274571,406.0,204.5,VIRGIN WEST COAST,ANYTIME S,0.0,0.40823178556612516,0.5036945812807881,1.2338445929247712,0.810474840781647
Aylesford,AYL,3.0,51.3013153585378,0.466170568242092,55.860977200298095,-4.25455055888237,595.7508493173217,379.0,204.5,VIRGIN WEST COAST,ANYTIME S,0.0,0.343264302911761,0.5395778364116095,1.5719019770905585,0.636171984369474
Aylesham,AYH,2.0,51.2272505439136,1.2094526827124,55.860977200298095,-4.25455055888237,629.7854718359649,448.0,214.0,VIRGIN WEST COAST,ANYTIME S,0.0,0.33979824808619724,0.47767857142857145,1.405771142490993,0.711353341787927
Ayr,AYR,0.0,55.4581477383334,-4.62587677242484,55.860977200298095,-4.25455055888237,50.57328675013842,50.0,9.0,SCOTRAIL,ANYTIME DAY S,1000.0,0.17795956281159375,0.18,1.0114657350027685,0.9886642378421875
Bache,BAC,2.0,53.2087886904783,-2.89167051075084,55.860977200298095,-4.25455055888237,308.11183429592876,233.0,94.9,VIRGIN WEST COAST,ANYTIME S,275.0,0.30800504698840114,0.40729613733905584,1.322368387536175,0.756218924639594
Baglan,BAJ,1.0,51.615545271975,-3.81113654529303,55.860977200298095,-4.25455055888237,473.4187467070853,465.0,159.0,VIRGIN WEST COAST,ANYTIME S,0.0,0.3358548876780683,0.3419354838709677,1.0181048316281405,0.9822171243415205
Bagshot,BAG,3.0,51.3643669407293,-0.688661997063008,55.860977200298095,-4.25455055888237,553.1366759983374,396.0,209.5,VIRGIN WEST COAST,ANYTIME S,0.0,0.37874906707619893,0.5290404040404041,1.3968097878745893,0.715917090988901
Baildon,BLD,2.0,53.8502255005868,-1.75363638811678,55.860977200298095,-4.25455055888237,275.46400322721973,258.0,125.5,LONDON NORTH EASTERN RAILWAY,ANYTIME S,0.0,0.4555949181370164,0.48643410852713176,1.0676899349892237,0.9366015050147429
Baillieston,BIO,0.0,55.844505909339,-4.11369931815988,55.860977200298095,-4.25455055888237,9.010092377606666,19.0,3.6,SCOTRAIL,ANYTIME DAY S,0.0,0.3995519523137521,0.18947368421052632,0.4742153882950877,2.1087464149892474
Balcombe,BAB,2.0,51.0555201604538,-0.136933757536862,55.860977200298095,-4.25455055888237,600.4474545029059,367.0,204.5,VIRGIN WEST COAST,ANYTIME S,0.0,0.3405793437317508,0.5572207084468664,1.636096606274948,0.611210851587054
Baldock,BDK,2.0,51.9928698318742,-0.187563753520231,55.860977200298095,-4.25455055888237,506.49294881633165,342.0,204.5,VIRGIN WEST COAST,ANYTIME S,0.0,0.40375685481488777,0.597953216374269,1.4809735345506774,0.6752315126977585
Balham,BAL,1.0,51.4432234163815,-0.152424495700288,55.860977200298095,-4.25455055888237,561.3097058098349,408.0,191.5,VIRGIN WEST COAST,ANYTIME S,0.0,0.3411663793051851,0.4693627450980392,1.3757590828672424,0.7268714504256686
Balloch,BHC,0.0,56.0029392993731,-4.58348654319574,55.860977200298095,-4.25455055888237,25.932901186011133,50.0,5.7,SCOTRAIL,ANYTIME DAY S,1000.0,0.21979800713831144,0.114,0.5186580237202226,1.9280526941957143
Balmossie,BSI,1.0,56.4745685552318,-2.83895622541232,55.860977200298095,-4.25455055888237,111.35633685204603,126.0,23.9,SCOTRAIL,ANYTIME DAY S,0.0,0.21462631293048742,0.18968253968253967,0.8837804512067146,1.1315027376251638
Bamber Bridge,BMB,1.0,53.7268691714662,-2.6607753764786,55.860977200298095,-4.25455055888237,258.7254375802595,170.0,132.0,LONDON NORTH EASTERN RAILWAY,ANYTIME S,0.0,0.5101933587765298,0.7764705882352941,1.5219143387074088,0.6570672044849247
Bamford,BAM,1.0,53.3390008432273,-1.68908191470249,55.860977200298095,-4.25455055888237,325.99098526735867,302.0,108.8,VIRGIN WEST COAST,ANYTIME S,0.0,0.3337515603714275,0.36026490066225164,1.0794403485674129,0.926405985589808
Banavie,BNV,0.0,56.8433146084024,-5.09542698683765,55.860977200298095,-4.25455055888237,121.10477782157092,257.0,31.8,SCOTRAIL,ANYTIME DAY S,0.0,0.2625825386249613,0.12373540856031129,0.471224816426346,2.122129321591668
Banbury,BAN,0.0,52.0603086671337,-1.32813289497966,55.860977200298095,-4.25455055888237,464.4941505385719,470.0,128.0,VIRGIN WEST COAST,ANYTIME S,317.0,0.2755685940319948,0.2723404255319149,0.9882854266778125,1.0118534312112308
Bangor (Gwynedd),BNG,1.0,53.2222875881889,-4.1358808597691,55.860977200298095,-4.25455055888237,293.8260149651246,294.0,125.9,VIRGIN WEST COAST,ANYTIME S,317.0,0.4284848637890133,0.4282312925170068,0.9994082141670905,1.0005921362507537
Bank Hall,BAH,3.0,53.4374965462522,-2.98751189569183,55.860977200298095,-4.25455055888237,281.8875910696183,226.0,132.0,LONDON NORTH EASTERN RAILWAY,ANYTIME S,0.0,0.46827176570322926,0.584070796460177,1.2472902259717622,0.8017380230979532
Banstead,BAD,2.0,51.3293474848423,-0.213158931277083,55.860977200298095,-4.25455055888237,570.7137729966281,377.0,191.5,VIRGIN WEST COAST,ANYTIME S,0.0,0.3355447319844713,0.5079575596816976,1.5138296365958306,0.6605763130973665
Barassie,BSS,0.0,55.5610644543682,-4.65113966824502,55.860977200298095,-4.25455055888237,41.670124209386195,38.0,8.2,SCOTRAIL,ANYTIME DAY S,1000.0,0.19678367068925007,0.2157894736842105,1.0965822160364789,0.9119243275843296
Barbican,ZBB,1.0,nan,nan,55.860977200298095,-4.25455055888237,-999.0,296.0,189.5,LONDON NORTH EASTERN RAILWAY,ANYTIME S,0.0,-999.0,0.6402027027027027,-999.0,-999.0
Bardon Mill,BLL,1.0,54.9744957852522,-2.34650475516335,55.860977200298095,-4.25455055888237,156.00515713932592,142.0,74.5,LONDON NORTH EASTERN RAILWAY,ANYTIME S,0.0,0.47754831549232146,0.5246478873239436,1.0986278671783516,0.9102263194618745
Bare Lane,BAR,1.0,54.0745443408907,-2.83533086719705,55.860977200298095,-4.25455055888237,218.646757569553,167.0,57.7,VIRGIN WEST COAST,ANYTIME S,0.0,0.2638959783414362,0.34550898203592817,1.3092620213745687,0.7637890534318863
Bargeddie,BGI,0.0,55.8512961462984,-4.07380825280165,55.860977200298095,-4.25455055888237,11.370071766502937,22.0,3.8,SCOTRAIL,ANYTIME DAY S,0.0,0.334210731298555,0.17272727272727273,0.5168214439319517,1.9349042338337397
Bargoed,BGD,2.0,51.6923127611933,-3.22968013064506,55.860977200298095,-4.25455055888237,468.85476232432035,473.0,159.0,VIRGIN WEST COAST,ANYTIME S,700.0,0.3391242081274097,0.3361522198731501,0.991236283983764,1.0088411977626714
Barking,BKG,2.0,51.5394928787692,0.0809024258638578,55.860977200298095,-4.25455055888237,559.5079284113809,341.0,188.5,VIRGIN WEST COAST,ANYTIME S,0.0,0.33690317943341896,0.5527859237536656,1.6407857138163664,0.6094641070917552
Barlaston,BRT,3.0,nan,nan,55.860977200298095,-4.25455055888237,-999.0,331.0,94.9,VIRGIN WEST COAST,ANYTIME S,275.0,-999.0,0.2867069486404834,-999.0,-999.0
Barming,BMG,2.0,51.2848926922128,0.478958086821072,55.860977200298095,-4.25455055888237,597.7797498531661,386.0,204.5,VIRGIN WEST COAST,ANYTIME S,0.0,0.3420992431580892,0.5297927461139896,1.5486522016921402,0.6457227768167356
Barmouth,BRM,1.0,52.7228954666472,-4.05659664341287,55.860977200298095,-4.25455055888237,349.5383144505856,504.0,139.3,VIRGIN WEST COAST,ANYTIME S,287.0,0.3985256958710114,0.2763888888888889,0.6935284016876698,1.4419020152116995
Barnehurst,BNH,2.0,51.4649571594916,0.159646215915891,55.860977200298095,-4.25455055888237,569.4122596234179,356.0,191.5,VIRGIN WEST COAST,ANYTIME S,0.0,0.3363116911579125,0.5379213483146067,1.5994726393916232,0.6252060681577903
Barnes,BNS,2.0,51.4670847781107,-0.242164290131055,55.860977200298095,-4.25455055888237,556.1079766997027,333.0,188.5,VIRGIN WEST COAST,ANYTIME S,0.0,0.33896294945934513,0.566066066066066,1.6699939240231312,0.5988045738459519
Barnes Bridge,BNI,2.0,51.4720072305495,-0.252630234454485,55.860977200298095,-4.25455055888237,555.290862103047,343.0,188.5,VIRGIN WEST COAST,ANYTIME S,0.0,0.33946173593798395,0.5495626822157434,1.6189237962187957,0.6176942993460398
Barnetby,BTB,1.0,53.575120046432,-0.409679706265516,55.860977200298095,-4.25455055888237,355.05924006215304,336.0,138.0,LONDON NORTH EASTERN RAILWAY,ANYTIME S,0.0,0.38866753608733895,0.4107142857142857,1.0567239287564079,0.9463209574300426
Barnham,BAA,2.0,50.8309058508596,-0.639679954401345,55.860977200298095,-4.25455055888237,609.1753626602037,402.0,214.0,VIRGIN WEST COAST,ANYTIME S,0.0,0.3512945747928558,0.5323383084577115,1.5153615986572233,0.6599085003118133
Barnhill,BNL,0.0,55.8774948886876,-4.22300584363342,55.860977200298095,-4.25455055888237,2.6985225992270396,11.0,2.3,SCOTRAIL,ANYTIME DAY S,0.0,0.8523182280032815,0.20909090909090908,0.24532023629336724,4.076304568711347
Barnsley,BNY,2.0,53.5543015489003,-1.47716484028851,55.860977200298095,-4.25455055888237,312.9684142107922,308.0,120.55,CROSSCOUNTRY,ANYTIME S,0.0,0.38518263992866225,0.3913961038961039,1.0161312149701045,0.9841248701619907
Barnstaple,BNP,2.0,51.0739744679973,-4.06311775092404,55.860977200298095,-4.25455055888237,532.919915340035,520.0,186.5,VIRGIN WEST COAST,ANYTIME S,817.0,0.3499587736010987,0.35865384615384616,1.0248459910385288,0.9757563660727685
Barnt Green,BTG,1.0,52.3610898378667,-1.99246673824797,55.860977200298095,-4.25455055888237,416.65065482293744,300.0,118.0,VIRGIN WEST COAST,ANYTIME S,317.0,0.2832108833481758,0.3933333333333333,1.388835516076458,0.7200276695292606
Barrhead,BRR,0.0,55.8037583421428,-4.39728431394783,55.860977200298095,-4.25455055888237,10.980971005523635,14.0,3.7,SCOTRAIL,ANYTIME DAY S,0.0,0.33694652304780975,0.2642857142857143,0.7843550718231168,1.2749327899106315
Barrhill,BRL,0.0,55.0970106102442,-4.78178229089313,55.860977200298095,-4.25455055888237,91.35324457807161,124.0,12.2,SCOTRAIL,ANYTIME DAY S,1000.0,0.13354752812937837,0.09838709677419354,0.7367197143392872,1.3573683186920424
Barrow Haven,BAV,2.0,53.697419946542,-0.392955239385703,55.860977200298095,-4.25455055888237,345.9468547125365,407.0,138.0,LONDON NORTH EASTERN RAILWAY,ANYTIME S,0.0,0.398905202114558,0.33906633906633904,0.8499922720209742,1.1764812844972834
Barrow-in-Furness,BIF,1.0,54.1190037011827,-3.22612090695349,55.860977200298095,-4.25455055888237,204.78514945918383,222.0,71.2,VIRGIN WEST COAST,ANYTIME S,307.0,0.347681461219389,0.3207207207207207,0.9224556281945218,1.0840629830155106
Barrow-Upon-Soar,BWS,2.0,52.7493358553102,-1.14484305880024,55.860977200298095,-4.25455055888237,401.0806729748082,375.0,123.5,LONDON NORTH EASTERN RAILWAY,ANYTIME S,0.0,0.3079181030688981,0.3293333333333333,1.0695484612661552,0.9349739971727675
Barry,BRY,2.0,51.3967862682376,-3.28498495899336,55.860977200298095,-4.25455055888237,500.9648667887567,432.0,156.5,VIRGIN WEST COAST,ANYTIME S,700.0,0.31239715671716317,0.36226851851851855,1.1596408953443442,0.862335921417345
Barry Docks,BYD,2.0,51.4024452836283,-3.26070393235989,55.860977200298095,-4.25455055888237,500.54767483614154,429.0,156.5,VIRGIN WEST COAST,ANYTIME S,700.0,0.31265753067623697,0.36480186480186483,1.1667777968208428,0.8570612182754355
Barry Island,BYI,2.0,51.3924170726249,-3.27336400852697,55.860977200298095,-4.25455055888237,501.54598280066995,437.0,156.5,VIRGIN WEST COAST,ANYTIME S,700.0,0.3120351979016807,0.35812356979405036,1.1477024778047367,0.8713059519682714
Barry Links,BYL,1.0,56.4931516826701,-2.74544214683501,55.860977200298095,-4.25455055888237,117.21051025736877,133.0,25.5,SCOTRAIL,ANYTIME DAY S,0.0,0.2175572817148185,0.19172932330827067,0.8812820320102915,1.1347105281596415
Barton-on-Humber,BAU,3.0,53.6889177395454,-0.44343673614012,55.860977200298095,-4.25455055888237,344.30602963763323,383.0,138.0,LONDON NORTH EASTERN RAILWAY,ANYTIME S,0.0,0.40080622504705726,0.360313315926893,0.8989713567562225,1.1123824941523401
Basildon,BSO,2.0,51.5681040297501,0.456788850539816,55.860977200298095,-4.25455055888237,569.8356493545659,364.0,193.5,VIRGIN WEST COAST,ANYTIME S,0.0,0.33957159440475704,0.5315934065934066,1.5654825531718843,0.6387806737123077
Basingstoke,BSK,1.0,51.2683569850094,-1.08726383162934,55.860977200298095,-4.25455055888237,552.4012626613977,388.0,209.0,VIRGIN WEST COAST,ANYTIME S,0.0,0.3783481576292297,0.538659793814433,1.4237145944881384,0.7023879672734025
Bat & Ball,BBL,2.0,51.2897587469008,0.194227480292899,55.860977200298095,-4.25455055888237,587.6686538344385,404.0,198.0,VIRGIN WEST COAST,ANYTIME S,0.0,0.3369245555434742,0.4900990099009901,1.4546253807783132,0.6874622244422404
Bath Spa,BTH,1.0,51.3776883852266,-2.3570184714201,55.860977200298095,-4.25455055888237,514.4840358562635,426.0,236.5,VIRGIN WEST COAST,ANYTIME S,0.0,0.45968384540132423,0.5551643192488263,1.2077090043574261,0.8280140301943515
Bathgate,BHG,0.0,55.8971563834902,-3.63609679157923,55.860977200298095,-4.25455055888237,38.916354012399324,54.0,10.1,SCOTRAIL,ANYTIME DAY S,0.0,0.25953099298002047,0.18703703703703703,0.7206732224518393,1.387591447615951
Batley,BTL,1.0,53.7099423400798,-1.6229526318262,55.860977200298095,-4.25455055888237,293.2136102850945,599.0,124.5,LONDON NORTH EASTERN RAILWAY,ANYTIME S,0.0,0.42460511938360374,0.20784641068447413,0.48950519246259516,2.042879249082559
Battersby,BTT,1.0,54.457680170473,-1.09297186288525,55.860977200298095,-4.25455055888237,254.94055983426165,367.0,91.5,LONDON NORTH EASTERN RAILWAY,ANYTIME S,0.0,0.35890719020733575,0.24931880108991825,0.6946609259789146,1.4395512437824285
Battersea Park,BAK,2.0,51.4769582891996,-0.147533519657093,55.860977200298095,-4.25455055888237,558.1320839385469,324.0,188.5,VIRGIN WEST COAST,ANYTIME S,0.0,0.33773367527955045,0.5817901234567902,1.7226298886992188,0.5805077495521186
Battle,BAT,2.0,50.9129130238687,0.494702777064857,55.860977200298095,-4.25455055888237,634.5635278795742,412.0,212.5,VIRGIN WEST COAST,ANYTIME S,0.0,0.33487584877447873,0.5157766990291263,1.540202737571782,0.6492651750356953
Battlesbridge,BLB,2.0,51.624822766888,0.56528550890708,55.860977200298095,-4.25455055888237,568.4053432191288,393.0,204.5,VIRGIN WEST COAST,ANYTIME S,0.0,0.3597784616904317,0.5203562340966921,1.4463240285474015,0.6914079972828345
Bayford,BAY,2.0,51.7577148923117,-0.0956100209046352,55.860977200298095,-4.25455055888237,532.3528137997362,354.0,196.5,VIRGIN WEST COAST,ANYTIME S,0.0,0.3691161104183073,0.5550847457627118,1.5038215079088593,0.6649725347993933
Beaconsfield,BCF,2.0,51.6112905925788,-0.643822282354315,55.860977200298095,-4.25455055888237,529.442004507824,368.0,193.5,VIRGIN WEST COAST,ANYTIME S,0.0,0.3654791239691684,0.5258152173913043,1.4387010992060434,0.6950714088922685
Bearley,BER,2.0,52.2444115945748,-1.75025547969474,55.860977200298095,-4.25455055888237,434.6034151447729,387.0,124.5,VIRGIN WEST COAST,ANYTIME S,0.0,0.28646806642908496,0.32170542635658916,1.1230062406841677,0.8904670016711316
Bearsden,BRN,0.0,55.9171345827093,-4.3320211452141,55.860977200298095,-4.25455055888237,7.911516301942031,19.0,3.4,SCOTRAIL,ANYTIME DAY S,1000.0,0.4297532698207808,0.17894736842105263,0.41639559483905425,2.4015623901749517
Bearsted,BSD,2.0,51.2758187894535,0.577580355704965,55.860977200298095,-4.25455055888237,602.090515552196,396.0,209.0,VIRGIN WEST COAST,ANYTIME S,0.0,0.3471238868599675,0.5277777777777778,1.520430594828778,0.6577084172083595
Beasdale,BSL,0.0,56.8995610683265,-5.76380325043513,55.860977200298095,-4.25455055888237,148.54361559128384,310.0,37.0,SCOTRAIL,ANYTIME DAY S,0.0,0.24908509095271453,0.11935483870967742,0.47917295352027045,2.0869291404146355
Beaulieu Road,BEU,2.0,50.8550493435382,-1.50474962699015,55.860977200298095,-4.25455055888237,586.3147177533873,471.0,223.5,VIRGIN WEST COAST,ANYTIME S,0.0,0.3811945926522135,0.4745222929936306,1.244829549370249,0.8033228328375506
Beauly,BEL,1.0,57.4782879378611,-4.46986686037102,55.860977200298095,-4.25455055888237,180.57679552666175,219.0,99.4,SCOTRAIL,ANYTIME DAY S,0.0,0.5504583227877904,0.4538812785388128,0.8245515777473139,1.2127804093614296
Bebington,BEB,2.0,53.3576570664328,-3.00363517233964,55.860977200298095,-4.25455055888237,290.13300052916213,238.0,78.9,VIRGIN WEST COAST,ANYTIME S,317.0,0.27194424576348575,0.33151260504201685,1.2190462207107653,0.820313440959564
Beccles,BCC,2.0,52.4585181871493,1.5694932615698,55.860977200298095,-4.25455055888237,536.4734791197969,542.0,221.5,VIRGIN WEST COAST,ANYTIME S,0.0,0.41288154703084223,0.4086715867158672,0.9898034670106954,1.0103015733215193
Beckenham Hill,BEC,2.0,51.4245808668055,-0.0159511139458484,55.860977200298095,-4.25455055888237,567.5408867244063,359.0,191.5,VIRGIN WEST COAST,ANYTIME S,0.0,0.3374206237461637,0.5334261838440112,1.5808938348869255,0.6325535452995967
Beckenham Junction,BKJ,2.0,51.4111718661491,-0.0260225635677561,55.860977200298095,-4.25455055888237,568.5330542271412,334.0,191.5,VIRGIN WEST COAST,ANYTIME S,0.0,0.3368317788669709,0.5733532934131736,1.7021947731351532,0.5874768362483983
Bedford,BDM,1.0,52.1361864656103,-0.479442379912954,55.860977200298095,-4.25455055888237,482.71272414568415,723.0,210.0,VIRGIN WEST COAST,ANYTIME S,0.0,0.43504135999659577,0.29045643153526973,0.6676524538667831,1.4977852537025653
Bedford St Johns,BSJ,2.0,52.1294772366621,-0.467501028060375,55.860977200298095,-4.25455055888237,483.764178993663,394.0,210.0,VIRGIN WEST COAST,ANYTIME S,0.0,0.43409580353147825,0.5329949238578681,1.2278278654661496,0.8144464123400116
Bedhampton,BDH,2.0,50.8539566355958,-0.99582843515536,55.860977200298095,-4.25455055888237,597.8272598984463,442.0,214.5,VIRGIN WEST COAST,ANYTIME S,0.0,0.3587992960314948,0.4852941176470588,1.3525503617611907,0.7393440039436862
Bedminster,BMT,2.0,51.4400904239394,-2.59414932604792,55.860977200298095,-4.25455055888237,504.09841096197755,404.0,156.5,VIRGIN WEST COAST,ANYTIME S,0.0,0.3104552535711212,0.3873762376237624,1.247768343965291,0.8014308143305621
Bedworth,BEH,1.0,52.4792974206142,-1.46739223305473,55.860977200298095,-4.25455055888237,418.0269389211791,293.0,114.5,VIRGIN WEST COAST,ANYTIME S,0.0,0.27390579252020286,0.39078498293515357,1.4267131021200652,0.7009117660123968
Bedwyn,BDW,1.0,51.3796409426581,-1.59878627020561,55.860977200298095,-4.25455055888237,528.71570330444,585.0,209.0,VIRGIN WEST COAST,ANYTIME S,0.0,0.3952975080818729,0.3572649572649573,0.9037875270161367,1.106454747501893
Beeston,BEE,1.0,52.9207551214346,-1.20765801407939,55.860977200298095,-4.25455055888237,382.3917881303265,622.0,123.5,VIRGIN WEST COAST,ANYTIME S,0.0,0.32296718662250357,0.1985530546623794,0.6147777944217468,1.626603968252609
Bekesbourne,BKS,2.0,51.2613539349877,1.13670763163281,55.860977200298095,-4.25455055888237,623.8431252329799,441.0,214.0,VIRGIN WEST COAST,ANYTIME S,0.0,0.3430349575786056,0.4852607709750567,1.4146102612992741,0.7069084873465658
Belle Vue,BLV,1.0,53.4623764935822,-2.18050724055323,55.860977200298095,-4.25455055888237,298.64001134241056,288.0,71.2,LONDON NORTH EASTERN RAILWAY,ANYTIME S,95.0,0.2384141350649913,0.24722222222222223,1.0369444838278143,0.964371782285358
Bellgrove,BLG,0.0,55.8567093051092,-4.22437490020632,55.860977200298095,-4.25455055888237,1.948431725683916,4.0,1.9,SCOTRAIL,ANYTIME DAY S,0.0,0.9751432267061263,0.475,0.487107931420979,2.0529331088550027
Bellingham,BGM,2.0,51.4329113825773,-0.0193308081217253,55.860977200298095,-4.25455055888237,566.6118282940166,357.0,191.5,VIRGIN WEST COAST,ANYTIME S,0.0,0.3379738834195852,0.5364145658263305,1.5871479784146123,0.6300609732678429
Bellshill,BLH,0.0,55.8170682424416,-4.02449996284266,55.860977200298095,-4.25455055888237,15.219634463491422,17.0,4.0,SCOTRAIL,ANYTIME DAY S,0.0,0.2628184014271253,0.23529411764705882,0.8952726154994954,1.1169782060652826
Belmont,BLM,2.0,51.3438134158344,-0.198855124360003,55.860977200298095,-4.25455055888237,569.7157280166896,374.0,191.5,VIRGIN WEST COAST,ANYTIME S,0.0,0.33613254923934643,0.5120320855614974,1.523304085606122,0.6564677462951204
Belper,BLP,1.0,53.0237591485711,-1.48251049959613,55.860977200298095,-4.25455055888237,363.3689377191346,410.0,125.3,CROSSCOUNTRY,ANYTIME S,0.0,0.344828594283561,0.30560975609756097,0.8862657017539868,1.128329797735515
Beltring,BEG,3.0,51.2047063375307,0.403495486821792,55.860977200298095,-4.25455055888237,602.9749332083995,376.0,204.5,VIRGIN WEST COAST,ANYTIME S,0.0,0.33915174369167506,0.5438829787234043,1.6036567372563817,0.6235748441470407
Belvedere,BVD,2.0,51.4921162437256,0.152286098901381,55.860977200298095,-4.25455055888237,566.5234317012645,355.0,191.5,VIRGIN WEST COAST,ANYTIME S,0.0,0.33802661864298766,0.5394366197183098,1.5958406526796183,0.6266289797298205
Bempton,BEM,2.0,54.1276580609781,-0.18045684367924,55.860977200298095,-4.25455055888237,324.2994267011674,357.0,129.5,LONDON NORTH EASTERN RAILWAY,ANYTIME S,0.0,0.39932232171144266,0.3627450980392157,0.908401755465455,1.100834508501815
Ben Rhydding,BEY,1.0,53.9257153348267,-1.79743026313235,55.860977200298095,-4.25455055888237,266.9261922174679,301.0,125.5,LONDON NORTH EASTERN RAILWAY,ANYTIME S,0.0,0.4701674232768948,0.4169435215946844,0.8867979807889298,1.1276525450704808
Benfleet,BEF,2.0,51.5439424321207,0.561713345502072,55.860977200298095,-4.25455055888237,575.9203281335333,371.0,193.5,VIRGIN WEST COAST,ANYTIME S,0.0,0.3359839730386022,0.5215633423180593,1.552345897934052,0.6441863255675526
Bentham,BEN,1.0,54.1155197017626,-2.51067651046258,55.860977200298095,-4.25455055888237,224.07636120683978,184.0,57.7,VIRGIN WEST COAST,ANYTIME S,0.0,0.25750150390356635,0.3135869565217391,1.2178063109067379,0.8211486432973347
Bentley (Hants),BTY,2.0,51.1812327932647,-0.868126900052275,55.860977200298095,-4.25455055888237,567.0339239126248,428.0,209.0,VIRGIN WEST COAST,ANYTIME S,0.0,0.36858464932374163,0.4883177570093458,1.3248456166182823,0.7548049278017293
Bentley (South Yorks),BYK,1.0,53.543936635355,-1.15094859528964,55.860977200298095,-4.25455055888237,326.36491958763634,299.0,121.5,LONDON NORTH EASTERN RAILWAY,ANYTIME S,0.0,0.3722826587903989,0.40635451505016723,1.0915214701927636,0.9161523866529159
Bere Alston,BAS,2.0,50.4855988011236,-4.20035543651004,55.860977200298095,-4.25455055888237,598.233048728041,564.0,252.25,CROSSCOUNTRY,ANYTIME S,817.0,0.42165841645882357,0.44725177304964536,1.060696894907874,0.9427763999317205
Bere Ferrers,BFE,2.0,50.4512820780774,-4.18143518031599,55.860977200298095,-4.25455055888237,602.0592233960393,559.0,252.25,CROSSCOUNTRY,ANYTIME S,817.0,0.4189787153780849,0.45125223613595705,1.0770290221753833,0.9284800868041604
Berkhamsted,BKM,1.0,51.7631330812332,-0.562012981628892,55.860977200298095,-4.25455055888237,516.7242910282432,338.0,196.5,VIRGIN WEST COAST,ANYTIME S,0.0,0.38028016760926703,0.5813609467455622,1.5287700917995362,0.6541205936485102
Berkswell,BKW,1.0,52.3958819317755,-1.64284047482006,55.860977200298095,-4.25455055888237,421.7167355083549,283.0,114.5,VIRGIN WEST COAST,ANYTIME S,0.0,0.2715092628751784,0.4045936395759717,1.4901651431390632,0.6710665623901789
Bermuda Park,BEP,1.0,52.5014343619449,-1.47217775464212,55.860977200298095,-4.25455055888237,415.65363193932023,297.0,125.3,CROSSCOUNTRY,ANYTIME S,95.0,0.3014529174577069,0.42188552188552186,1.3995071782468695,0.7145372424975176
Berney Arms,BYA,-999.0,52.5897827472666,1.63037533346209,55.860977200298095,-4.25455055888237,528.7158675524523,-999.0,159.5,LONDON NORTH EASTERN RAILWAY,ANYTIME S,700.0,0.30167432034593983,-999.0,-999.0,-999.0
Berry Brow,BBW,2.0,53.6210419716152,-1.79343228301033,55.860977200298095,-4.25455055888237,295.42200954061684,338.0,124.5,LONDON NORTH EASTERN RAILWAY,ANYTIME S,0.0,0.42143102402423677,0.3683431952662722,0.8740296140254936,1.1441259929332692
Berrylands,BRS,2.0,51.3990439366779,-0.280713667843256,55.860977200298095,-4.25455055888237,561.6773864883202,355.0,188.5,VIRGIN WEST COAST,ANYTIME S,0.0,0.33560190339605167,0.5309859154929577,1.5821898210938596,0.6320354148838109
Berwick (Sussex),BRK,2.0,50.8403762860459,0.166017608785235,55.860977200298095,-4.25455055888237,631.2529264811288,430.0,214.0,VIRGIN WEST COAST,ANYTIME S,0.0,0.3390083293441927,0.49767441860465117,1.4680300615840205,0.6811849608317891
Berwick-upon-Tweed,BWK,0.0,55.7743389009866,-2.01097357377303,55.860977200298095,-4.25455055888237,140.96552495729136,115.0,42.5,LONDON NORTH EASTERN RAILWAY,ANYTIME S,0.0,0.30149215570882537,0.3695652173913043,1.225787173541664,0.815802303682704
Bescar Lane,BES,2.0,53.623855333027,-2.9146110021991,55.860977200298095,-4.25455055888237,263.54881758668154,258.0,71.2,VIRGIN WEST COAST,ANYTIME S,275.0,0.2701586774396445,0.27596899224806204,1.0215070449096184,0.9789457693739927
Bescot Stadium,BSC,1.0,52.5630947071172,-1.9911057185482,55.860977200298095,-4.25455055888237,395.6192245207665,289.0,115.5,VIRGIN WEST COAST,ANYTIME S,317.0,0.29194738991744135,0.39965397923875434,1.3689246523209915,0.7305003955510004
Betchworth,BTO,3.0,51.2481879331766,-0.266973015200458,55.860977200298095,-4.25455055888237,577.1847552234096,405.0,198.0,VIRGIN WEST COAST,ANYTIME S,0.0,0.34304440338754366,0.4888888888888889,1.4251475437615053,0.7016817342017939
Bethnal Green,BET,2.0,51.5239156627757,-0.0595680464428894,55.860977200298095,-4.25455055888237,556.3617439194652,323.0,186.5,VIRGIN WEST COAST,ANYTIME S,0.0,0.3352135585134631,0.5773993808049536,1.7224821793172298,0.5805575302940942
Betws-y-Coed,BYC,2.0,53.0920709395504,-3.80086212197837,55.860977200298095,-4.25455055888237,309.61554986572673,357.0,126.9,VIRGIN WEST COAST,ANYTIME S,317.0,0.40986313528191226,0.3554621848739496,0.8672704478031561,1.153042862849824
Beverley,BEV,2.0,53.8422725915824,-0.422980126740875,55.860977200298095,-4.25455055888237,333.17804602564956,381.0,129.5,LONDON NORTH EASTERN RAILWAY,ANYTIME S,0.0,0.38868107171152116,0.33989501312335957,0.8744830604347757,1.143532728355904
Bexhill,BEX,2.0,50.84103990242,0.477016592346932,55.860977200298095,-4.25455055888237,641.0597910787301,457.0,214.0,VIRGIN WEST COAST,ANYTIME S,0.0,0.33382221592762185,0.4682713347921225,1.4027566544392343,0.7128820218641271
Bexley,BXY,2.0,51.4402175270263,0.147902494716889,55.860977200298095,-4.25455055888237,571.4255450855551,354.0,191.5,VIRGIN WEST COAST,ANYTIME S,0.0,0.33512677486500575,0.5409604519774012,1.614196455043941,0.6195032809514989
Bexleyheath,BXH,2.0,51.4634982236074,0.133734871030645,55.860977200298095,-4.25455055888237,568.6818745037225,353.0,191.5,VIRGIN WEST COAST,ANYTIME S,0.0,0.33674363222340836,0.5424929178470255,1.6109968116252762,0.6207336928191287
Bicester North,BCS,2.0,51.9034829537461,-1.15038352192815,55.860977200298095,-4.25455055888237,485.3612837830862,346.0,210.0,VIRGIN WEST COAST,ANYTIME S,0.0,0.43266739028540135,0.6069364161849711,1.402778276829729,0.7128710335178517
Bicester Village,BIT,2.0,51.8930236127002,-1.14876425178293,55.860977200298095,-4.25455055888237,486.47235273548756,394.0,214.5,VIRGIN WEST COAST,ANYTIME S,0.0,0.44092947686305894,0.5444162436548223,1.234701402881948,0.8099124190398378
Bickley,BKL,2.0,51.4001024308637,0.0452405405139698,55.860977200298095,-4.25455055888237,571.943936878694,368.0,191.5,VIRGIN WEST COAST,ANYTIME S,0.0,0.33482302661530977,0.5203804347826086,1.554195480648625,0.6434197064983498
Bidston,BID,2.0,53.4091398593576,-3.07856110228132,55.860977200298095,-4.25455055888237,283.28674712064236,236.0,71.2,VIRGIN WEST COAST,ANYTIME S,275.0,0.2513354427049081,0.3016949152542373,1.2003675725450949,0.8330781527859313
Biggleswade,BIW,2.0,52.0846785950736,-0.261187193156868,55.860977200298095,-4.25455055888237,495.123711821369,349.0,204.5,VIRGIN WEST COAST,ANYTIME S,0.0,0.4130280879655782,0.5859598853868195,1.418692584015384,0.7048743408312313
Bilbrook,BBK,1.0,52.6237197237583,-2.18608801838282,55.860977200298095,-4.25455055888237,384.6996276241685,294.0,108.5,VIRGIN WEST COAST,ANYTIME S,317.0,0.2820382246535441,0.36904761904761907,1.3085021347760832,0.7642326087386356
Billericay,BIC,2.0,51.6288812691945,0.418629610467223,55.860977200298095,-4.25455055888237,562.6832962025858,362.0,198.0,VIRGIN WEST COAST,ANYTIME S,0.0,0.35188533467450406,0.5469613259668509,1.5543737464159828,0.6433459149099519
Billingham (Cleveland),BIL,1.0,54.605606575355,-1.27971968622732,55.860977200298095,-4.25455055888237,235.23998642373283,273.0,91.5,LONDON NORTH EASTERN RAILWAY,ANYTIME S,0.0,0.3889644842742976,0.33516483516483514,0.8616849319550653,1.1605169858675763
Billingshurst,BIG,2.0,51.0152034952011,-0.450302232654151,55.860977200298095,-4.25455055888237,595.4035845466709,388.0,209.0,VIRGIN WEST COAST,ANYTIME S,0.0,0.3510224080345916,0.538659793814433,1.5345453209965745,0.6516588244852706
Bingham,BIN,2.0,52.9541905628363,-0.95154335353279,55.860977200298095,-4.25455055888237,388.09265735989914,337.0,144.5,LONDON NORTH EASTERN RAILWAY,ANYTIME S,0.0,0.3723337642690761,0.4287833827893175,1.1516102592281874,0.8683493325860113
Bingley,BIY,1.0,53.8486154371384,-1.8373224993653,55.860977200298095,-4.25455055888237,272.51705553600857,232.0,88.7,VIRGIN WEST COAST,ANYTIME S,275.0,0.3254842153843827,0.38232758620689655,1.1746424807586577,0.8513228632376189
Birchgrove,BCG,2.0,51.5215597229164,-3.20185379786194,55.860977200298095,-4.25455055888237,487.9383189874714,442.0,156.5,VIRGIN WEST COAST,ANYTIME S,700.0,0.3207372610635616,0.35407239819004527,1.1039328483879443,0.9058522005756819
Birchington-on-sea,BCH,2.0,51.3774886896266,1.3014083545974,55.860977200298095,-4.25455055888237,619.3965789079571,472.0,218.0,VIRGIN WEST COAST,ANYTIME S,0.0,0.35195544732318423,0.461864406779661,1.3122808875168581,0.762031977690564
Birchwood,BWD,1.0,53.4127205850305,-2.5253082468513,55.860977200298095,-4.25455055888237,294.4953204402794,227.0,132.0,LONDON NORTH EASTERN RAILWAY,ANYTIME S,0.0,0.44822443970469894,0.5814977973568282,1.2973362133933013,0.7708102107042929
Birkbeck,BIK,2.0,51.4038899816034,-0.0557387405611835,55.860977200298095,-4.25455055888237,568.2903780105296,381.0,191.5,VIRGIN WEST COAST,ANYTIME S,0.0,0.3369756156533972,0.5026246719160105,1.4915757953032274,0.6704319037281687
Birkdale,BDL,3.0,53.6340528065899,-3.01445011129132,55.860977200298095,-4.25455055888237,260.43236166160546,219.0,71.2,VIRGIN WEST COAST,ANYTIME S,275.0,0.27339152302629044,0.32511415525114157,1.189188866034728,0.8409093194207529
Birkenhead Central,BKC,2.0,53.3883166263867,-3.02082115838918,55.860977200298095,-4.25455055888237,286.53871209391906,230.0,71.2,VIRGIN WEST COAST,ANYTIME S,275.0,0.24848300419757144,0.3095652173913044,1.2458204873648655,0.8026838618741774
Birkenhead Hamilton Square,BKQ,2.0,53.3946967251861,-3.01368016573114,55.860977200298095,-4.25455055888237,285.98377359649885,226.0,71.2,VIRGIN WEST COAST,ANYTIME S,275.0,0.24896517415864908,0.31504424778761064,1.2654149274181365,0.7902546258406558
Birkenhead North,BKN,2.0,53.4044379353974,-3.05753365912751,55.860977200298095,-4.25455055888237,284.1580530420615,233.0,71.2,VIRGIN WEST COAST,ANYTIME S,275.0,0.2505647798391301,0.3055793991416309,1.2195624594079892,0.819966203687041
Birkenhead Park,BKP,2.0,53.3974085855031,-3.03910128885113,55.860977200298095,-4.25455055888237,285.2376686521669,231.0,71.2,VIRGIN WEST COAST,ANYTIME S,275.0,0.24961640002332527,0.30822510822510824,1.234795102390333,0.8098509607498333
Birmingham International,BHI,0.0,52.4508081112451,-1.72585685988124,55.860977200298095,-4.25455055888237,413.9006359997024,270.0,115.5,VIRGIN WEST COAST,ANYTIME S,317.0,0.2790524825385459,0.42777777777777776,1.5329653185174164,0.6523304786615359
Birmingham Moor Street,BMO,1.0,52.479080623723,-1.89247273057604,55.860977200298095,-4.25455055888237,406.75483605937956,260.0,115.5,VIRGIN WEST COAST,ANYTIME S,317.0,0.2839548292011921,0.4442307692307692,1.5644416771514598,0.6392056761238956
Birmingham New Street,BHM,0.0,52.4778198092097,-1.9002055706822,55.860977200298095,-4.25455055888237,406.69473210085215,411.0,115.5,VIRGIN WEST COAST,ANYTIME S,317.0,0.2839967938688675,0.28102189781021897,0.9895248956225113,1.0105859937671389
Birmingham Snow Hill,BSW,1.0,52.4833566780576,-1.89908868312646,55.860977200298095,-4.25455055888237,406.1481670206096,264.0,115.5,VIRGIN WEST COAST,ANYTIME S,317.0,0.28437897639001053,0.4375,1.538440026593218,0.6500090888914527
Bishop Auckland,BIA,1.0,54.6571963763698,-1.67771509725951,55.860977200298095,-4.25455055888237,211.64280553160512,256.0,91.5,LONDON NORTH EASTERN RAILWAY,ANYTIME S,0.0,0.4323322012773833,0.357421875,0.8267297091078325,1.2095851751585807
Bishopbriggs,BBG,0.0,55.9038831792009,-4.22491571705821,55.860977200298095,-4.25455055888237,5.124512161820669,6.0,2.6,SCOTRAIL,ANYTIME DAY S,0.0,0.5073653682336575,0.43333333333333335,0.8540853603034448,1.1708431574622866
Bishops Stortford,BIS,2.0,51.8666894209812,0.16489410333554,55.860977200298095,-4.25455055888237,530.9694530545651,350.0,199.0,VIRGIN WEST COAST,ANYTIME S,0.0,0.3747861555032805,0.5685714285714286,1.5170555801559003,0.6591716302821515
Bishopstone (Sussex),BIP,2.0,50.7801416620368,0.082756921439231,55.860977200298095,-4.25455055888237,634.7476505371534,427.0,214.0,VIRGIN WEST COAST,ANYTIME S,0.0,0.3371418544344404,0.5011709601873536,1.4865284555905232,0.6727082796425516
Bishopton (Strathclyde),BPT,0.0,55.9022694882255,-4.5004875625329,55.860977200298095,-4.25455055888237,16.063516229822422,24.0,4.3,SCOTRAIL,ANYTIME DAY S,1000.0,0.26768734431985164,0.17916666666666667,0.6693131762426009,1.4940688985294046
Bitterne,BTE,2.0,50.9182213632939,-1.37699961416727,55.860977200298095,-4.25455055888237,582.3282619239669,469.0,223.5,VIRGIN WEST COAST,ANYTIME S,0.0,0.38380414383731526,0.47654584221748403,1.2416380851257292,0.8053876664863573
Blackburn,BBN,1.0,53.7465184457461,-2.47912240276289,55.860977200298095,-4.25455055888237,261.5878721093146,188.0,132.0,LONDON NORTH EASTERN RAILWAY,ANYTIME S,0.0,0.5046105499296186,0.7021276595744681,1.3914248516452905,0.7186877529300629
Blackheath,BKH,2.0,51.4657945200002,0.00887187089452019,55.860977200298095,-4.25455055888237,564.3069793697218,338.0,191.5,VIRGIN WEST COAST,ANYTIME S,0.0,0.3393543000547107,0.5665680473372781,1.6695472762417805,0.5989647698093588
Blackhorse Road,BHO,1.0,51.58660384873,-0.0412357433706351,55.860977200298095,-4.25455055888237,550.8316837741752,310.0,186.5,VIRGIN WEST COAST,ANYTIME S,0.0,0.33857892618330127,0.6016129032258064,1.7768763992715328,0.5627853464709028
Blackpool North,BPN,1.0,53.8219180942013,-3.04927516714828,55.860977200298095,-4.25455055888237,239.82405337298712,177.0,132.0,LONDON NORTH EASTERN RAILWAY,ANYTIME S,0.0,0.5504035068355158,0.7457627118644068,1.3549381546496448,0.738041065983987
Blackpool Pleasure Beach,BPB,1.0,53.7879555202556,-3.05387646984086,55.860977200298095,-4.25455055888237,243.32104697008754,222.0,132.0,LONDON NORTH EASTERN RAILWAY,ANYTIME S,0.0,0.5424931449363166,0.5945945945945946,1.0960407521175115,0.9123748346656234
Blackpool South,BPS,1.0,53.7987040263195,-3.04893832565541,55.860977200298095,-4.25455055888237,242.2847805516949,224.0,132.0,LONDON NORTH EASTERN RAILWAY,ANYTIME S,0.0,0.5448134203866591,0.5892857142857143,1.0816284846057809,0.9245318648985731
Blackridge,BKR,0.0,55.8842557507999,-3.75079743413867,55.860977200298095,-4.25455055888237,31.640118895426255,46.0,6.9,SCOTRAIL,ANYTIME DAY S,0.0,0.21807756231274567,0.15,0.6878286716397012,1.4538504154183043
Blackrod,BLK,1.0,53.5915244932358,-2.56952431744104,55.860977200298095,-4.25455055888237,274.95056704328863,272.0,132.0,LONDON NORTH EASTERN RAILWAY,ANYTIME S,0.0,0.4800862984916766,0.4852941176470588,1.010847672953267,0.9892687362858791
Blackwater,BAW,2.0,51.3315811457068,-0.776741026218888,55.860977200298095,-4.25455055888237,554.0358003108594,406.0,209.5,VIRGIN WEST COAST,ANYTIME S,0.0,0.3781344091527179,0.5160098522167488,1.3646201978099985,0.7328046306253149
Blaenau Ffestiniog,BFF,2.0,52.9945530771849,-3.93859577234881,55.860977200298095,-4.25455055888237,319.7272430851957,384.0,127.9,VIRGIN WEST COAST,ANYTIME S,317.0,0.4000284704106972,0.33307291666666666,0.8326230288676971,1.2010237110063153
Blair Atholl,BLA,0.0,56.7655504660718,-3.85022876626298,55.860977200298095,-4.25455055888237,103.78308926723983,105.0,34.6,SCOTRAIL,ANYTIME DAY S,0.0,0.3333876476822302,0.32952380952380955,0.9884103739737127,1.011725520422953
Blairhill,BAI,0.0,55.8664556230225,-4.0432911996593,55.860977200298095,-4.25455055888237,13.241454494046256,20.0,3.8,SCOTRAIL,ANYTIME DAY S,0.0,0.28697753722663855,0.19,0.6620727247023128,1.510408090666519
Blake Street,BKT,1.0,52.6048860712992,-1.84491459685048,55.860977200298095,-4.25455055888237,394.96848488897683,283.0,115.5,VIRGIN WEST COAST,ANYTIME S,317.0,0.2924283947172806,0.4081272084805654,1.3956483564981514,0.7165128632466703
Blakedown,BKD,2.0,52.4064026596129,-2.17686566095142,55.860977200298095,-4.25455055888237,407.7503825446717,294.0,117.0,VIRGIN WEST COAST,ANYTIME S,0.0,0.2869402580810133,0.3979591836734694,1.3869060630771146,0.7210293664599822
Blantyre,BLT,0.0,55.7973304780703,-4.08697164977011,55.860977200298095,-4.25455055888237,12.669007033262524,21.0,3.8,SCOTRAIL,ANYTIME DAY S,0.0,0.2999445805044615,0.18095238095238095,0.6032860492029773,1.6575884712088662
Blaydon,BLO,1.0,54.9657896857216,-1.71258088882198,55.860977200298095,-4.25455055888237,189.3278137378598,189.0,74.5,LONDON NORTH EASTERN RAILWAY,ANYTIME S,0.0,0.3934973870408258,0.3941798941798942,1.0017344642214805,0.9982685389357864
Bleasby,BSB,2.0,53.0413649497003,-0.943687538181265,55.860977200298095,-4.25455055888237,380.2061805686151,373.0,123.5,VIRGIN WEST COAST,ANYTIME S,0.0,0.32482375698180477,0.33109919571045576,1.0193195189507107,0.9810466506414022
Bletchley,BLY,1.0,51.9953339717924,-0.736320506839459,55.860977200298095,-4.25455055888237,488.25017308033114,322.0,159.5,VIRGIN WEST COAST,ANYTIME S,700.0,0.3266767915180189,0.4953416149068323,1.5163048853426433,0.6594979740990727
Bloxwich,BLX,1.0,52.6182018754768,-2.01147807238452,55.860977200298095,-4.25455055888237,389.40070497491985,307.0,118.0,VIRGIN WEST COAST,ANYTIME S,317.0,0.30302975442122027,0.38436482084690554,1.268406205130032,0.7883909712484289
Bloxwich North,BWN,1.0,52.6254378492086,-2.01768461058018,55.860977200298095,-4.25455055888237,388.49808299399064,309.0,118.0,VIRGIN WEST COAST,ANYTIME S,317.0,0.30373380246981874,0.3818770226537217,1.2572753494951154,0.7953707200268982
Blundellsands & Crosby,BLN,3.0,53.4876867000616,-3.03986028592851,55.860977200298095,-4.25455055888237,275.5537781092694,298.0,132.0,LONDON NORTH EASTERN RAILWAY,ANYTIME S,0.0,0.4790353480388721,0.4429530201342282,0.9246771077492262,1.0814585887544235
Blythe Bridge,BYB,1.0,52.9681439666743,-2.06696136521393,55.860977200298095,-4.25455055888237,351.89403984652154,294.0,129.0,VIRGIN WEST COAST,ANYTIME S,0.0,0.3665876240935007,0.4387755102040816,1.196918502879325,0.8354787711898388
Bodmin Parkway,BOD,1.0,50.4458686645733,-4.66292953056928,55.860977200298095,-4.25455055888237,603.2576441036276,591.0,252.25,CROSSCOUNTRY,ANYTIME S,817.0,0.4181463798520363,0.42681895093062605,1.0207405145577455,0.9796809137464954
Bodorgan,BOR,1.0,53.2043074000119,-4.41800424551237,55.860977200298095,-4.25455055888237,295.9157664728202,340.0,125.9,VIRGIN WEST COAST,ANYTIME S,317.0,0.4254589118405892,0.37029411764705883,0.8703404896259418,1.1489756157728381
Bognor Regis,BOG,2.0,50.7865584395345,-0.676178286011514,55.860977200298095,-4.25455055888237,612.8116869074987,433.0,214.0,VIRGIN WEST COAST,ANYTIME S,0.0,0.3492100502846682,0.4942263279445728,1.4152694847748237,0.7065792138937447
Bogston,BGS,0.0,55.9370473872407,-4.71140217696609,55.860977200298095,-4.25455055888237,29.8070978681598,38.0,6.7,SCOTRAIL,ANYTIME DAY S,1000.0,0.22477867619433686,0.1763157894736842,0.7843973123199948,1.2748641336395223
Bolton,BON,1.0,53.5741455351566,-2.42582497565139,55.860977200298095,-4.25455055888237,280.49679258874926,203.0,132.0,LONDON NORTH EASTERN RAILWAY,ANYTIME S,0.0,0.47059361635386676,0.6502463054187192,1.381757598959356,0.7237159403017799
Bolton-Upon-Dearne,BTD,1.0,53.5189470302023,-1.31154616002462,55.860977200298095,-4.25455055888237,322.40853926444606,329.0,120.55,CROSSCOUNTRY,ANYTIME S,0.0,0.3739044886187783,0.36641337386018236,0.9799651649375261,1.0204444359649776
Bookham,BKA,2.0,51.2887375770933,-0.384020684769355,55.860977200298095,-4.25455055888237,569.6033960661955,371.0,193.5,VIRGIN WEST COAST,ANYTIME S,0.0,0.33971005323415016,0.5215633423180593,1.5353191268630606,0.6513303863042362
Bootle (Cumbria),BOC,1.0,54.2913058315169,-3.39386227213438,55.860977200298095,-4.25455055888237,183.18328836673783,221.0,68.6,VIRGIN WEST COAST,ANYTIME S,275.0,0.374488309559445,0.3104072398190045,0.8288836577680445,1.2064419302133724
Bootle New Strand,BNW,3.0,53.4533917659639,-2.99474773972908,55.860977200298095,-4.25455055888237,280.05474213749477,238.0,132.0,LONDON NORTH EASTERN RAILWAY,ANYTIME S,0.0,0.47133642156001665,0.5546218487394958,1.1767005972163647,0.8498338509945755
Bootle Oriel Road,BOT,3.0,53.4466239167649,-2.9957338918952,55.860977200298095,-4.25455055888237,280.75912860087766,232.0,132.0,LONDON NORTH EASTERN RAILWAY,ANYTIME S,0.0,0.4701539025918866,0.5689655172413793,1.2101686577624038,0.826331101525134
Bordesley,BBS,2.0,52.4718743800827,-1.87776885469942,55.860977200298095,-4.25455055888237,407.86565667268525,272.0,115.5,VIRGIN WEST COAST,ANYTIME S,317.0,0.28318147926999765,0.42463235294117646,1.4995060907084017,0.6668862542115962
Borough Green & Wrotham,BRG,2.0,51.2932170234776,0.306244959659036,55.860977200298095,-4.25455055888237,591.0721337894716,373.0,201.5,VIRGIN WEST COAST,ANYTIME S,0.0,0.3409059376698181,0.5402144772117963,1.5846437903202992,0.6310566488875541
Borth,BRH,1.0,52.4910318901744,-4.05017708151719,55.860977200298095,-4.25455055888237,375.3393407405168,452.0,136.7,VIRGIN WEST COAST,ANYTIME S,287.0,0.3642037622016946,0.30243362831858406,0.8303967715498158,1.2042436028907533
Bosham,BOH,2.0,50.8427472866996,-0.847431235664145,55.860977200298095,-4.25455055888237,602.6333366707113,453.0,214.0,VIRGIN WEST COAST,ANYTIME S,0.0,0.3551081345453896,0.47240618101545256,1.3303164164916363,0.7517008642479508
Boston,BSN,2.0,52.9780883520384,-0.03100323679323,55.860977200298095,-4.25455055888237,421.91939636739147,397.0,148.0,LONDON NORTH EASTERN RAILWAY,ANYTIME S,0.0,0.35077790040998064,0.37279596977329976,1.062769260371263,0.940938016640286
Botley,BOE,2.0,50.9164546156522,-1.25923650546392,55.860977200298095,-4.25455055888237,585.125838294161,444.0,218.0,VIRGIN WEST COAST,ANYTIME S,0.0,0.37256942991193737,0.49099099099099097,1.3178509871490112,0.7588111324811935
Bottesford,BTF,2.0,52.9446141670485,-0.794842711685305,55.860977200298095,-4.25455055888237,394.687016465794,378.0,144.5,LONDON NORTH EASTERN RAILWAY,ANYTIME S,0.0,0.36611287924776026,0.38227513227513227,1.0441455462058042,0.9577208882744178
Bourne End,BNE,3.0,51.5771173647136,-0.710473547391366,55.860977200298095,-4.25455055888237,530.9352656778747,403.0,196.5,VIRGIN WEST COAST,ANYTIME S,0.0,0.37010161634133965,0.48759305210918114,1.3174572349326914,0.7590379205372003
Bournemouth,BMH,1.0,50.7272746595869,-1.86450316465566,55.860977200298095,-4.25455055888237,593.0548522159711,452.0,236.5,VIRGIN WEST COAST,ANYTIME S,0.0,0.3987826743450612,0.5232300884955752,1.3120682571149802,0.7621554706298844
Bournville,BRV,1.0,52.4269645832552,-1.92642405915734,55.860977200298095,-4.25455055888237,411.338222525526,274.0,115.5,VIRGIN WEST COAST,ANYTIME S,317.0,0.28079082777879344,0.4215328467153285,1.501234388779292,0.66611850053151
Bow Brickhill,BWB,2.0,52.0043001848605,-0.696077833880482,55.860977200298095,-4.25455055888237,488.6152737714476,345.0,159.5,VIRGIN WEST COAST,ANYTIME S,700.0,0.32643269369963857,0.4623188405797101,1.4162761558592685,0.7060769863722589
Bowes Park,BOP,2.0,51.6070103763875,-0.120581954633459,55.860977200298095,-4.25455055888237,546.2152718562918,317.0,186.5,VIRGIN WEST COAST,ANYTIME S,0.0,0.3414404715675321,0.5883280757097792,1.7230765673700057,0.5803572626643843
Bowling,BWG,0.0,55.9310849001239,-4.49384261915191,55.860977200298095,-4.25455055888237,16.882988571695332,31.0,4.2,SCOTRAIL,ANYTIME DAY S,1000.0,0.24877112142582292,0.13548387096774195,0.5446125345708172,1.8361678010001214
Box Hill & Westhumble,BXW,2.0,51.2540106794359,-0.328489952956063,55.860977200298095,-4.25455055888237,574.7514307584738,379.0,198.0,VIRGIN WEST COAST,ANYTIME S,0.0,0.3444967500797836,0.5224274406332454,1.5164945402598253,0.6594154963648383
Bracknell,BCE,2.0,51.4130914141393,-0.751703650172948,55.860977200298095,-4.25455055888237,546.4074304591791,390.0,201.5,VIRGIN WEST COAST,ANYTIME S,0.0,0.36877243750266614,0.5166666666666667,1.4010446934850744,0.7137531048438699
Bradford Forster Square,BDQ,1.0,53.7969256219995,-1.75296173787813,55.860977200298095,-4.25455055888237,280.38962484080184,291.0,124.5,LONDON NORTH EASTERN RAILWAY,ANYTIME S,0.0,0.44402498869452806,0.42783505154639173,0.9635382296934771,1.037841539840222
Bradford Interchange,BDI,1.0,53.7910764525054,-1.74959589964649,55.860977200298095,-4.25455055888237,281.0535546534196,292.0,124.5,LONDON NORTH EASTERN RAILWAY,ANYTIME S,0.0,0.44297607320258525,0.4263698630136986,0.9625121734706151,1.0389478985956215
Bradford-on-Avon,BOA,2.0,51.3449161602034,-2.25232693866303,55.860977200298095,-4.25455055888237,519.750000117168,440.0,236.5,VIRGIN WEST COAST,ANYTIME S,0.0,0.4550264549238777,0.5375,1.181250000266291,0.8465608463700051
Brading,BDN,4.0,50.6783720718463,-1.13872244962043,55.860977200298095,-4.25455055888237,612.9375382996466,496.0,71.5,VIRGIN WEST COAST,ADVANCE,452.0,0.11665136418035114,0.14415322580645162,1.2357611659267067,0.809217855013345
Braintree,BTR,2.0,51.8753890748181,0.556686982906197,55.860977200298095,-4.25455055888237,544.6552327769505,379.0,209.0,VIRGIN WEST COAST,ANYTIME S,0.0,0.38372898564547636,0.5514511873350924,1.4370850469048826,0.695853040955194
Braintree Freeport,BTP,2.0,51.8694135093739,0.568434688069829,55.860977200298095,-4.25455055888237,545.6567385545616,377.0,209.0,VIRGIN WEST COAST,ANYTIME S,0.0,0.38302468426146186,0.5543766578249337,1.4473653542561316,0.6909105548639767
Bramhall,BML,1.0,53.360614520234,-2.16359288123925,55.860977200298095,-4.25455055888237,309.352572808592,251.0,71.2,VIRGIN WEST COAST,ANYTIME S,275.0,0.2301580987466172,0.2836653386454183,1.2324803697553466,0.8113719492331588
Bramley (Hants),BMY,2.0,51.3302932744388,-1.06100278415591,55.860977200298095,-4.25455055888237,546.6440017426736,394.0,209.0,VIRGIN WEST COAST,ANYTIME S,0.0,0.38233292478051256,0.5304568527918782,1.3874213242199838,0.7207615902560859
Bramley (W Yorks),BLE,1.0,53.8053497570895,-1.63720635437646,55.860977200298095,-4.25455055888237,283.94982628660597,279.0,118.0,LONDON NORTH EASTERN RAILWAY,ANYTIME S,0.0,0.4155663750288623,0.4229390681003584,1.0177413128552186,0.9825679545173948
Brampton (Cumbria),BMP,1.0,54.9323930102284,-2.70294760254176,55.860977200298095,-4.25455055888237,142.65562524939983,112.0,29.4,VIRGIN WEST COAST,ANYTIME S,0.0,0.2060907163569681,0.2625,1.2737109397267843,0.785107490883688
Brampton (Suffolk),BRP,2.0,52.3954307722651,1.54381046672808,55.860977200298095,-4.25455055888237,540.4703694972807,534.0,221.5,VIRGIN WEST COAST,ANYTIME S,0.0,0.4098282024341659,0.4147940074906367,1.012116796811387,0.9880282623017815
Branchton,BCN,0.0,55.9406016000061,-4.80354935893801,55.860977200298095,-4.25455055888237,35.46701358880184,36.0,6.9,SCOTRAIL,ANYTIME DAY S,1000.0,0.19454696919220085,0.19166666666666668,0.9851948219111623,1.015027665350613
Brandon,BND,2.0,52.4540047306678,0.624731734521936,55.860977200298095,-4.25455055888237,495.14755308076866,426.0,158.5,LONDON NORTH EASTERN RAILWAY,ANYTIME S,700.0,0.32010660057557716,0.3720657276995305,1.1623181997201142,0.860349601546977
Branksome,BSM,2.0,50.7269660330633,-1.91975842787338,55.860977200298095,-4.25455055888237,592.1130416614762,482.0,236.5,VIRGIN WEST COAST,ANYTIME S,0.0,0.3994169750701288,0.49066390041493774,1.2284502939034776,0.8140337504600511
Braystones (Cumbria),BYS,1.0,54.4393640536404,-3.54182643942065,55.860977200298095,-4.25455055888237,164.6545635656007,194.0,59.3,VIRGIN WEST COAST,ANYTIME S,0.0,0.3601479285836741,0.3056701030927835,0.8487348637402099,1.1782242520275343
Bredbury,BDY,1.0,53.4231550957567,-2.11048830300964,55.860977200298095,-4.25455055888237,304.6017429036892,235.0,71.2,VIRGIN WEST COAST,ANYTIME S,275.0,0.23374784175976446,0.30297872340425536,1.296177629377401,0.7714991968194472
Breich,BRC,0.0,55.8273164832767,-3.66812586892786,55.860977200298095,-4.25455055888237,36.9263316350883,50.0,7.7,SCOTRAIL,ANYTIME DAY S,0.0,0.20852328566218237,0.154,0.7385266327017661,1.3540473094946908
Brentford,BFD,2.0,51.4875457097478,-0.3096509962364,55.860977200298095,-4.25455055888237,551.9656610864635,350.0,188.5,VIRGIN WEST COAST,ANYTIME S,0.0,0.3415067517587333,0.5385714285714286,1.5770447459613242,0.634097417058656
Brentwood,BRE,2.0,51.6136030493508,0.2995857793073,55.860977200298095,-4.25455055888237,559.8963026615377,355.0,198.0,VIRGIN WEST COAST,ANYTIME S,0.0,0.3536369128690117,0.5577464788732395,1.5771726835536273,0.6340459801439351
Bricket Wood,BWO,2.0,51.7054267834401,-0.359115040469,55.860977200298095,-4.25455055888237,528.8150814517682,329.0,196.5,VIRGIN WEST COAST,ANYTIME S,0.0,0.37158546889499455,0.5972644376899696,1.6073406731056783,0.6221456451218993
Bridge of Allan,BEA,0.0,56.1566398048563,-3.95722936202684,55.860977200298095,-4.25455055888237,37.784514139708484,46.0,9.7,SCOTRAIL,ANYTIME DAY S,0.0,0.25671892892771325,0.21086956521739128,0.8214024812980105,1.2174299722345165
Bridge of Orchy,BRO,0.0,56.5158728605762,-4.76299400728156,55.860977200298095,-4.25455055888237,79.45910504577763,147.0,25.0,SCOTRAIL,ANYTIME DAY S,0.0,0.3146272536746684,0.17006802721088435,0.5405381295631132,1.85000825160705
Bridgend,BGN,1.0,51.5069776497295,-3.57527638119945,55.860977200298095,-4.25455055888237,486.66287225957274,437.0,159.0,VIRGIN WEST COAST,ANYTIME S,0.0,0.32671487607378796,0.36384439359267734,1.1136450166122946,0.8979522065675807
Bridgeton,BDG,0.0,55.8489676845822,-4.22605724682491,55.860977200298095,-4.25455055888237,2.22982067951023,5.0,1.9,SCOTRAIL,ANYTIME DAY S,0.0,0.852086455856767,0.38,0.445964135902046,2.24233277857044
Bridgwater,BWT,2.0,51.1278595271724,-2.99040597303838,55.860977200298095,-4.25455055888237,533.3889224591707,425.0,236.0,VIRGIN WEST COAST,ANYTIME S,0.0,0.44245388320389256,0.5552941176470588,1.2550327587274603,0.796791950684976
Bridlington,BDT,2.0,54.0841300013586,-0.198720390714093,55.860977200298095,-4.25455055888237,326.3845448463475,387.0,129.5,LONDON NORTH EASTERN RAILWAY,ANYTIME S,0.0,0.3967712382366784,0.33462532299741604,0.8433709169156267,1.185717908861734
Brierfield,BRF,1.0,53.8239823807197,-2.23649020577414,55.860977200298095,-4.25455055888237,261.1803505152102,220.0,132.0,LONDON NORTH EASTERN RAILWAY,ANYTIME S,0.0,0.5053978974284009,0.6,1.1871834114327735,0.8423298290473349
Brigg,BGG,2.0,53.5491442686681,-0.486124757673641,55.860977200298095,-4.25455055888237,353.7932734765576,383.0,131.5,LONDON NORTH EASTERN RAILWAY,ANYTIME S,0.0,0.37168598121669266,0.3433420365535248,0.9237422283983228,1.0825530859771353
Brighouse,BGH,1.0,53.6981985445311,-1.77943904000537,55.860977200298095,-4.25455055888237,288.62582933163276,260.0,124.5,LONDON NORTH EASTERN RAILWAY,ANYTIME S,0.0,0.4313543257313564,0.47884615384615387,1.110099343583203,0.9008202786357644
Brighton (East Sussex),BTN,2.0,50.8290032740444,-0.141280362604851,55.860977200298095,-4.25455055888237,623.1692800341511,371.0,212.5,VIRGIN WEST COAST,ANYTIME S,0.0,0.3409988374079584,0.5727762803234502,1.6797015634343697,0.5953438526040121
Brimsdown,BMD,2.0,51.6555817179022,-0.0308174334464399,55.860977200298095,-4.25455055888237,544.4578007963336,323.0,186.5,VIRGIN WEST COAST,ANYTIME S,0.0,0.342542617127024,0.5773993808049536,1.6856278662425188,0.5932507524505564
Brinnington,BNT,1.0,53.4321182782686,-2.13512015019042,55.860977200298095,-4.25455055888237,302.9861533993043,232.0,71.2,VIRGIN WEST COAST,ANYTIME S,275.0,0.23499423719923526,0.30689655172413793,1.3059747991349324,0.7657115594132384
Bristol Parkway,BPW,1.0,51.5138036668802,-2.54216343130652,55.860977200298095,-4.25455055888237,496.8450507672535,335.0,156.5,VIRGIN WEST COAST,ANYTIME S,0.0,0.3149875393914556,0.4671641791044776,1.483119554529115,0.6742544772916141
Bristol Temple Meads,BRI,1.0,51.449146420501,-2.58131562733598,55.860977200298095,-4.25455055888237,503.2978260681938,345.0,156.5,VIRGIN WEST COAST,ANYTIME S,0.0,0.31094908798353366,0.45362318840579713,1.4588342784585326,0.6854788201553936
Brithdir,BHD,2.0,51.7103060616454,-3.22872077880337,55.860977200298095,-4.25455055888237,466.8808781326077,466.0,159.0,VIRGIN WEST COAST,ANYTIME S,700.0,0.3405579612426093,0.34120171673819744,1.001890296421905,0.9981132700569556
Briton Ferry,BNF,1.0,51.6379005035521,-3.81925304025098,55.860977200298095,-4.25455055888237,470.9029535519761,469.0,159.0,VIRGIN WEST COAST,ANYTIME S,0.0,0.33764918822589274,0.3390191897654584,1.004057470260077,0.9959589262763754
Brixton,BRX,2.0,51.4632974069132,-0.114183479348404,55.860977200298095,-4.25455055888237,560.5503821476522,318.0,191.5,VIRGIN WEST COAST,ANYTIME S,0.0,0.3416285245695503,0.6022012578616353,1.7627370507787803,0.5672995864914726
Broad Green,BGE,1.0,53.4065063198581,-2.8934843782564,55.860977200298095,-4.25455055888237,286.9976634861914,225.0,132.0,LONDON NORTH EASTERN RAILWAY,ANYTIME S,0.0,0.4599340579870297,0.5866666666666667,1.2755451710497396,0.783978507932437
Broadbottom,BDB,1.0,53.4409753914717,-2.01652101691897,55.860977200298095,-4.25455055888237,305.63907496670805,243.0,77.9,VIRGIN WEST COAST,ANYTIME S,275.0,0.2548757877522215,0.3205761316872428,1.2577739710564118,0.7950554098047474
Broadstairs,BSR,2.0,51.3606706129939,1.43356042841681,55.860977200298095,-4.25455055888237,626.1421109214928,420.0,218.0,VIRGIN WEST COAST,ANYTIME S,0.0,0.34816377336315807,0.5190476190476191,1.490814549813078,0.6707742422592954
Brockenhurst,BCU,1.0,50.8168418133325,-1.57353117285741,55.860977200298095,-4.25455055888237,588.9794869179151,437.0,229.5,VIRGIN WEST COAST,ANYTIME S,0.0,0.3896570340691423,0.5251716247139588,1.347779146265252,0.7419613241316566
Brockholes,BHS,2.0,53.5969730380642,-1.76969142002127,55.860977200298095,-4.25455055888237,298.5271899571364,343.0,124.5,LONDON NORTH EASTERN RAILWAY,ANYTIME S,0.0,0.4170474388543173,0.3629737609329446,0.8703416616826134,1.1489740684902074
Brockley,BCY,2.0,51.4646472014469,-0.0375366925196268,55.860977200298095,-4.25455055888237,562.8996708403283,337.0,191.5,VIRGIN WEST COAST,ANYTIME S,0.0,0.3402027215864561,0.5682492581602374,1.6703254327606183,0.5986857293714658
Bromborough,BOM,2.0,53.3218495381578,-2.98689585549247,55.860977200298095,-4.25455055888237,294.27115683675106,246.0,78.9,VIRGIN WEST COAST,ANYTIME S,317.0,0.2681200592274503,0.3207317073170732,1.196224214783541,0.8359636827623924
Bromborough Rake,BMR,2.0,53.3299093778849,-2.98946942122466,55.860977200298095,-4.25455055888237,293.3611694773142,244.0,78.9,VIRGIN WEST COAST,ANYTIME S,317.0,0.26895175029666424,0.32336065573770495,1.2022998749070255,0.8317392531354381
Bromley Cross (Lancs),BMC,2.0,53.6140430093272,-2.41089911446368,55.860977200298095,-4.25455055888237,276.85982315766535,232.0,132.0,LONDON NORTH EASTERN RAILWAY,ANYTIME S,0.0,0.47677557001410426,0.5689655172413793,1.1933613067140747,0.8379691836611529
Bromley North,BMN,3.0,51.4083259856208,0.0169926357417391,55.860977200298095,-4.25455055888237,570.2123679440999,358.0,191.5,VIRGIN WEST COAST,ANYTIME S,0.0,0.3358397866578255,0.5349162011173184,1.5927719774974858,0.6278362591305562
Bromley South,BMS,2.0,51.3999745779484,0.0173440284479178,55.860977200298095,-4.25455055888237,571.0444841311745,340.0,191.5,VIRGIN WEST COAST,ANYTIME S,0.0,0.33535040670493643,0.5632352941176471,1.6795426003858074,0.5954001998938819
Bromsgrove,BMV,1.0,52.3222879772082,-2.04734524157192,55.860977200298095,-4.25455055888237,419.4665226636559,293.0,125.5,VIRGIN WEST COAST,ANYTIME S,0.0,0.2991895496285663,0.4283276450511945,1.4316263572138426,0.6985062792125093
Brondesbury,BSY,2.0,51.5451643215911,-0.202308734122339,55.860977200298095,-4.25455055888237,549.6450866636209,320.0,186.5,VIRGIN WEST COAST,ANYTIME S,0.0,0.3393098647202804,0.5828125,1.7176408958238152,0.582193869761339
Brondesbury Park,BSP,2.0,51.5406977630272,-0.210127665126915,55.860977200298095,-4.25455055888237,549.8357695030688,318.0,186.5,VIRGIN WEST COAST,ANYTIME S,0.0,0.33919219218595975,0.5864779874213837,1.729043300324116,0.5783545153626553
Brookmans Park,BPK,2.0,51.7210604040222,-0.204548729285783,55.860977200298095,-4.25455055888237,532.2895667760271,340.0,186.5,VIRGIN WEST COAST,ANYTIME S,0.0,0.35037320218315327,0.5485294117647059,1.5655575493412561,0.6387500736851052
Brookwood,BKO,2.0,51.3037572593507,-0.635747900032551,55.860977200298095,-4.25455055888237,560.7949125812632,366.0,196.5,VIRGIN WEST COAST,ANYTIME S,0.0,0.35039547540746585,0.5368852459016393,1.5322265371072767,0.6526450076291731
Broome,BME,1.0,52.4227745962921,-2.88520796216339,55.860977200298095,-4.25455055888237,393.00083773154745,357.0,140.8,VIRGIN WEST COAST,ANYTIME S,287.0,0.3582689564040528,0.3943977591036415,1.1008426827214215,0.9083950102006169
Broomfleet,BMF,1.0,53.7402076992399,-0.671828400321333,55.860977200298095,-4.25455055888237,329.8022227497679,311.0,129.5,LONDON NORTH EASTERN RAILWAY,ANYTIME S,0.0,0.3926595731231806,0.41639871382636656,1.0604573078770672,0.9429893995467891
Brora,BRA,1.0,58.012954677959,-3.85228367382381,55.860977200298095,-4.25455055888237,240.88812364368928,484.0,109.5,SCOTRAIL,ANYTIME DAY S,0.0,0.45456786471535393,0.2262396694214876,0.4977027348010109,2.0092314750888702
Brough,BUH,2.0,53.726959736948,-0.578724236728498,55.860977200298095,-4.25455055888237,335.0778577468918,298.0,129.5,LONDON NORTH EASTERN RAILWAY,ANYTIME S,0.0,0.38647734252204924,0.43456375838926176,1.124422341432523,0.8893455449542137
Broughty Ferry,BYF,1.0,56.4671632427311,-2.87315275743822,55.860977200298095,-4.25455055888237,109.18152341004243,102.0,23.9,SCOTRAIL,ANYTIME DAY S,0.0,0.2189015068991215,0.23431372549019605,1.070407092255318,0.934224004339347
Broxbourne,BXB,2.0,51.7469087203036,-0.0110867237416249,55.860977200298095,-4.25455055888237,536.2737343319798,334.0,193.5,VIRGIN WEST COAST,ANYTIME S,0.0,0.360823190867323,0.5793413173652695,1.6056099830298796,0.6228162571043198
Bruce Grove,BCV,2.0,51.5939575362971,-0.0698670703254643,55.860977200298095,-4.25455055888237,549.1642410671446,325.0,186.5,VIRGIN WEST COAST,ANYTIME S,0.0,0.3396069628233445,0.5738461538461539,1.6897361263604451,0.591808380255158
Brundall,BDA,2.0,52.6194794445227,1.43929868679443,55.860977200298095,-4.25455055888237,517.3656008225887,470.0,159.5,LONDON NORTH EASTERN RAILWAY,ANYTIME S,700.0,0.3082926266191683,0.3393617021276596,1.1007778740906142,0.908448492232032
Brundall Gardens,BGA,2.0,52.623439277351,1.41841612253682,55.860977200298095,-4.25455055888237,516.0724881964948,467.0,159.5,LONDON NORTH EASTERN RAILWAY,ANYTIME S,700.0,0.3090651093558592,0.341541755888651,1.1050802745106953,0.9049116367974058
Brunstane,BSU,1.0,55.9425140850115,-3.10098653970798,55.860977200298095,-4.25455055888237,72.72452401919811,92.0,15.8,SCOTRAIL,ANYTIME DAY S,0.0,0.2172582112167424,0.17173913043478262,0.7904839567304143,1.2650478121481203
Brunswick,BRW,2.0,53.3832435421687,-2.97607735757102,55.860977200298095,-4.25455055888237,287.8971913314934,274.0,132.0,LONDON NORTH EASTERN RAILWAY,ANYTIME S,0.0,0.4584970050923883,0.48175182481751827,1.0507196763923117,0.9517286317826847
Bruton,BRU,2.0,51.1116412233567,-2.44707381432238,55.860977200298095,-4.25455055888237,541.9744852504464,498.0,236.5,VIRGIN WEST COAST,ANYTIME S,0.0,0.4363674055444019,0.4748995983935743,1.0883021792177638,0.9188624438101993
Bryn,BYN,1.0,53.4998691660173,-2.6472139954436,55.860977200298095,-4.25455055888237,282.5220702848502,192.0,132.0,VIRGIN WEST COAST,ANYTIME S,0.0,0.467220135640774,0.6875,1.4714691160669282,0.6795929245683986
Buckenham (Norfolk),BUC,-999.0,52.5977342869752,1.47032522512213,55.860977200298095,-4.25455055888237,520.5676187349653,-999.0,159.5,LONDON NORTH EASTERN RAILWAY,ANYTIME S,700.0,0.30639631482957386,-999.0,-999.0,-999.0
Buckley,BCK,2.0,53.163039091322,-3.05592619131988,55.860977200298095,-4.25455055888237,310.17873100607653,292.0,94.9,VIRGIN WEST COAST,ANYTIME S,275.0,0.3059526347670204,0.325,1.0622559281030017,0.9413927223600628
Bucknell,BUK,1.0,52.3573820377697,-2.94737831871819,55.860977200298095,-4.25455055888237,399.2164498247257,366.0,140.8,VIRGIN WEST COAST,ANYTIME S,287.0,0.35269087749720146,0.3846994535519126,1.090755327389961,0.9167958889486912
Buckshaw Parkway,BSV,1.0,53.6733436562841,-2.6608302706882,55.860977200298095,-4.25455055888237,264.2302599402219,183.0,132.0,LONDON NORTH EASTERN RAILWAY,ANYTIME S,0.0,0.4995642816604843,0.7213114754098361,1.443881201859136,0.6925777541202168
Bugle,BGL,3.0,50.4003548175137,-4.79210144517706,55.860977200298095,-4.25455055888237,608.7635730663699,633.0,252.25,CROSSCOUNTRY,ANYTIME S,817.0,0.4143644777058608,0.39849921011058453,0.9617118057920535,1.039812544649395
Builth Road,BHR,1.0,52.1693260878635,-3.42703322967269,55.860977200298095,-4.25455055888237,414.456740540624,408.0,148.0,VIRGIN WEST COAST,ANYTIME S,287.0,0.3570939630682479,0.3627450980392157,1.0158253444623138,0.9844211954854402
Bulwell,BLW,2.0,52.9996957837852,-1.19623056375416,55.860977200298095,-4.25455055888237,375.1953900423873,374.0,123.5,VIRGIN WEST COAST,ANYTIME S,0.0,0.32916182681788203,0.3302139037433155,1.0031962300598591,0.9968139532784445
Bures,BUE,3.0,51.9711590332091,0.769143780923498,55.860977200298095,-4.25455055888237,544.1357797639547,402.0,210.0,VIRGIN WEST COAST,ANYTIME S,0.0,0.3859330847368605,0.5223880597014925,1.3535715914526236,0.7387861907819901
Burgess Hill,BUG,2.0,50.9536546008005,-0.127412852764647,55.860977200298095,-4.25455055888237,610.9827297421255,374.0,209.0,VIRGIN WEST COAST,ANYTIME S,0.0,0.34207186197916206,0.5588235294117647,1.6336436624121002,0.6121285951206058
Burley Park,BUY,2.0,53.8120311080587,-1.57776768947798,55.860977200298095,-4.25455055888237,285.62398975178303,274.0,118.0,LONDON NORTH EASTERN RAILWAY,ANYTIME S,0.0,0.41313056407672905,0.4306569343065693,1.042423320261982,0.9593031742120658
Burley-in-Wharfedale,BUW,2.0,53.9081516997075,-1.75337211508043,55.860977200298095,-4.25455055888237,270.19473103075757,280.0,125.5,LONDON NORTH EASTERN RAILWAY,ANYTIME S,0.0,0.4644798198737404,0.44821428571428573,0.9649811822527056,1.036289637965317
Burnage,BNA,1.0,53.4211687602571,-2.21567840315285,55.860977200298095,-4.25455055888237,301.7800402105254,227.0,71.2,LONDON NORTH EASTERN RAILWAY,ANYTIME S,95.0,0.23593343002516012,0.31365638766519827,1.3294274899142087,0.7522034917936987
Burneside (Cumbria),BUD,1.0,54.3549826054845,-2.76667730640148,55.860977200298095,-4.25455055888237,192.6696516977383,144.0,33.0,VIRGIN WEST COAST,ANYTIME S,0.0,0.17127762317113993,0.22916666666666666,1.3379836923454047,0.7473932647467925
Burnham (Bucks),BNM,2.0,51.5235048795581,-0.646373823188634,55.860977200298095,-4.25455055888237,538.2144091823903,350.0,193.5,VIRGIN WEST COAST,ANYTIME S,0.0,0.35952214711967445,0.5528571428571428,1.5377554548068295,0.6502984573224085
Burnham-on-Crouch,BUU,2.0,51.6336547723703,0.814027782561537,55.860977200298095,-4.25455055888237,576.8914016311406,413.0,204.5,VIRGIN WEST COAST,ANYTIME S,0.0,0.35448612931616463,0.49515738498789347,1.3968314809470717,0.7159059726531833
Burnley Barracks,BUB,1.0,53.7908801067712,-2.25808600820696,55.860977200298095,-4.25455055888237,263.73322858149055,212.0,132.0,LONDON NORTH EASTERN RAILWAY,ANYTIME S,0.0,0.5005057599680258,0.6226415094339622,1.2440246631202385,0.8038425841910718
Burnley Central,BNC,1.0,53.7935141377532,-2.24497131410056,55.860977200298095,-4.25455055888237,263.8862538724861,218.0,132.0,LONDON NORTH EASTERN RAILWAY,ANYTIME S,0.0,0.5002155211304959,0.6055045871559633,1.2104874030847987,0.8261135121700615
Burnley Manchester Road,BYM,1.0,53.784967519749,-2.24886752625716,55.860977200298095,-4.25455055888237,264.6007649754212,200.0,132.0,LONDON NORTH EASTERN RAILWAY,ANYTIME S,0.0,0.4988647709021608,0.66,1.323003824877106,0.7558557134881224
Burnside (Strathclyde),BUI,0.0,55.8169313339993,-4.20239033426663,55.860977200298095,-4.25455055888237,5.893117100715302,24.0,3.3,SCOTRAIL,ANYTIME DAY S,0.0,0.5599752972157042,0.13749999999999998,0.2455465458631376,4.072547616114212
Burntisland,BTS,1.0,56.0570842114504,-3.23319831966981,55.860977200298095,-4.25455055888237,67.42493888452695,91.0,16.4,SCOTRAIL,ANYTIME DAY S,0.0,0.24323344257066226,0.18021978021978022,0.740933394335461,1.3496489801176992
Burscough Bridge,BCB,2.0,53.6052595050232,-2.84088028461687,55.860977200298095,-4.25455055888237,267.091895349872,204.0,132.0,VIRGIN WEST COAST,ANYTIME S,0.0,0.4942119259256784,0.6470588235294118,1.309273996813098,0.7637820673396849
Burscough Junction,BCJ,1.0,53.5975223038556,-2.84060569626726,55.860977200298095,-4.25455055888237,267.9105005077183,174.0,71.2,VIRGIN WEST COAST,ANYTIME S,275.0,0.2657603933592322,0.4091954022988506,1.5397155201593007,0.6494706242205955
Bursledon,BUO,2.0,50.8836886125224,-1.30503236047306,55.860977200298095,-4.25455055888237,587.5583959640039,484.0,223.5,VIRGIN WEST COAST,ANYTIME S,0.0,0.38038772236979906,0.4617768595041322,1.2139636280248014,0.8237479088455604
Burton Joyce,BUJ,1.0,52.9834418843688,-1.04087761567102,55.860977200298095,-4.25455055888237,382.15196443911213,437.0,123.5,VIRGIN WEST COAST,ANYTIME S,0.0,0.32316986825191923,0.2826086956521739,0.874489621142133,1.1435241491990988
Burton-on-Trent,BUT,1.0,52.8058165084357,-1.64245997205794,55.860977200298095,-4.25455055888237,380.0947771432579,294.0,109.4,VIRGIN WEST COAST,ANYTIME S,307.0,0.2878229499027478,0.37210884353741497,1.292839378038292,0.7734912913291394
Bury St Edmunds,BSE,1.0,52.2537604920335,0.713306656862091,55.860977200298095,-4.25455055888237,516.4908133032869,418.0,158.5,LONDON NORTH EASTERN RAILWAY,ANYTIME S,700.0,0.30687864317719765,0.3791866028708134,1.2356239552710213,0.8093077151297705
Busby,BUS,0.0,55.7803445376612,-4.26220173231044,55.860977200298095,-4.25455055888237,8.990325706961901,22.0,3.6,SCOTRAIL,ANYTIME DAY S,0.0,0.40043043125926386,0.16363636363636364,0.4086511684982682,2.447074857695501
Bush Hill Park,BHK,2.0,51.6415169536941,-0.0692211146516689,55.860977200298095,-4.25455055888237,544.5418096752428,334.0,186.5,VIRGIN WEST COAST,ANYTIME S,0.0,0.342489771559003,0.5583832335329342,1.6303646996264756,0.6133596981271153
Bushey,BSH,1.0,51.6457502336329,-0.385321269560704,55.860977200298095,-4.25455055888237,533.8887655883733,325.0,193.5,VIRGIN WEST COAST,ANYTIME S,0.0,0.3624350472832162,0.5953846153846154,1.6427346633488409,0.608741035488606
Butlers Lane,BUL,1.0,52.5924709448511,-1.83802031828625,55.860977200298095,-4.25455055888237,396.4237012319947,281.0,115.5,VIRGIN WEST COAST,ANYTIME S,317.0,0.29135493069928026,0.4110320284697509,1.4107605026049634,0.7088375370259545
Buxted,BXD,2.0,50.9900108378352,0.131438921683175,55.860977200298095,-4.25455055888237,615.2500225760688,442.0,201.5,VIRGIN WEST COAST,ANYTIME S,0.0,0.32750913060728376,0.45588235294117646,1.391968376868934,0.718407125203074
Buxton,BUX,1.0,53.2607227045765,-1.91286358993768,55.860977200298095,-4.25455055888237,326.6481434798251,278.0,79.9,VIRGIN WEST COAST,ANYTIME S,275.0,0.24460570676696622,0.28741007194244605,1.1749933218698745,0.8510686668487686
Byfleet & New Haw,BFN,2.0,51.3497957278428,-0.481389767596653,55.860977200298095,-4.25455055888237,560.5740921720958,349.0,196.5,VIRGIN WEST COAST,ANYTIME S,0.0,0.350533502607314,0.5630372492836676,1.6062294904644578,0.6225760427987408
Bynea,BYE,1.0,51.6720366859549,-4.09888164715589,55.860977200298095,-4.25455055888237,466.34383217026857,527.0,159.0,VIRGIN WEST COAST,ANYTIME S,0.0,0.34095015100778026,0.301707779886148,0.8849029073439632,1.1300674816421397
Cadoxton,CAD,2.0,51.4122831697514,-3.24889594393883,55.860977200298095,-4.25455055888237,499.564734198756,426.0,156.5,VIRGIN WEST COAST,ANYTIME S,700.0,0.31327271379755794,0.3673708920187793,1.172687169480648,0.852742339155014
Caergwrle,CGW,2.0,53.1078664074892,-3.03291327418616,55.860977200298095,-4.25455055888237,316.5090504219051,301.0,99.5,VIRGIN WEST COAST,ANYTIME S,317.0,0.31436699793376194,0.33056478405315615,1.0515250844581565,0.9509996620910789
Caerphilly,CPH,2.0,51.57158067131,-3.21848255919666,55.860977200298095,-4.25455055888237,482.2682999337049,448.0,159.0,VIRGIN WEST COAST,ANYTIME S,700.0,0.329691999291384,0.3549107142857143,1.0764917409234485,0.9289434948587423
Caersws,CWS,1.0,52.5161279090032,-3.43249879239218,55.860977200298095,-4.25455055888237,376.1499192194683,401.0,120.7,VIRGIN WEST COAST,ANYTIME S,287.0,0.3208826955232614,0.30099750623441396,0.9380297237393225,1.066064299128648
Caldercruix,CAC,0.0,55.8879475461776,-3.88771190821316,55.860977200298095,-4.25455055888237,23.157704897300768,40.0,6.1,SCOTRAIL,ANYTIME DAY S,0.0,0.26341125025351747,0.1525,0.5789426224325191,1.7272868869083113
Caldicot,CDT,1.0,51.5847930591881,-2.76057390572724,55.860977200298095,-4.25455055888237,486.0168493301222,367.0,155.5,VIRGIN WEST COAST,ANYTIME S,0.0,0.3199477553387828,0.42370572207084467,1.3242965921801695,0.7551178534362268
Caledonian Rd & Barnsbury,CIR,2.0,51.5430392840645,-0.116729249835755,55.860977200298095,-4.25455055888237,552.6176162426077,309.0,186.5,VIRGIN WEST COAST,ANYTIME S,0.0,0.337484717313325,0.6035598705501618,1.788406525056983,0.5591569847175197
Calstock,CSK,2.0,50.4978023671618,-4.20898850028348,55.860977200298095,-4.25455055888237,596.8723541060444,553.0,252.25,CROSSCOUNTRY,ANYTIME S,817.0,0.4226196744826676,0.4561482820976492,1.0793351792152703,0.9264962536726072
Cam & Dursley,CDU,2.0,51.71762106741,-2.35908298700462,55.860977200298095,-4.25455055888237,477.7321440548221,369.0,136.0,VIRGIN WEST COAST,ANYTIME S,700.0,0.2846783531157856,0.3685636856368564,1.2946670570591383,0.772399355145036
Camberley,CAM,2.0,51.3363271281171,-0.744271720142327,55.860977200298095,-4.25455055888237,554.4445562389682,402.0,209.5,VIRGIN WEST COAST,ANYTIME S,0.0,0.37785563523452564,0.5211442786069652,1.379215314027284,0.7250499540061065
Camborne,CBN,1.0,50.2104431448962,-5.2974123155278,55.860977200298095,-4.25455055888237,632.6888050086,646.0,252.25,CROSSCOUNTRY,ANYTIME S,817.0,0.3986952163577025,0.3904798761609907,0.9793944349978327,1.0210390872827584
Cambridge,CBG,1.0,52.1940653655991,0.137456461171047,55.860977200298095,-4.25455055888237,499.2071420107781,436.0,210.0,VIRGIN WEST COAST,ANYTIME S,0.0,0.4206670584762307,0.481651376146789,1.1449705091990323,0.8733849404554123
Cambridge Heath,CBH,2.0,51.5319710950389,-0.0572790666047599,55.860977200298095,-4.25455055888237,555.6470741710699,324.0,186.5,VIRGIN WEST COAST,ANYTIME S,0.0,0.33564470806982294,0.5756172839506173,1.714960105466265,0.5831039432419444
Cambuslang,CBL,0.0,55.8196110785266,-4.17300936139383,55.860977200298095,-4.25455055888237,6.878174346025222,12.0,3.3,SCOTRAIL,ANYTIME DAY S,0.0,0.4797784752151583,0.27499999999999997,0.5731811955021019,1.744649000782394
Camden Road,CMD,2.0,51.541789311709,-0.138700901327927,55.860977200298095,-4.25455055888237,552.0270828985709,312.0,186.5,VIRGIN WEST COAST,ANYTIME S,0.0,0.3378457430398707,0.5977564102564102,1.7693175733928557,0.5651896612784968
Camelon,CMO,0.0,56.0060960246981,-3.81760595611437,55.860977200298095,-4.25455055888237,31.7307747388596,38.0,7.7,SCOTRAIL,ANYTIME DAY S,0.0,0.24266662454257923,0.2026315789473684,0.8350203878647263,1.1975755496906506
Canada Water,ZCW,2.0,51.4979884652777,-0.0497198367270248,55.860977200298095,-4.25455055888237,559.2278201090363,330.0,191.5,VIRGIN WEST COAST,ANYTIME S,0.0,0.3424364688485312,0.5803030303030303,1.6946297579061707,0.5900993980157456
