Name,Code,Changes,lat,lon,terminal lat,terminal lon,linear distance,Journey time,fare,company,fare type,route code,cost per km,cost per min,speed (linear),minutes to travel 1km linear
Abbey Wood,ABW,2.0,51.4910605627019,0.121394025366647,53.40631168010053,-2.984510383414912,299.96748987770957,199.0,191.0,VIRGIN WEST COAST,ANYTIME S,0.0,0.6367356678480948,0.9597989949748744,1.5073743209935153,0.6634052246166013
Aber,ABE,2.0,51.5749691125956,-3.22982905106563,53.40631168010053,-2.984510383414912,204.46540388816564,278.0,82.7,TRANSPORT FOR WALES RAIL,ANYTIME DAY S,1000.0,0.4044694037590515,0.2974820143884892,0.7354870643459196,1.3596432194076942
Abercynon,ACY,2.0,51.6447124034837,-3.32698855170195,53.40631168010053,-2.984510383414912,197.39865488106676,285.0,82.7,TRANSPORT FOR WALES RAIL,ANYTIME DAY S,1000.0,0.4189491567195682,0.29017543859649125,0.6926268592318132,1.4437788351278953
Aberdare,ABA,2.0,51.7150618291708,-3.44308409477462,53.40631168010053,-2.984510383414912,190.74986763497256,323.0,82.7,TRANSPORT FOR WALES RAIL,ANYTIME DAY S,1000.0,0.4335520701815553,0.2560371517027864,0.5905568657429491,1.693317033478142
Aberdeen,ABD,1.0,57.1437058328662,-2.09868538622245,53.40631168010053,-2.984510383414912,419.86015409971964,430.0,159.0,VIRGIN WEST COAST,ANYTIME S,0.0,0.3786975221331349,0.3697674418604651,0.9764189630226038,1.0241505315550188
Aberdour,AUR,2.0,56.0545955695197,-3.30056061487314,53.40631168010053,-2.984510383414912,295.5043696578399,247.0,133.5,LONDON NORTH EASTERN RAILWAY,ANYTIME S,0.0,0.4517699692717832,0.5404858299595142,1.1963739662260724,0.8358590442706401
Aberdovey,AVY,1.0,52.5439615025967,-4.05706796158074,53.40631168010053,-2.984510383414912,120.00084745309746,250.0,53.9,TRANSPORT FOR WALES RAIL,ANYTIME DAY S,1000.0,0.4491634946250434,0.21559999999999999,0.4800033898123899,2.083318620709849
Abererch,ABH,1.0,52.8985884658899,-4.37417647351973,53.40631168010053,-2.984510383414912,108.79054649713301,361.0,58.9,TRANSPORT FOR WALES RAIL,ANYTIME DAY S,1000.0,0.5414073363585153,0.1631578947368421,0.3013588545626953,3.3183030292941265
Abergavenny,AGV,1.0,51.8166930409601,-3.00964730040687,53.40631168010053,-2.984510383414912,176.89924167714224,195.0,74.8,TRANSPORT FOR WALES RAIL,ANYTIME DAY S,1000.0,0.42283957404699923,0.38358974358974357,0.9071755983443192,1.102322418972792
Abergele & Pensarn,AGL,1.0,53.2945771647609,-3.58262268840784,53.40631168010053,-2.984510383414912,41.725632765512756,99.0,18.3,TRANSPORT FOR WALES RAIL,ANYTIME DAY S,1000.0,0.4385793285111159,0.18484848484848485,0.4214710380354824,2.372642268994561
Aberystwyth,AYW,1.0,52.4140498933205,-4.08189442746786,53.40631168010053,-2.984510383414912,132.82682914648365,252.0,55.8,TRANSPORT FOR WALES RAIL,ANYTIME DAY S,1000.0,0.4200958523105511,0.22142857142857142,0.5270905918511256,1.897207074950876
Accrington,ACR,1.0,53.7529733751372,-2.36954810226505,53.40631168010053,-2.984510383414912,56.1038524412083,98.0,17.9,NORTHERN,ANYTIME DAY S,0.0,0.3190511742265392,0.1826530612244898,0.5724882902164112,1.7467606186704383
Achanalt,AAT,3.0,57.6096018732679,-4.91385256332031,53.40631168010053,-2.984510383414912,483.52858811871954,646.0,187.0,LONDON NORTH EASTERN RAILWAY,ANYTIME S,0.0,0.38674031814244325,0.2894736842105263,0.7484962664376463,1.3360120081284403
Achnasheen,ACN,3.0,57.5792959197415,-5.07233352893289,53.40631168010053,-2.984510383414912,482.9072001729672,655.0,187.0,LONDON NORTH EASTERN RAILWAY,ANYTIME S,0.0,0.387237961937657,0.28549618320610687,0.7372629010274309,1.3563682624019537
Achnashellach,ACH,3.0,57.4820809030767,-5.33305678830677,53.40631168010053,-2.984510383414912,477.40914045050727,675.0,205.5,LONDON NORTH EASTERN RAILWAY,ANYTIME S,0.0,0.4304483986336748,0.30444444444444446,0.7072728006674182,1.4138816013514865
Acklington,ACK,1.0,55.3070993237817,-1.65183479633575,53.40631168010053,-2.984510383414912,228.62185012066956,263.0,88.3,TRANSPENNINE EXPRESS,ANYTIME DAY S,0.0,0.3862273004675367,0.33574144486692015,0.8692846012192759,1.1503712346881332
Acle,ACL,2.0,52.6346777628319,1.54391497575916,53.40631168010053,-2.984510383414912,315.7195787746336,397.0,115.8,VIRGIN WEST COAST,ANYTIME S,200.0,0.3667811811020442,0.2916876574307305,0.7952634226061299,1.2574449818437958
Acocks Green,ACG,1.0,52.4493240670217,-1.81897562150643,53.40631168010053,-2.984510383414912,132.22884311558823,139.0,39.8,WEST MIDLANDS TRAINS,ANYTIME S,287.0,0.300993331426251,0.28633093525179854,0.9512866411193398,1.0512078660364044
Acton Bridge (Cheshire),ACB,0.0,53.2665097605329,-2.60312690733168,53.40631168010053,-2.984510383414912,29.7912565645895,28.0,7.9,WEST MIDLANDS TRAINS,ANYTIME DAY S,254.0,0.2651784755326535,0.28214285714285714,1.0639734487353392,0.9398730778372529
Acton Central,ACC,2.0,51.5087150057177,-0.262970693276422,53.40631168010053,-2.984510383414912,280.69310340377433,205.0,162.5,VIRGIN WEST COAST,ANYTIME S,0.0,0.5789240919334071,0.7926829268292683,1.3692346507501187,0.7303350082852212
Acton Main Line,AML,2.0,51.5171788796431,-0.266756440210259,53.40631168010053,-2.984510383414912,279.8041713511775,186.0,162.5,VIRGIN WEST COAST,ANYTIME S,700.0,0.5807633217735306,0.8736559139784946,1.504323501888051,0.6647506329223182
Adderley Park,ADD,1.0,52.4830872932844,-1.85594463679675,53.40631168010053,-2.984510383414912,127.71234244082295,167.0,39.8,WEST MIDLANDS TRAINS,ANYTIME S,287.0,0.3116378514350859,0.23832335329341317,0.7647445655139099,1.3076261605442048
Addiewell,ADW,2.0,55.8434130805542,-3.60652712168835,53.40631168010053,-2.984510383414912,274.24535415266354,253.0,127.5,LONDON NORTH EASTERN RAILWAY,ANYTIME S,0.0,0.46491216011274655,0.5039525691699605,1.0839737318287097,0.9225315804590187
Addlestone,ASN,2.0,51.3730447500684,-0.48445679693337,53.40631168010053,-2.984510383414912,283.08592529981485,241.0,110.55,VIRGIN WEST COAST,ANYTIME S,200.0,0.3905174723290007,0.45871369294605807,1.1746303954349164,0.851331622173579
Adisham,ADM,2.0,51.2411978022143,1.19908904695378,53.40631168010053,-2.984510383414912,373.26303252628725,283.0,220.5,VIRGIN WEST COAST,ANYTIME S,0.0,0.5907362390205925,0.7791519434628975,1.318950644969213,0.7581784836409418
Adlington (Cheshire),ADC,1.0,53.3195557900317,-2.13356274381038,53.40631168010053,-2.984510383414912,57.46660443927689,97.0,25.7,TRANSPENNINE EXPRESS,ANYTIME DAY S,0.0,0.44721626152727295,0.2649484536082474,0.5924392210234731,1.687936862573754
Adlington (Lancs),ADL,1.0,53.6132468473224,-2.6030711963325,53.40631168010053,-2.984510383414912,34.21727126752619,116.0,13.8,NORTHERN,ANYTIME DAY S,0.0,0.4033050996996611,0.11896551724137931,0.29497647644419134,3.390100838055122
Adwick,AWK,1.0,53.5723210050351,-1.180356329611,53.40631168010053,-2.984510383414912,121.16554328496807,147.0,38.3,TRANSPENNINE EXPRESS,ANYTIME DAY S,79.0,0.3160964657247696,0.2605442176870748,0.8242553964963814,1.2132162000402384
Aigburth,AIG,0.0,53.3645680055959,-2.92715540113816,53.40631168010053,-2.984510383414912,6.012271220135944,20.0,3.3,MERSEYRAIL,ANYTIME DAY S,0.0,0.5488774340298944,0.16499999999999998,0.3006135610067972,3.326529903211482
Ainsdale,ANS,1.0,53.6020355257546,-3.04265252059266,53.40631168010053,-2.984510383414912,22.12221140688163,91.0,6.25,MERSEYRAIL,ANYTIME DAY S,1000.0,0.2825214841792802,0.06868131868131869,0.24310122425144648,4.113512809650319
Aintree,AIN,0.0,53.4739127558616,-2.95628079876913,53.40631168010053,-2.984510383414912,7.753974261202186,17.0,3.75,MERSEYRAIL,ANYTIME DAY S,1000.0,0.48362296206778943,0.22058823529411764,0.45611613301189324,2.192424094707312
Airbles,AIR,2.0,55.7828378389089,-3.99419330717581,53.40631168010053,-2.984510383414912,272.46886115123505,210.0,132.0,LONDON NORTH EASTERN RAILWAY,ANYTIME S,0.0,0.48445902934476176,0.6285714285714286,1.2974707673868335,0.7707302739575755
Airdrie,ADR,2.0,55.8639835131324,-3.98291292517007,53.40631168010053,-2.984510383414912,281.0657250131551,267.0,132.0,LONDON NORTH EASTERN RAILWAY,ANYTIME S,0.0,0.46964104212216495,0.4943820224719101,1.052680618026798,0.9499557442925609
Albany Park,AYP,2.0,51.4354507399114,0.12573706592842,53.40631168010053,-2.984510383414912,304.68910924217397,201.0,191.0,VIRGIN WEST COAST,ANYTIME S,0.0,0.6268684839935935,0.9502487562189055,1.5158662151351938,0.6596888234696979
Albrighton,ALB,1.0,52.6379442676754,-2.26890024505565,53.40631168010053,-2.984510383414912,98.06852715974453,117.0,36.8,WEST MIDLANDS TRAINS,ANYTIME S,287.0,0.3752478095246216,0.3145299145299145,0.8381925398268764,1.193043307455998
Alderley Edge,ALD,1.0,53.3037821045932,-2.23679936267512,53.40631168010053,-2.984510383414912,51.07712495356428,105.0,15.7,EAST MIDLANDS TRAINS,ANYTIME DAY S,312.0,0.30737830318901727,0.1495238095238095,0.48644880908156457,2.0557147665507522
Aldermaston,AMT,2.0,51.4019618556841,-1.1374239270022,53.40631168010053,-2.984510383414912,256.00040826040464,240.0,105.8,CROSSCOUNTRY,ANYTIME S,267.0,0.41328059091366687,0.4408333333333333,1.066668367751686,0.937498504908129
Aldershot,AHT,2.0,51.2464179114788,-0.759859888333875,53.40631168010053,-2.984510383414912,284.1630599988668,258.0,115.4,VIRGIN WEST COAST,ANYTIME S,200.0,0.40610486106272997,0.4472868217054264,1.1014072092979332,0.90792941208132
Aldrington,AGT,3.0,50.8363824121951,-0.183821512855377,53.40631168010053,-2.984510383414912,344.2757898681192,272.0,213.5,VIRGIN WEST COAST,ANYTIME S,0.0,0.6201423576191194,0.7849264705882353,1.2657198156916147,0.7900642682548032
Alexandra Palace,AAP,2.0,51.5979224924556,-0.120235220128854,53.40631168010053,-2.984510383414912,279.824990605961,187.0,167.0,VIRGIN WEST COAST,ANYTIME S,0.0,0.5968015924466272,0.893048128342246,1.496390324096048,0.6682748370510136
Alexandra Parade,AXP,3.0,55.8631759802332,-4.21064896878422,53.40631168010053,-2.984510383414912,284.70855384513493,253.0,132.0,LONDON NORTH EASTERN RAILWAY,ANYTIME S,0.0,0.46363201321938646,0.5217391304347826,1.1253302523523119,0.8886280253371573
Alexandria,ALX,3.0,55.9850887680667,-4.57748537031666,53.40631168010053,-2.984510383414912,304.86449672546195,300.0,78.9,VIRGIN WEST COAST,ANYTIME S,317.0,0.2588035040073932,0.263,1.016214989084873,0.9840437414729779
Alfreton,ALF,0.0,53.1004322999438,-1.36969621564025,53.40631168010053,-2.984510383414912,113.02365753998185,147.0,45.3,EAST MIDLANDS TRAINS,ANYTIME S,312.0,0.40080104454215904,0.3081632653061224,0.7688684186393323,1.3006126610970725
Allens West,ALW,1.0,54.5246233650745,-1.36111683481751,53.40631168010053,-2.984510383414912,163.83559711810042,186.0,64.4,TRANSPENNINE EXPRESS,ANYTIME DAY S,95.0,0.3930769694303824,0.34623655913978496,0.8808365436457012,1.1352844148144583
Alloa,ALO,2.0,56.1177936041036,-3.79005640302655,53.40631168010053,-2.984510383414912,306.25568830843633,280.0,133.5,LONDON NORTH EASTERN RAILWAY,ANYTIME S,0.0,0.43591027071977007,0.4767857142857143,1.0937703153872727,0.9142687325957725
Alness,ASS,2.0,57.6943991747966,-4.24971726526612,53.40631168010053,-2.984510383414912,484.0169785730914,546.0,187.0,LONDON NORTH EASTERN RAILWAY,ANYTIME S,0.0,0.3863500833199824,0.3424908424908425,0.8864779827345997,1.1280596015652962
Alnmouth,ALM,1.0,55.3927786386397,-1.63663783937358,53.40631168010053,-2.984510383414912,237.8044604932705,240.0,88.3,TRANSPENNINE EXPRESS,ANYTIME DAY S,0.0,0.3713134724926606,0.36791666666666667,0.9908519187219604,1.009232541316405
Alresford (Essex),ALR,2.0,51.8539974379073,0.997436403040026,53.40631168010053,-2.984510383414912,320.1343787148689,259.0,88.2,VIRGIN WEST COAST,ANYTIME S,200.0,0.2755093044179309,0.34054054054054056,1.236040072258181,0.8090352590050353
Alsager,ASG,1.0,53.0930054110113,-2.29905784069112,53.40631168010053,-2.984510383414912,57.524955787887386,64.0,15.1,WEST MIDLANDS TRAINS,ANYTIME DAY S,0.0,0.2624947693254811,0.2359375,0.8988274341857404,1.1125606117106486
Althorne (Essex),ALN,2.0,51.6478675266105,0.75248341471277,53.40631168010053,-2.984510383414912,320.2633905856788,233.0,205.5,VIRGIN WEST COAST,ANYTIME S,0.0,0.6416593530225035,0.8819742489270386,1.3745209896381063,0.7275261764196755
Althorpe,ALP,2.0,53.5855003548442,-0.733182290833722,53.40631168010053,-2.984510383414912,150.72893350162363,189.0,45.0,TRANSPENNINE EXPRESS,ANYTIME DAY S,0.0,0.2985491833226251,0.23809523809523808,0.7975075846646753,1.2539065699550254
Altnabreac,ABC,3.0,58.3881525009701,-3.7062809681672,53.40631168010053,-2.984510383414912,556.5026929111859,679.0,205.5,LONDON NORTH EASTERN RAILWAY,ANYTIME S,0.0,0.3692704502919565,0.3026509572901325,0.819591594861835,1.2201198819865617
Alton,AON,2.0,51.1519686627366,-0.966913302570746,53.40631168010053,-2.984510383414912,286.128736983194,264.0,122.4,CROSSCOUNTRY,ANYTIME S,267.0,0.42777947189271404,0.4636363636363637,1.0838209734211894,0.9226616060431087
Altrincham,ALT,1.0,53.3877187203289,-2.34688910433965,53.40631168010053,-2.984510383414912,42.4647152373567,125.0,15.2,EAST MIDLANDS TRAINS,ANYTIME DAY S,0.0,0.3579442347614846,0.1216,0.3397177218988536,2.943620351656946
Alvechurch,ALV,1.0,52.3460721156993,-1.96766073187852,53.40631168010053,-2.984510383414912,136.40905066105142,161.0,41.3,WEST MIDLANDS TRAINS,ANYTIME S,287.0,0.3027658340840011,0.25652173913043474,0.8472611842301331,1.1802735904969535
Ambergate,AMB,2.0,53.0605170840145,-1.48069758186533,53.40631168010053,-2.984510383414912,107.5355745103802,178.0,51.2,EAST MIDLANDS TRAINS,ANYTIME S,0.0,0.47612150893430866,0.2876404494382023,0.6041324410695517,1.6552661834044324
Amberley,AMY,2.0,50.8966791881016,-0.541992407726222,53.40631168010053,-2.984510383414912,325.42123972743826,305.0,209.0,VIRGIN WEST COAST,ANYTIME S,0.0,0.6422444957036341,0.6852459016393443,1.0669548843522565,0.9372467521033895
Amersham,AMR,2.0,51.6742050968552,-0.607596139216709,53.40631168010053,-2.984510383414912,251.2843164030141,242.0,72.55,CROSSCOUNTRY,ANYTIME S,267.0,0.28871678518783106,0.29979338842975206,1.0383649438141078,0.9630525432867695
Ammanford,AMF,1.0,51.7959795450084,-3.99673575596767,53.40631168010053,-2.984510383414912,191.866350244436,302.0,88.2,TRANSPORT FOR WALES RAIL,ANYTIME DAY S,1000.0,0.4596949902243619,0.29205298013245035,0.6353190405444901,1.5740123248045044
Ancaster,ANC,1.0,52.9876865844111,-0.535623734022494,53.40631168010053,-2.984510383414912,170.1541508003261,254.0,69.0,EAST MIDLANDS TRAINS,ANYTIME S,0.0,0.4055146446645941,0.27165354330708663,0.6698982314973468,1.4927640542725638
Anderston,AND,2.0,55.8599021238713,-4.27098003165416,53.40631168010053,-2.984510383414912,285.4674692907338,217.0,132.0,LONDON NORTH EASTERN RAILWAY,ANYTIME S,0.0,0.4623994472223553,0.6082949308755761,1.3155182916623678,0.7601566670246296
Andover,ADV,2.0,51.2115476149434,-1.49223307188506,53.40631168010053,-2.984510383414912,264.56323354885603,278.0,124.7,CROSSCOUNTRY,ANYTIME S,267.0,0.47134289344468594,0.4485611510791367,0.951666307729698,1.0507884873907192
Anerley,ANZ,2.0,51.4121513855632,-0.0658859220340606,53.40631168010053,-2.984510383414912,297.7534595206661,232.0,191.0,VIRGIN WEST COAST,ANYTIME S,0.0,0.6414702966255319,0.8232758620689655,1.2834200841408023,0.7791681089901749
Angel Road,AGR,2.0,51.61240330726,-0.0487914234374522,53.40631168010053,-2.984510383414912,282.05106378219756,195.0,167.0,VIRGIN WEST COAST,ANYTIME S,0.0,0.5920913672885806,0.8564102564102564,1.4464157117035772,0.6913641713848695
Angmering,ANG,2.0,50.8165743892467,-0.489394019247872,53.40631168010053,-2.984510383414912,334.9942980709886,285.0,220.5,VIRGIN WEST COAST,ANYTIME S,0.0,0.6582201585809496,0.7736842105263158,1.175418589722767,0.8507607491862614
Annan,ANN,2.0,54.9838388790739,-3.2625810423293,53.40631168010053,-2.984510383414912,176.5274345298357,172.0,54.6,VIRGIN WEST COAST,ANYTIME S,317.0,0.3093003653818569,0.3174418604651163,1.0263222937781145,0.9743527993714173
Anniesland,ANL,2.0,55.8893555064876,-4.32195784208586,53.40631168010053,-2.984510383414912,289.5606376228082,228.0,76.3,VIRGIN WEST COAST,ANYTIME S,317.0,0.2635026660612312,0.33464912280701753,1.2700027965912641,0.7873998409169162
Ansdell & Fairhaven,AFV,1.0,53.7414654744213,-2.99303444657805,53.40631168010053,-2.984510383414912,37.30589999301994,113.0,19.2,NORTHERN,ANYTIME DAY S,317.0,0.5146639004444976,0.16991150442477876,0.33014070790283134,3.0290114974077205
Apperley Bridge,APY,1.0,53.8417501065548,-1.70582867126391,53.40631168010053,-2.984510383414912,97.49957196398044,111.0,41.7,TRANSPENNINE EXPRESS,ANYTIME DAY S,0.0,0.42769418531811976,0.3756756756756757,0.878374522198022,1.1384665364583042
Appleby,APP,1.0,54.5803488158896,-2.48669258391647,53.40631168010053,-2.984510383414912,134.69223500605034,239.0,51.6,NORTHERN,ANYTIME DAY S,0.0,0.38309558080821915,0.21589958158995817,0.563565836845399,1.7744155777745034
Appledore (Kent),APD,3.0,51.0332342031393,0.816341504124954,53.40631168010053,-2.984510383414912,370.3034630405326,236.0,220.5,VIRGIN WEST COAST,ANYTIME S,0.0,0.5954575692851799,0.934322033898305,1.5690824705107314,0.6373151308449091
Appleford,APF,2.0,51.6396415502262,-1.24214153179695,53.40631168010053,-2.984510383414912,229.40440235225512,217.0,80.95,VIRGIN WEST COAST,ANYTIME S,200.0,0.35287029878223364,0.37304147465437787,1.0571631444804384,0.9459277929060493
Appley Bridge,APB,2.0,53.5786734960166,-2.71925251339081,53.40631168010053,-2.984510383414912,26.0372511135406,66.0,10.4,NORTHERN,ANYTIME DAY S,327.0,0.3994277258627932,0.1575757575757576,0.39450380475061514,2.534829798744649
Apsley,APS,1.0,51.7325208234117,-0.462934812195194,53.40631168010053,-2.984510383414912,252.79786488152723,190.0,62.0,VIRGIN WEST COAST,ANYTIME S,700.0,0.24525523595326276,0.3263157894736842,1.3305150783238275,0.7515886263083859
Arbroath,ARB,1.0,56.5595762979872,-2.58893177406225,53.40631168010053,-2.984510383414912,351.9419960484515,373.0,151.0,LONDON NORTH EASTERN RAILWAY,ANYTIME S,0.0,0.4290479729483946,0.40482573726541554,0.943544225330969,1.0598337345016635
Ardgay,ARD,2.0,57.8814576101148,-4.36209023833324,53.40631168010053,-2.984510383414912,505.7066021168829,587.0,205.5,LONDON NORTH EASTERN RAILWAY,ANYTIME S,0.0,0.406362106288071,0.35008517887563884,0.861510395429102,1.1607520992267526
Ardlui,AUI,3.0,56.3019723653141,-4.72165858161935,53.40631168010053,-2.984510383414912,341.0809871028314,378.0,93.3,VIRGIN WEST COAST,ANYTIME S,317.0,0.27354207219961896,0.2468253968253968,0.9023306537111941,1.108241192834469
Ardrossan Harbour,ADS,2.0,55.6398782290401,-4.82111163323781,53.40631168010053,-2.984510383414912,275.5819373526988,273.0,80.4,VIRGIN WEST COAST,ANYTIME S,317.0,0.29174626164668205,0.2945054945054945,1.0094576459805817,0.9906309630540323
Ardrossan South Beach,ASB,2.0,55.641422142645,-4.80121264089138,53.40631168010053,-2.984510383414912,275.18334829309777,271.0,80.4,VIRGIN WEST COAST,ANYTIME S,317.0,0.2921688412424068,0.29667896678966793,1.0154367095686265,0.9847979599091072
Ardrossan Town,ADN,2.0,55.6397124556587,-4.81267645169651,53.40631168010053,-2.984510383414912,275.3303570120508,271.0,80.4,VIRGIN WEST COAST,ANYTIME S,317.0,0.29201284185485227,0.29667896678966793,1.0159791771662392,0.9842721410779224
Ardwick,ADK,1.0,53.471345820655,-2.21388417456067,53.40631168010053,-2.984510383414912,51.72029523259503,79.0,15.0,TRANSPENNINE EXPRESS,ANYTIME DAY S,0.0,0.2900215463299741,0.189873417721519,0.6546872814252536,1.5274468106711971
Argyle Street,AGS,2.0,55.8573090626122,-4.25069486323156,53.40631168010053,-2.984510383414912,284.8136212251204,228.0,132.0,LONDON NORTH EASTERN RAILWAY,ANYTIME S,0.0,0.4634609799636846,0.5789473684210527,1.2491825492329842,0.8005235108463644
Arisaig,ARG,3.0,56.9125537431151,-5.83907949880085,53.40631168010053,-2.984510383414912,430.569431911442,540.0,119.7,VIRGIN WEST COAST,ANYTIME S,317.0,0.2780039434490544,0.22166666666666668,0.7973507998360037,1.2541531283415988
Arlesey,ARL,2.0,52.0260300130868,-0.266319838272065,53.40631168010053,-2.984510383414912,239.41426981075168,228.0,186.0,VIRGIN WEST COAST,ANYTIME S,0.0,0.7768960477879046,0.8157894736842105,1.0500625868892617,0.9523241876109797
Armadale (West Lothian),ARM,2.0,55.8857140292087,-3.69541334262219,53.40631168010053,-2.984510383414912,279.7849105103057,335.0,132.0,LONDON NORTH EASTERN RAILWAY,ANYTIME S,0.0,0.4717909902976625,0.3940298507462687,0.8351788373441961,1.1973483465887647
Armathwaite,AWT,1.0,54.8094679848183,-2.77207147292765,53.40631168010053,-2.984510383414912,156.79776784694533,268.0,49.0,VIRGIN WEST COAST,ANYTIME S,307.0,0.3125044487102027,0.1828358208955224,0.5850662979363632,1.7092080051904965
Arnside,ARN,1.0,54.2027315043991,-2.82824189170434,53.40631168010053,-2.984510383414912,89.23841337331656,104.0,25.4,NORTHERN,ANYTIME DAY S,317.0,0.2846307889153364,0.24423076923076922,0.8580616670511207,1.1654174034328735
Arram,ARR,1.0,53.8843427696163,-0.426570132093475,53.40631168010053,-2.984510383414912,177.31923954062555,275.0,67.8,TRANSPENNINE EXPRESS,ANYTIME DAY S,0.0,0.3823612157126715,0.24654545454545454,0.6447972346931838,1.55087513747765
Arrochar & Tarbet,ART,3.0,56.2039766194239,-4.72277124702392,53.40631168010053,-2.984510383414912,330.85969854990327,359.0,93.3,VIRGIN WEST COAST,ANYTIME S,317.0,0.2819926404119831,0.2598885793871866,0.9216147591919311,1.0850520676088096
Arundel,ARU,2.0,50.84821399905,-0.546174298416944,53.40631168010053,-2.984510383414912,329.95894896712804,262.0,220.5,VIRGIN WEST COAST,ANYTIME S,0.0,0.6682649483829189,0.8416030534351145,1.2593853014012522,0.7940381699606565
Ascot (Berks),ACT,2.0,51.406243053303,-0.675833255037063,53.40631168010053,-2.984510383414912,272.39685345359567,273.0,198.0,VIRGIN WEST COAST,ANYTIME S,0.0,0.7268806430384498,0.7252747252747253,0.9977906719911929,1.0022142199469535
Ascott-under-Wychwood,AUW,2.0,51.8673416456497,-1.56405280921503,53.40631168010053,-2.984510383414912,196.39824190608596,258.0,75.65,CROSSCOUNTRY,ANYTIME S,0.0,0.385186747426051,0.2932170542635659,0.7612334957600231,1.31365738051449
Ash,ASH,2.0,51.2495967734882,-0.712805474371656,53.40631168010053,-2.984510383414912,285.5865391276166,285.0,115.4,VIRGIN WEST COAST,ANYTIME S,200.0,0.4040806697420448,0.4049122807017544,1.002058032026725,0.9979461947702146
Ash Vale,AHV,2.0,51.2722464128127,-0.72164859629209,53.40631168010053,-2.984510383414912,283.1228601109743,239.0,115.4,VIRGIN WEST COAST,ANYTIME S,200.0,0.407596899645501,0.48284518828451883,1.1846144774517753,0.8441564906003011
Ashburys,ABY,1.0,53.471639721401,-2.19443661452133,53.40631168010053,-2.984510383414912,53.00454228165226,90.0,15.0,TRANSPENNINE EXPRESS,ANYTIME DAY S,0.0,0.2829946143161453,0.16666666666666666,0.5889393586850251,1.697967685896872
Ashchurch for Tewkesbury,ASC,1.0,51.9989057939667,-2.10876020926952,53.40631168010053,-2.984510383414912,167.4283199932036,191.0,71.45,CROSSCOUNTRY,ANYTIME S,0.0,0.4267497876279256,0.37408376963350787,0.8765880627916418,1.1407866961082407
Ashfield,ASF,3.0,55.8889269328418,-4.24921509407071,53.40631168010053,-2.984510383414912,288.1513082138085,241.0,76.3,VIRGIN WEST COAST,ANYTIME S,317.0,0.2647914405558948,0.31659751037344397,1.195648581800035,0.836366149069078
Ashford (Surrey),AFS,2.0,51.4365062586203,-0.468070995385795,53.40631168010053,-2.984510383414912,278.08691328433343,207.0,105.8,VIRGIN WEST COAST,ANYTIME S,200.0,0.3804565944885852,0.5111111111111111,1.3434150400209344,0.7443715979124493
Ashford International,AFK,2.0,51.1437026741936,0.876197214386404,53.40631168010053,-2.984510383414912,364.3585245778167,205.0,213.5,VIRGIN WEST COAST,ANYTIME S,0.0,0.5859613144700898,1.0414634146341464,1.7773586564771546,0.5626326438705781
Ashford International (Eurostar),ASI,-999.0,nan,nan,53.40631168010053,-2.984510383414912,-999.0,-999.0,-999.0,N/A,no route found,-998.0,-999.0,-999.0,-999.0,-999.0
Ashley,ASY,1.0,53.3557258053839,-2.34146074338483,53.40631168010053,-2.984510383414912,43.16014861608438,119.0,15.2,EAST MIDLANDS TRAINS,ANYTIME DAY S,0.0,0.352176729862683,0.12773109243697478,0.36269032450491073,2.757173082477584
Ashtead,AHD,2.0,51.317872587997,-0.307571763628547,53.40631168010053,-2.984510383414912,295.353745684651,235.0,194.5,VIRGIN WEST COAST,ANYTIME S,0.0,0.6585323627744594,0.8276595744680851,1.2568244497219192,0.7956560681336655
Ashton-under-Lyne,AHN,1.0,53.4912746360398,-2.09431253377749,53.40631168010053,-2.984510383414912,59.89456564183095,58.0,20.4,TRANSPENNINE EXPRESS,ANYTIME DAY S,0.0,0.3405985130936894,0.35172413793103446,1.0326649248591544,0.9683683215408817
Ashurst (Kent),AHS,2.0,51.1286608253579,0.152652111896866,53.40631168010053,-2.984510383414912,331.7467120027455,264.0,196.5,VIRGIN WEST COAST,ANYTIME S,200.0,0.5923193595913433,0.7443181818181818,1.2566163333437328,0.7957878418937131
Ashurst New Forest,ANF,2.0,50.8898511647037,-1.52663085660955,53.40631168010053,-2.984510383414912,297.2418160334274,313.0,128.8,CROSSCOUNTRY,ANYTIME S,700.0,0.43331722877616696,0.4115015974440895,0.9496543643240493,1.0530146941532628
Ashwell & Morden,AWM,2.0,52.0307706434447,-0.109788918120069,53.40631168010053,-2.984510383414912,247.28346553057563,241.0,115.5,LONDON NORTH EASTERN RAILWAY,ANYTIME S,700.0,0.4670753046596999,0.47925311203319504,1.0260724710812266,0.9745900296362568
Askam,ASK,2.0,54.1889331625586,-3.20451175494515,53.40631168010053,-2.984510383414912,88.30465969961769,186.0,33.4,NORTHERN,ANYTIME DAY S,317.0,0.37823598566163324,0.17956989247311828,0.4747562349441811,2.1063441117683768
Aslockton,ALK,1.0,52.9515495737311,-0.898097621841918,53.40631168010053,-2.984510383414912,148.38651950114664,214.0,69.0,EAST MIDLANDS TRAINS,ANYTIME S,0.0,0.4650018090050748,0.32242990654205606,0.6933949509399375,1.4421795235809567
Aspatria,ASP,2.0,54.7589599137074,-3.33187421074512,53.40631168010053,-2.984510383414912,152.2646872759771,179.0,55.4,NORTHERN,ANYTIME DAY S,0.0,0.36384010627223407,0.3094972067039106,0.8506407110389783,1.1755844588940416
Aspley Guise,APG,2.0,52.0212361960308,-0.632334507265971,53.40631168010053,-2.984510383414912,221.39446792941115,163.0,114.5,VIRGIN WEST COAST,ANYTIME S,0.0,0.5171764275361519,0.7024539877300614,1.35824826950559,0.7362424252261376
Aston,AST,0.0,52.5042320347358,-1.8719337575538,53.40631168010053,-2.984510383414912,125.1714834952828,112.0,39.8,WEST MIDLANDS TRAINS,ANYTIME S,287.0,0.31796379565558075,0.3553571428571428,1.117602531207882,0.8947724902870614
Atherstone,ATH,1.0,52.5789720633612,-1.55281147568713,53.40631168010053,-2.984510383414912,133.10928634345876,107.0,51.0,VIRGIN WEST COAST,ANYTIME S,0.0,0.3831438166410561,0.4766355140186916,1.2440120219014839,0.8038507525606472
Atherton,ATN,1.0,53.5291462480773,-2.47897234425216,53.40631168010053,-2.984510383414912,36.249108268042974,62.0,8.7,NORTHERN,ANYTIME DAY S,0.0,0.24000590402577915,0.1403225806451613,0.5846630365813383,1.7103869022526792
Attadale,ATT,3.0,57.3950433711996,-5.4555786528295,53.40631168010053,-2.984510383414912,470.77696662194904,691.0,205.5,VIRGIN WEST COAST,ANYTIME S,0.0,0.43651243491065683,0.29739507959479017,0.6812980703646151,1.4677863383127197
Attenborough,ATB,1.0,52.9062133028873,-1.23141560765685,53.40631168010053,-2.984510383414912,129.80426427169667,197.0,55.8,EAST MIDLANDS TRAINS,ANYTIME S,0.0,0.4298780191319722,0.283248730964467,0.6589048947801861,1.5176697091218374
Attleborough,ATL,0.0,52.5145445883409,1.02234755537498,53.40631168010053,-2.984510383414912,286.9130323426217,331.0,97.1,EAST MIDLANDS TRAINS,ANYTIME S,700.0,0.338430078296501,0.29335347432024167,0.8668067442375278,1.1536596901765381
Auchinleck,AUK,2.0,55.4702784722357,-4.29535018687193,53.40631168010053,-2.984510383414912,244.97356909525584,242.0,71.2,VIRGIN WEST COAST,ANYTIME S,93.0,0.29064359989103355,0.29421487603305785,1.0122874756002307,0.9878616737869399
Audley End,AUD,1.0,52.0044405435161,0.207160027997398,53.40631168010053,-2.984510383414912,266.1884536675422,296.0,188.5,VIRGIN WEST COAST,ANYTIME S,0.0,0.7081449153892614,0.6368243243243243,0.8992853164443994,1.111994137693482
Aughton Park,AUG,0.0,53.5542504500956,-2.89522128047861,53.40631168010053,-2.984510383414912,17.49949406374371,31.0,6.05,MERSEYRAIL,ANYTIME DAY S,1000.0,0.34572428082561996,0.19516129032258064,0.5644998085078616,1.771479786048631
Aviemore,AVM,2.0,57.1885162452285,-3.82886797624022,53.40631168010053,-2.984510383414912,424.4615595410949,416.0,159.0,LONDON NORTH EASTERN RAILWAY,ANYTIME S,0.0,0.3745922249635568,0.38221153846153844,1.0203402873584013,0.980065192357482
Avoncliff,AVF,2.0,51.3396528744674,-2.28132558221387,53.40631168010053,-2.984510383414912,234.89673978812604,249.0,98.8,CROSSCOUNTRY,ANYTIME S,700.0,0.42061035027185295,0.3967871485943775,0.9433604007555263,1.0600402552397914
Avonmouth,AVN,2.0,51.5003648679963,-2.69946651797304,53.40631168010053,-2.984510383414912,212.96891670425984,253.0,92.8,CROSSCOUNTRY,ANYTIME S,0.0,0.4357443397661035,0.366798418972332,0.8417743743251377,1.1879667883709504
Axminster,AXM,2.0,50.7792744117621,-3.00472359764506,53.40631168010053,-2.984510383414912,292.311270587702,378.0,150.8,CROSSCOUNTRY,ANYTIME S,700.0,0.5158884216021208,0.398941798941799,0.7733102396500052,1.2931420647586316
Aylesbury,AYS,2.0,51.8138902206829,-0.815095998270687,53.40631168010053,-2.984510383414912,230.18925823401773,233.0,64.4,CROSSCOUNTRY,ANYTIME S,267.0,0.2797697881042256,0.27639484978540774,0.9879367306181018,1.0122105687621825
Aylesbury Vale Parkway,AVP,2.0,51.8311587338339,-0.860182437861177,53.40631168010053,-2.984510383414912,226.746596199719,280.0,64.4,CROSSCOUNTRY,ANYTIME S,267.0,0.28401749388677183,0.23,0.8098092721418535,1.2348586690729209
Aylesford,AYL,3.0,51.3013153585378,0.466170568242092,53.40631168010053,-2.984510383414912,331.8047562214292,258.0,205.5,VIRGIN WEST COAST,ANYTIME S,0.0,0.619340127429819,0.7965116279069767,1.286064946594687,0.7775657074301378
Aylesham,AYH,2.0,51.2272505439136,1.2094526827124,53.40631168010053,-2.984510383414912,374.8378390666947,311.0,220.5,VIRGIN WEST COAST,ANYTIME S,0.0,0.5882543783440352,0.7090032154340836,1.205266363558504,0.8296921163945349
Ayr,AYR,2.0,55.4581477383334,-4.62587677242484,53.40631168010053,-2.984510383414912,251.99505290934277,269.0,71.2,VIRGIN WEST COAST,ANYTIME S,93.0,0.2825452292732698,0.26468401486988846,0.9367845833061069,1.0674812735183927
Bache,BAC,0.0,53.2087886904783,-2.89167051075084,53.40631168010053,-2.984510383414912,22.837243514060233,42.0,7.5,TRANSPORT FOR WALES RAIL,ANYTIME DAY S,0.0,0.3284109133128289,0.17857142857142858,0.5437438931919103,1.8391011145518419
Baglan,BAJ,1.0,51.615545271975,-3.81113654529303,53.40631168010053,-2.984510383414912,207.01960697430837,250.0,84.0,TRANSPORT FOR WALES RAIL,ANYTIME DAY S,1000.0,0.4057586681169992,0.336,0.8280784278972335,1.2076150836815451
Bagshot,BAG,2.0,51.3643669407293,-0.688661997063008,53.40631168010053,-2.984510383414912,275.761934231265,239.0,115.4,VIRGIN WEST COAST,ANYTIME S,200.0,0.4184769022660718,0.48284518828451883,1.1538156243985984,0.8666895982806859
Baildon,BLD,2.0,53.8502255005868,-1.75363638811678,53.40631168010053,-2.984510383414912,95.24684345986022,142.0,41.7,TRANSPENNINE EXPRESS,ANYTIME DAY S,0.0,0.43780978440060947,0.2936619718309859,0.67075241873141,1.4908630547934423
Baillieston,BIO,2.0,55.844505909339,-4.11369931815988,53.40631168010053,-2.984510383414912,281.0296798221923,271.0,132.0,LONDON NORTH EASTERN RAILWAY,ANYTIME S,0.0,0.46970127882406054,0.4870848708487085,1.0370098886427759,0.9643109587978819
Balcombe,BAB,2.0,51.0555201604538,-0.136933757536862,53.40631168010053,-2.984510383414912,325.94227838612005,226.0,205.5,VIRGIN WEST COAST,ANYTIME S,0.0,0.6304797310048841,0.9092920353982301,1.4422224707350444,0.6933743027109673
Baldock,BDK,2.0,51.9928698318742,-0.187563753520231,53.40631168010053,-2.984510383414912,245.917186685798,221.0,186.0,VIRGIN WEST COAST,ANYTIME S,0.0,0.756352178986365,0.8416289592760181,1.1127474510669593,0.8986765137418637
Balham,BAL,1.0,51.4432234163815,-0.152424495700288,53.40631168010053,-2.984510383414912,291.21630416647344,245.0,191.0,VIRGIN WEST COAST,ANYTIME S,0.0,0.655869871526201,0.7795918367346939,1.1886379761896875,0.8412990498634515
Balloch,BHC,3.0,56.0029392993731,-4.58348654319574,53.40631168010053,-2.984510383414912,306.8584191461746,282.0,78.9,VIRGIN WEST COAST,ANYTIME S,317.0,0.25712183559941804,0.27978723404255323,1.0881504225041652,0.9189905911157905
Balmossie,BSI,2.0,56.4745685552318,-2.83895622541232,53.40631168010053,-2.984510383414912,341.69268900287864,517.0,146.0,LONDON NORTH EASTERN RAILWAY,ANYTIME S,0.0,0.42728452992674365,0.28239845261121854,0.6609142920752005,1.5130554929597702
Bamber Bridge,BMB,1.0,53.7268691714662,-2.6607753764786,53.40631168010053,-2.984510383414912,41.62819369994517,76.0,13.8,NORTHERN,ANYTIME DAY S,0.0,0.3315060965524953,0.18157894736842106,0.5477393907887522,1.8256857491296843
Bamford,BAM,1.0,53.3390008432273,-1.68908191470249,53.40631168010053,-2.984510383414912,86.54439458907413,149.0,25.1,TRANSPENNINE EXPRESS,ANYTIME DAY S,0.0,0.2900245604487569,0.1684563758389262,0.5808348630139203,1.7216597413093537
Banavie,BNV,3.0,56.8433146084024,-5.09542698683765,53.40631168010053,-2.984510383414912,405.5833960609466,482.0,111.4,VIRGIN WEST COAST,ANYTIME S,317.0,0.27466607627906947,0.23112033195020748,0.8414593279272751,1.1884115688196721
Banbury,BAN,1.0,52.0603086671337,-1.32813289497966,53.40631168010053,-2.984510383414912,186.95038770019616,176.0,64.4,CROSSCOUNTRY,ANYTIME S,287.0,0.3444764185419896,0.36590909090909096,1.0622181119329328,0.9414262370091642
Bangor (Gwynedd),BNG,1.0,53.2222875881889,-4.1358808597691,53.40631168010053,-2.984510383414912,79.42230764080377,125.0,30.7,TRANSPORT FOR WALES RAIL,ANYTIME DAY S,39.0,0.3865412742581614,0.24559999999999998,0.6353784611264301,1.573865123200983
Bank Hall,BAH,0.0,53.4374965462522,-2.98751189569183,53.40631168010053,-2.984510383414912,3.476426154808401,15.0,3.2,MERSEYRAIL,ANYTIME DAY S,1000.0,0.9204855381650885,0.21333333333333335,0.23176174365389338,4.314775960148852
Banstead,BAD,2.0,51.3293474848423,-0.213158931277083,53.40631168010053,-2.984510383414912,298.3589903469114,236.0,191.0,VIRGIN WEST COAST,ANYTIME S,0.0,0.6401684084596153,0.809322033898305,1.2642330099445398,0.7909934261595246
Barassie,BSS,2.0,55.5610644543682,-4.65113966824502,53.40631168010053,-2.984510383414912,263.0364433118544,290.0,80.4,VIRGIN WEST COAST,ANYTIME S,317.0,0.3056610672943074,0.27724137931034487,0.9070222183167392,1.1025088248177755
Barbican,ZBB,1.0,nan,nan,53.40631168010053,-2.984510383414912,-999.0,167.0,165.5,VIRGIN WEST COAST,ANYTIME S,0.0,-999.0,0.9910179640718563,-999.0,-999.0
Bardon Mill,BLL,1.0,54.9744957852522,-2.34650475516335,53.40631168010053,-2.984510383414912,179.44966538846154,266.0,84.2,TRANSPENNINE EXPRESS,ANYTIME DAY S,0.0,0.4692123544378255,0.3165413533834587,0.6746228022122615,1.4823098133071446
Bare Lane,BAR,2.0,54.0745443408907,-2.83533086719705,53.40631168010053,-2.984510383414912,75.02289573937395,104.0,19.9,NORTHERN,ANYTIME DAY S,317.0,0.26525235801523406,0.19134615384615383,0.7213739974939803,1.3862434790745903
Bargeddie,BGI,2.0,55.8512961462984,-4.07380825280165,53.40631168010053,-2.984510383414912,281.1031790975105,275.0,132.0,LONDON NORTH EASTERN RAILWAY,ANYTIME S,0.0,0.4695784673221755,0.48,1.022193378536402,0.9782884735878657
Bargoed,BGD,2.0,51.6923127611933,-3.22968013064506,53.40631168010053,-2.984510383414912,191.45330468893687,298.0,82.7,TRANSPORT FOR WALES RAIL,ANYTIME DAY S,1000.0,0.43195911470092696,0.27751677852348994,0.642460753989721,1.556515310530547
Barking,BKG,2.0,51.5394928787692,0.0809024258638578,53.40631168010053,-2.984510383414912,294.1295798793026,214.0,167.0,VIRGIN WEST COAST,ANYTIME S,0.0,0.5677769643860002,0.780373831775701,1.3744372891556196,0.7275704813090064
Barlaston,BRT,3.0,nan,nan,53.40631168010053,-2.984510383414912,-999.0,140.0,22.4,WEST MIDLANDS TRAINS,ANYTIME S,0.0,-999.0,0.16,-999.0,-999.0
Barming,BMG,2.0,51.2848926922128,0.478958086821072,53.40631168010053,-2.984510383414912,333.74201030597675,289.0,205.5,VIRGIN WEST COAST,ANYTIME S,0.0,0.6157450774974248,0.7110726643598616,1.154816644657359,0.8659383328309284
Barmouth,BRM,1.0,52.7228954666472,-4.05659664341287,53.40631168010053,-2.984510383414912,104.63839861460838,287.0,55.8,TRANSPORT FOR WALES RAIL,ANYTIME DAY S,1000.0,0.5332650416938802,0.19442508710801393,0.364593723395848,2.7427789778878786
Barnehurst,BNH,2.0,51.4649571594916,0.159646215915891,53.40631168010053,-2.984510383414912,303.903453590483,229.0,191.0,VIRGIN WEST COAST,ANYTIME S,0.0,0.6284890735640568,0.834061135371179,1.3270893169890088,0.7535287845349162
Barnes,BNS,2.0,51.4670847781107,-0.242164290131055,53.40631168010053,-2.984510383414912,285.17169534908146,198.0,167.0,VIRGIN WEST COAST,ANYTIME S,0.0,0.5856121162220314,0.8434343434343434,1.4402610876216235,0.6943185569578575
Barnes Bridge,BNI,2.0,51.4720072305495,-0.252630234454485,53.40631168010053,-2.984510383414912,284.28564507379855,187.0,167.0,VIRGIN WEST COAST,ANYTIME S,0.0,0.587437328946553,0.893048128342246,1.5202440913037356,0.6577891048682958
Barnetby,BTB,1.0,53.575120046432,-0.409679706265516,53.40631168010053,-2.984510383414912,171.92060537244566,219.0,51.8,TRANSPENNINE EXPRESS,ANYTIME DAY S,0.0,0.3013018706383765,0.23652968036529678,0.7850255953079711,1.273843816019391
Barnham,BAA,2.0,50.8309058508596,-0.639679954401345,53.40631168010053,-2.984510383414912,328.4619448581495,261.0,220.5,VIRGIN WEST COAST,ANYTIME S,0.0,0.6713106448152639,0.8448275862068966,1.2584748845139826,0.7946125999854144
Barnhill,BNL,3.0,55.8774948886876,-4.22300584363342,53.40631168010053,-2.984510383414912,286.4577697893871,256.0,132.0,LONDON NORTH EASTERN RAILWAY,ANYTIME S,0.0,0.46080090652472305,0.515625,1.1189756632397934,0.893674485381281
Barnsley,BNY,1.0,53.5543015489003,-1.47716484028851,53.40631168010053,-2.984510383414912,101.41671422981136,179.0,33.4,TRANSPENNINE EXPRESS,ANYTIME DAY S,92.0,0.32933427446993835,0.18659217877094972,0.5665738225129127,1.764995063776017
Barnstaple,BNP,2.0,51.0739744679973,-4.06311775092404,53.40631168010053,-2.984510383414912,269.7712692417958,388.0,73.3,CROSSCOUNTRY,ANYTIME S,700.0,0.2717116622760197,0.18891752577319587,0.6952867763963809,1.4382554565224508
Barnt Green,BTG,1.0,52.3610898378667,-1.99246673824797,53.40631168010053,-2.984510383414912,134.12126818356978,141.0,41.3,WEST MIDLANDS TRAINS,ANYTIME S,287.0,0.3079302824923584,0.2929078014184397,0.95121466796858,1.0512874051191896
Barrhead,BRR,2.0,55.8037583421428,-4.39728431394783,53.40631168010053,-2.984510383414912,282.04278006659194,252.0,77.9,VIRGIN WEST COAST,ANYTIME S,317.0,0.2761992346749928,0.30912698412698414,1.1192173812166346,0.8934814780243668
Barrhill,BRL,2.0,55.0970106102442,-4.78178229089313,53.40631168010053,-2.984510383414912,221.65616065140088,378.0,78.9,VIRGIN WEST COAST,ANYTIME S,93.0,0.35595672039130105,0.20873015873015874,0.5863919593952405,1.7053439836237234
Barrow Haven,BAV,2.0,53.697419946542,-0.392955239385703,53.40631168010053,-2.984510383414912,174.78170944520988,279.0,53.8,TRANSPENNINE EXPRESS,ANYTIME DAY S,0.0,0.3078125289583867,0.192831541218638,0.6264577399469888,1.5962768695053884
Barrow-in-Furness,BIF,1.0,54.1190037011827,-3.22612090695349,53.40631168010053,-2.984510383414912,80.90739433130997,139.0,33.4,NORTHERN,ANYTIME DAY S,317.0,0.41281764511200786,0.24028776978417266,0.5820675851173379,1.7180135530110507
Barrow-Upon-Soar,BWS,1.0,52.7493358553102,-1.14484305880024,53.40631168010053,-2.984510383414912,143.33037241985616,231.0,60.5,EAST MIDLANDS TRAINS,ANYTIME S,0.0,0.4221017428377147,0.2619047619047619,0.6204778026833601,1.6116611999258197
Barry,BRY,2.0,51.3967862682376,-3.28498495899336,53.40631168010053,-2.984510383414912,224.54248794125405,270.0,79.1,TRANSPORT FOR WALES RAIL,ANYTIME DAY S,1000.0,0.3522718605518192,0.2929629629629629,0.8316388442268668,1.2024450360175878
Barry Docks,BYD,2.0,51.4024452836283,-3.26070393235989,53.40631168010053,-2.984510383414912,223.77061769309415,267.0,79.1,TRANSPORT FOR WALES RAIL,ANYTIME DAY S,1000.0,0.35348698062087497,0.29625468164794005,0.8380922010977309,1.1931861419187564
Barry Island,BYI,2.0,51.3924170726249,-3.27336400852697,53.40631168010053,-2.984510383414912,224.95619485107923,275.0,79.1,TRANSPORT FOR WALES RAIL,ANYTIME DAY S,1000.0,0.3516240130766975,0.28763636363636363,0.8180225267311972,1.2224602224537524
Barry Links,BYL,2.0,56.4931516826701,-2.74544214683501,53.40631168010053,-2.984510383414912,343.97544663156094,524.0,151.0,LONDON NORTH EASTERN RAILWAY,ANYTIME S,0.0,0.4389848213838913,0.2881679389312977,0.6564416920449636,1.52336454572953
Barton-on-Humber,BAU,2.0,53.6889177395454,-0.44343673614012,53.40631168010053,-2.984510383414912,171.3359633324728,284.0,53.8,TRANSPENNINE EXPRESS,ANYTIME DAY S,0.0,0.31400296209618617,0.18943661971830986,0.6032956455368761,1.6575621047456668
Basildon,BSO,2.0,51.5681040297501,0.456788850539816,53.40631168010053,-2.984510383414912,310.56186200929255,211.0,194.5,VIRGIN WEST COAST,ANYTIME S,0.0,0.6262842408968433,0.9218009478672986,1.4718571659208177,0.679413752335393
Basingstoke,BSK,1.0,51.2683569850094,-1.08726383162934,53.40631168010053,-2.984510383414912,270.7505410506145,238.0,121.8,VIRGIN WEST COAST,ANYTIME S,200.0,0.4498605968703513,0.5117647058823529,1.1376073153387165,0.879037947907583
Bat & Ball,BBL,2.0,51.2897587469008,0.194227480292899,53.40631168010053,-2.984510383414912,319.9209567229698,279.0,196.5,VIRGIN WEST COAST,ANYTIME S,200.0,0.6142142172016443,0.7043010752688172,1.1466700957812537,0.8720904152634034
Bath Spa,BTH,1.0,51.3776883852266,-2.3570184714201,53.40631168010053,-2.984510383414912,229.73835135996458,242.0,96.3,CROSSCOUNTRY,ANYTIME S,0.0,0.4191725039808993,0.39793388429752063,0.9493320304130768,1.0533722322261436
Bathgate,BHG,2.0,55.8971563834902,-3.63609679157923,53.40631168010053,-2.984510383414912,280.44162733878306,330.0,127.5,LONDON NORTH EASTERN RAILWAY,ANYTIME S,0.0,0.45464006613388974,0.38636363636363635,0.8498231131478274,1.1767154652877148
Batley,BTL,1.0,53.7099423400798,-1.6229526318262,53.40631168010053,-2.984510383414912,96.34679136430744,116.0,33.6,TRANSPENNINE EXPRESS,ANYTIME DAY S,0.0,0.34874020737184025,0.2896551724137931,0.83057578762334,1.2039840492599245
Battersby,BTT,2.0,54.457680170473,-1.09297186288525,53.40631168010053,-2.984510383414912,170.663513934625,255.0,64.4,TRANSPENNINE EXPRESS,ANYTIME DAY S,95.0,0.377350720814698,0.25254901960784315,0.6692686820965686,1.494168226828385
Battersea Park,BAK,2.0,51.4769582891996,-0.147533519657093,53.40631168010053,-2.984510383414912,288.58586854787586,197.0,167.0,VIRGIN WEST COAST,ANYTIME S,0.0,0.578683914220474,0.8477157360406091,1.4649028860298268,0.6826391083918167
Battle,BAT,2.0,50.9129130238687,0.494702777064857,53.40631168010053,-2.984510383414912,365.5111408336762,272.0,213.5,VIRGIN WEST COAST,ANYTIME S,0.0,0.5841135225400749,0.7849264705882353,1.3437909589473391,0.7441633636107745
Battlesbridge,BLB,2.0,51.624822766888,0.56528550890708,53.40631168010053,-2.984510383414912,311.97894206115376,218.0,205.5,VIRGIN WEST COAST,ANYTIME S,0.0,0.6586983039378284,0.9426605504587156,1.4310960645007054,0.6987651107466987
Bayford,BAY,2.0,51.7577148923117,-0.0956100209046352,53.40631168010053,-2.984510383414912,268.28981248224795,228.0,177.0,VIRGIN WEST COAST,ANYTIME S,0.0,0.6597343311785707,0.7763157894736842,1.1767097038695085,0.8498272740605317
Beaconsfield,BCF,2.0,51.6112905925788,-0.643822282354315,53.40631168010053,-2.984510383414912,255.22573464348494,217.0,194.5,VIRGIN WEST COAST,ANYTIME S,0.0,0.7620704874126021,0.8963133640552995,1.1761554591865666,0.8502277417405381
Bearley,BER,2.0,52.2444115945748,-1.75025547969474,53.40631168010053,-2.984510383414912,153.74895132920622,203.0,45.8,WEST MIDLANDS TRAINS,ANYTIME S,287.0,0.29788821064498416,0.22561576354679802,0.7573839966955972,1.3203342087539691
Bearsden,BRN,2.0,55.9171345827093,-4.3320211452141,53.40631168010053,-2.984510383414912,292.6975331579341,246.0,77.9,VIRGIN WEST COAST,ANYTIME S,317.0,0.26614505137618166,0.3166666666666667,1.1898273705607079,0.8404580569774156
Bearsted,BSD,2.0,51.2758187894535,0.577580355704965,53.40631168010053,-2.984510383414912,339.24533036106214,250.0,209.0,VIRGIN WEST COAST,ANYTIME S,0.0,0.6160733289314823,0.836,1.3569813214442485,0.7369298192960314
Beasdale,BSL,3.0,56.8995610683265,-5.76380325043513,53.40631168010053,-2.984510383414912,427.2641687440641,535.0,119.7,VIRGIN WEST COAST,ANYTIME S,317.0,0.28015454783361815,0.22373831775700936,0.7986246144748861,1.2521527409439075
Beaulieu Road,BEU,2.0,50.8550493435382,-1.50474962699015,53.40631168010053,-2.984510383414912,301.4040696088247,334.0,128.8,CROSSCOUNTRY,ANYTIME S,700.0,0.42733331426865684,0.3856287425149701,0.9024073940383974,1.108146948491703
Beauly,BEL,3.0,57.4782879378611,-4.46986686037102,53.40631168010053,-2.984510383414912,462.9533832431139,481.0,187.0,LONDON NORTH EASTERN RAILWAY,ANYTIME S,0.0,0.4039283581643023,0.3887733887733888,0.96248104624348,1.0389814988076438
Bebington,BEB,0.0,53.3576570664328,-3.00363517233964,53.40631168010053,-2.984510383414912,5.562476489993924,19.0,3.55,MERSEYRAIL,ANYTIME DAY S,0.0,0.6382049445756629,0.1868421052631579,0.292761920525996,3.4157447737852378
Beccles,BCC,2.0,52.4585181871493,1.5694932615698,53.40631168010053,-2.984510383414912,323.8072112639454,482.0,112.3,EAST MIDLANDS TRAINS,ANYTIME S,700.0,0.3468113003464297,0.23298755186721992,0.6717991934936627,1.488540042448612
Beckenham Hill,BEC,2.0,51.4245808668055,-0.0159511139458484,53.40631168010053,-2.984510383414912,298.9887828875291,482.0,191.0,VIRGIN WEST COAST,ANYTIME S,0.0,0.6388199522249256,0.3962655601659751,0.6203086781898944,1.6121006124210164
Beckenham Junction,BKJ,2.0,51.4111718661491,-0.0260225635677561,53.40631168010053,-2.984510383414912,299.65032946489197,207.0,191.0,VIRGIN WEST COAST,ANYTIME S,0.0,0.6374096111994371,0.9227053140096618,1.4475861326806376,0.6908051807239972
Bedford,BDM,1.0,52.1361864656103,-0.479442379912954,53.40631168010053,-2.984510383414912,220.34601108380886,505.0,61.0,VIRGIN WEST COAST,ANYTIME S,200.0,0.27683732371628267,0.12079207920792079,0.43632873481942347,2.2918499750282417
Bedford St Johns,BSJ,2.0,52.1294772366621,-0.467501028060375,53.40631168010053,-2.984510383414912,221.45284149422415,189.0,61.0,VIRGIN WEST COAST,ANYTIME S,200.0,0.2754536793856898,0.32275132275132273,1.171708156054096,0.8534548426868094
Bedhampton,BDH,2.0,50.8539566355958,-0.99582843515536,53.40631168010053,-2.984510383414912,314.9319713958463,271.0,137.2,VIRGIN WEST COAST,ANYTIME S,200.0,0.43564964011719753,0.5062730627306272,1.1621105955566284,0.8605032978991294
Bedminster,BMT,2.0,51.4400904239394,-2.59414932604792,53.40631168010053,-2.984510383414912,220.39669866545722,218.0,88.55,CROSSCOUNTRY,ANYTIME S,0.0,0.4017755281099337,0.4061926605504587,1.0109940305754919,0.9891255237489052
Bedworth,BEH,1.0,52.4792974206142,-1.46739223305473,53.40631168010053,-2.984510383414912,145.06093424989413,147.0,44.4,WEST MIDLANDS TRAINS,ANYTIME S,287.0,0.30607827138016935,0.3020408163265306,0.986809076529892,1.01336724983975
Bedwyn,BDW,2.0,51.3796409426581,-1.59878627020561,53.40631168010053,-2.984510383414912,244.44001233191102,273.0,105.8,CROSSCOUNTRY,ANYTIME S,267.0,0.43282602954683325,0.38754578754578756,0.8953846605564506,1.116838431628407
Beeston,BEE,1.0,52.9207551214346,-1.20765801407939,53.40631168010053,-2.984510383414912,130.5454573824939,191.0,55.8,EAST MIDLANDS TRAINS,ANYTIME S,0.0,0.42743731661614104,0.29214659685863875,0.6834840700654131,1.4630918902093717
Bekesbourne,BKS,2.0,51.2613539349877,1.13670763163281,53.40631168010053,-2.984510383414912,368.52368860999104,284.0,220.5,VIRGIN WEST COAST,ANYTIME S,0.0,0.5983333142889367,0.7764084507042254,1.2976186218661656,0.7706424546850703
Belle Vue,BLV,1.0,53.4623764935822,-2.18050724055323,53.40631168010053,-2.984510383414912,53.798059286038324,86.0,15.0,TRANSPENNINE EXPRESS,ANYTIME DAY S,0.0,0.2788204667429853,0.1744186046511628,0.6255588289074224,1.5985706759931158
Bellgrove,BLG,2.0,55.8567093051092,-4.22437490020632,53.40631168010053,-2.984510383414912,284.26693848932894,270.0,132.0,LONDON NORTH EASTERN RAILWAY,ANYTIME S,0.0,0.46435227642540333,0.4888888888888889,1.0528405129234406,0.9498114745065068
Bellingham,BGM,2.0,51.4329113825773,-0.0193308081217253,53.40631168010053,-2.984510383414912,298.13783173787806,230.0,191.0,VIRGIN WEST COAST,ANYTIME S,0.0,0.6406432853108245,0.8304347826086956,1.2962514423386002,0.7714552650339771
Bellshill,BLH,2.0,55.8170682424416,-4.02449996284266,53.40631168010053,-2.984510383414912,276.6326007541674,254.0,132.0,LONDON NORTH EASTERN RAILWAY,ANYTIME S,0.0,0.4771671872372817,0.5196850393700787,1.0891047273786119,0.9181853451384058
Belmont,BLM,2.0,51.3438134158344,-0.198855124360003,53.40631168010053,-2.984510383414912,297.7142589876711,233.0,191.0,VIRGIN WEST COAST,ANYTIME S,0.0,0.6415547600893032,0.8197424892703863,1.2777436008054552,0.7826296288000401
Belper,BLP,2.0,53.0237591485711,-1.48251049959613,53.40631168010053,-2.984510383414912,108.9943150373293,172.0,47.6,EAST MIDLANDS TRAINS,ANYTIME S,0.0,0.4367200251104615,0.27674418604651163,0.6336878781240075,1.5780639562814993
Beltring,BEG,3.0,51.2047063375307,0.403495486821792,53.40631168010053,-2.984510383414912,336.7047593866021,235.0,205.5,VIRGIN WEST COAST,ANYTIME S,0.0,0.6103269831242459,0.874468085106383,1.4327862101557538,0.6979408322832009
Belvedere,BVD,2.0,51.4921162437256,0.152286098901381,53.40631168010053,-2.984510383414912,301.3636688491165,203.0,191.0,VIRGIN WEST COAST,ANYTIME S,0.0,0.6337857537022082,0.9408866995073891,1.4845500928527906,0.6736047539348078
Bempton,BEM,1.0,54.1276580609781,-0.18045684367924,53.40631168010053,-2.984510383414912,201.56317229156124,201.0,76.5,TRANSPENNINE EXPRESS,ANYTIME DAY S,0.0,0.37953361782450373,0.3805970149253731,1.002801852196822,0.9972059762447745
Ben Rhydding,BEY,1.0,53.9257153348267,-1.79743026313235,53.40631168010053,-2.984510383414912,97.45915866372202,140.0,41.7,TRANSPENNINE EXPRESS,ANYTIME DAY S,0.0,0.4278715368750902,0.2978571428571429,0.6961368475980144,1.436499164568648
Benfleet,BEF,2.0,51.5439424321207,0.561713345502072,53.40631168010053,-2.984510383414912,317.7525811307214,218.0,194.5,VIRGIN WEST COAST,ANYTIME S,0.0,0.6121114714721513,0.8922018348623854,1.4575806473886304,0.686068384477784
Bentham,BEN,1.0,54.1155197017626,-2.51067651046258,53.40631168010053,-2.984510383414912,84.89543507928452,194.0,25.4,NORTHERN,ANYTIME DAY S,317.0,0.2991915875839347,0.13092783505154637,0.4376053354602295,2.285164094145013
Bentley (Hants),BTY,2.0,51.1812327932647,-0.868126900052275,53.40631168010053,-2.984510383414912,286.5904825256646,270.0,122.4,CROSSCOUNTRY,ANYTIME S,267.0,0.4270902471056027,0.45333333333333337,1.0614462315765354,0.9421108392035353
Bentley (South Yorks),BYK,1.0,53.543936635355,-1.15094859528964,53.40631168010053,-2.984510383414912,122.70086952358652,151.0,38.3,TRANSPENNINE EXPRESS,ANYTIME DAY S,79.0,0.3121412272684642,0.25364238410596024,0.8125885398913014,1.2306351257842847
Bere Alston,BAS,2.0,50.4855988011236,-4.20035543651004,53.40631168010053,-2.984510383414912,335.54461385759225,379.0,90.4,CROSSCOUNTRY,ANYTIME S,817.0,0.26941275844280566,0.23852242744063326,0.8853419890701643,1.1295070293122051
Bere Ferrers,BFE,2.0,50.4512820780774,-4.18143518031599,53.40631168010053,-2.984510383414912,338.9325337540963,374.0,90.4,CROSSCOUNTRY,ANYTIME S,817.0,0.26671974802391607,0.24171122994652408,0.9062367212676372,1.1034644442582369
Berkhamsted,BKM,1.0,51.7631330812332,-0.562012981628892,53.40631168010053,-2.984510383414912,245.7247886624452,173.0,62.0,VIRGIN WEST COAST,ANYTIME S,700.0,0.25231479631129144,0.3583815028901734,1.4203745009389896,0.704039673578281
Berkswell,BKW,1.0,52.3958819317755,-1.64284047482006,53.40631168010053,-2.984510383414912,144.19819588933095,154.0,44.4,WEST MIDLANDS TRAINS,ANYTIME S,287.0,0.3079095388549525,0.2883116883116883,0.9363519213592919,1.0679745266590694
Bermuda Park,BEP,1.0,52.5014343619449,-1.47217775464212,53.40631168010053,-2.984510383414912,143.07264220381265,143.0,51.0,VIRGIN WEST COAST,ANYTIME S,0.0,0.3564622782834225,0.35664335664335667,1.0005079874392493,0.9994922704809689
Berney Arms,BYA,-999.0,52.5897827472666,1.63037533346209,53.40631168010053,-2.984510383414912,322.8272333028988,-999.0,115.8,VIRGIN WEST COAST,ANYTIME S,200.0,0.35870579695285015,-999.0,-999.0,-999.0
Berry Brow,BBW,1.0,53.6210419716152,-1.79343228301033,53.40631168010053,-2.984510383414912,82.5473452696766,110.0,31.7,TRANSPENNINE EXPRESS,ANYTIME DAY S,0.0,0.38402204088378905,0.28818181818181815,0.7504304115425146,1.3325685961267129
Berrylands,BRS,2.0,51.3990439366779,-0.280713667843256,53.40631168010053,-2.984510383414912,289.3574149871269,184.0,167.5,VIRGIN WEST COAST,ANYTIME S,0.0,0.5788688705539198,0.9103260869565217,1.572594646669168,0.6358917742204253
Berwick (Sussex),BRK,2.0,50.8403762860459,0.166017608785235,53.40631168010053,-2.984510383414912,357.80198918697306,270.0,220.5,VIRGIN WEST COAST,ANYTIME S,0.0,0.6162626443219004,0.8166666666666667,1.3251925525443446,0.7546073195778371
Berwick-upon-Tweed,BWK,1.0,55.7743389009866,-2.01097357377303,53.40631168010053,-2.984510383414912,271.0003274396243,242.0,96.2,TRANSPENNINE EXPRESS,ANYTIME DAY S,0.0,0.3549811209044839,0.3975206611570248,1.1198360638001004,0.8929878509239616
Bescar Lane,BES,2.0,53.623855333027,-2.9146110021991,53.40631168010053,-2.984510383414912,24.651724379166936,87.0,11.1,NORTHERN,ANYTIME DAY S,0.0,0.4502727610154753,0.12758620689655173,0.283353153783528,3.5291648836348064
Bescot Stadium,BSC,0.0,52.5630947071172,-1.9911057185482,53.40631168010053,-2.984510383414912,115.13612826112346,127.0,39.8,WEST MIDLANDS TRAINS,ANYTIME S,287.0,0.34567776944640194,0.3133858267716535,0.9065836870954603,1.1030421286355037
Betchworth,BTO,2.0,51.2481879331766,-0.266973015200458,53.40631168010053,-2.984510383414912,303.257359834216,336.0,110.55,CROSSCOUNTRY,ANYTIME S,267.0,0.3645418533632134,0.32901785714285714,0.9025516661732619,1.107969812121571
Bethnal Green,BET,2.0,51.5239156627757,-0.0595680464428894,53.40631168010053,-2.984510383414912,288.7327530873005,197.0,167.0,VIRGIN WEST COAST,ANYTIME S,0.0,0.5783895253113397,0.8477157360406091,1.4656484928289366,0.6822918352475085
Betws-y-Coed,BYC,2.0,53.0920709395504,-3.80086212197837,53.40631168010053,-2.984510383414912,64.74794576202767,148.0,28.6,TRANSPORT FOR WALES RAIL,ANYTIME DAY S,1000.0,0.4417128553408542,0.19324324324324324,0.43748612001370046,2.285786803861763
Beverley,BEV,1.0,53.8422725915824,-0.422980126740875,53.40631168010053,-2.984510383414912,176.28069624497525,267.0,67.8,TRANSPENNINE EXPRESS,ANYTIME DAY S,0.0,0.3846138655237617,0.2539325842696629,0.6602273267602069,1.5146298244077343
Bexhill,BEX,2.0,50.84103990242,0.477016592346932,53.40631168010053,-2.984510383414912,370.96111090202834,365.0,220.5,VIRGIN WEST COAST,ANYTIME S,0.0,0.5944019292583868,0.6041095890410959,1.0163318106904886,0.9839306311986901
Bexley,BXY,2.0,51.4402175270263,0.147902494716889,53.40631168010053,-2.984510383414912,305.3493134343368,218.0,191.0,VIRGIN WEST COAST,ANYTIME S,0.0,0.6255131143141515,0.8761467889908257,1.4006849240107193,0.713936434138665
Bexleyheath,BXH,2.0,51.4634982236074,0.133734871030645,53.40631168010053,-2.984510383414912,302.78548789341977,226.0,191.0,VIRGIN WEST COAST,ANYTIME S,0.0,0.6308096247572864,0.8451327433628318,1.339758795988583,0.7464030114929148
Bicester North,BCS,2.0,51.9034829537461,-1.15038352192815,53.40631168010053,-2.984510383414912,208.24574854418353,199.0,64.4,CROSSCOUNTRY,ANYTIME S,267.0,0.30925001086558196,0.3236180904522613,1.0464610479607213,0.9556017416498572
Bicester Village,BIT,2.0,51.8930236127002,-1.14876425178293,53.40631168010053,-2.984510383414912,209.2550987813351,227.0,80.95,VIRGIN WEST COAST,ANYTIME S,200.0,0.3868483992573589,0.35660792951541853,0.9218286289926657,1.0848003289860466
Bickley,BKL,2.0,51.4001024308637,0.0452405405139698,53.40631168010053,-2.984510383414912,303.8477156469332,243.0,191.0,VIRGIN WEST COAST,ANYTIME S,0.0,0.6286043638450103,0.7860082304526749,1.2504021220038402,0.7997427246823953
Bidston,BID,0.0,53.4091398593576,-3.07856110228132,53.40631168010053,-2.984510383414912,6.262574193203448,19.0,3.55,MERSEYRAIL,ANYTIME DAY S,1000.0,0.5668595517563194,0.1868421052631579,0.32960916806333934,3.0338961924986108
Biggleswade,BIW,2.0,52.0846785950736,-0.261187193156868,53.40631168010053,-2.984510383414912,235.4569687929024,232.0,186.0,VIRGIN WEST COAST,ANYTIME S,0.0,0.7899532596276538,0.8017241379310345,1.0149007275556137,0.985318044266751
Bilbrook,BBK,1.0,52.6237197237583,-2.18608801838282,53.40631168010053,-2.984510383414912,102.2549689564404,109.0,36.8,WEST MIDLANDS TRAINS,ANYTIME S,287.0,0.35988471147721374,0.33761467889908253,0.9381189812517468,1.0659628682341387
Billericay,BIC,2.0,51.6288812691945,0.418629610467223,53.40631168010053,-2.984510383414912,304.0593463831437,230.0,196.5,VIRGIN WEST COAST,ANYTIME S,200.0,0.6462554180208995,0.8543478260869565,1.3219971581875813,0.7564312780906203
Billingham (Cleveland),BIL,2.0,54.605606575355,-1.27971968622732,53.40631168010053,-2.984510383414912,174.09592210042226,206.0,64.4,TRANSPENNINE EXPRESS,ANYTIME DAY S,95.0,0.36991101929919246,0.312621359223301,0.845125835438943,1.1832557449632553
Billingshurst,BIG,2.0,51.0152034952011,-0.450302232654151,53.40631168010053,-2.984510383414912,317.43797365123436,246.0,209.0,VIRGIN WEST COAST,ANYTIME S,0.0,0.6583963399086777,0.8495934959349594,1.2903982668749363,0.7749545436245681
Bingham,BIN,1.0,52.9541905628363,-0.95154335353279,53.40631168010053,-2.984510383414912,144.92677510926063,209.0,66.2,EAST MIDLANDS TRAINS,ANYTIME S,0.0,0.45678239890518274,0.3167464114832536,0.6934295459773236,1.4421075735828277
Bingley,BIY,1.0,53.8486154371384,-1.8373224993653,53.40631168010053,-2.984510383414912,90.46277228266976,138.0,41.7,TRANSPENNINE EXPRESS,ANYTIME DAY S,0.0,0.4609631005967811,0.3021739130434783,0.655527335381665,1.5254893976584123
Birchgrove,BCG,2.0,51.5215597229164,-3.20185379786194,53.40631168010053,-2.984510383414912,210.24718645083647,265.0,79.1,TRANSPORT FOR WALES RAIL,ANYTIME DAY S,1000.0,0.3762238217560951,0.2984905660377358,0.7933856092484395,1.2604211474761722
Birchington-on-sea,BCH,2.0,51.3774886896266,1.3014083545974,53.40631168010053,-2.984510383414912,368.8056771184559,273.0,221.5,VIRGIN WEST COAST,ANYTIME S,0.0,0.6005872841508806,0.8113553113553114,1.3509365462214502,0.7402272170347197
Birchwood,BWD,0.0,53.4127205850305,-2.5253082468513,53.40631168010053,-2.984510383414912,30.545336862190297,50.0,7.0,NORTHERN,ANYTIME DAY S,329.0,0.22916754958642335,0.14,0.610906737243806,1.6369110684744526
Birkbeck,BIK,2.0,51.4038899816034,-0.0557387405611835,53.40631168010053,-2.984510383414912,298.91072630246833,256.0,191.0,VIRGIN WEST COAST,ANYTIME S,0.0,0.6389867716112895,0.74609375,1.167620024619017,0.8564430027879063
Birkdale,BDL,1.0,53.6340528065899,-3.01445011129132,53.40631168010053,-2.984510383414912,25.424356989359993,96.0,6.7,MERSEYRAIL,ANYTIME DAY S,1000.0,0.26352682204721745,0.06979166666666667,0.2648370519724999,3.7759067039601306
Birkenhead Central,BKC,0.0,53.3883166263867,-3.02082115838918,53.40631168010053,-2.984510383414912,3.137666516348388,11.0,3.05,MERSEYRAIL,ANYTIME DAY S,0.0,0.9720599637049975,0.2772727272727273,0.2852424105771262,3.505790033034417
Birkenhead Hamilton Square,BKQ,0.0,53.3946967251861,-3.01368016573114,53.40631168010053,-2.984510383414912,2.3313963618765365,9.0,3.05,MERSEYRAIL,ANYTIME DAY S,0.0,1.308228857981515,0.33888888888888885,0.2590440402085041,3.860347449781519
Birkenhead North,BKN,0.0,53.4044379353974,-3.05753365912751,53.40631168010053,-2.984510383414912,4.8610132473492955,16.0,3.3,MERSEYRAIL,ANYTIME DAY S,0.0,0.6788708098665408,0.20625,0.30381332795933097,3.291494835716562
Birkenhead Park,BKP,0.0,53.3974085855031,-3.03910128885113,53.40631168010053,-2.984510383414912,3.7637322112552263,14.0,3.05,MERSEYRAIL,ANYTIME DAY S,0.0,0.8103658360387992,0.21785714285714283,0.26883801508965904,3.7197120342764554
Birmingham International,BHI,1.0,52.4508081112451,-1.72585685988124,53.40631168010053,-2.984510383414912,135.90352005598916,135.0,42.8,WEST MIDLANDS TRAINS,ANYTIME S,287.0,0.3149292967714697,0.317037037037037,1.0066927411554754,0.9933517538352433
Birmingham Moor Street,BMO,1.0,52.479080623723,-1.89247273057604,53.40631168010053,-2.984510383414912,126.63435877693962,122.0,39.8,WEST MIDLANDS TRAINS,ANYTIME S,287.0,0.3142906900180685,0.3262295081967213,1.037986547351964,0.9634036226684511
Birmingham New Street,BHM,0.0,52.4778198092097,-1.9002055706822,53.40631168010053,-2.984510383414912,126.44897359887294,102.0,39.8,WEST MIDLANDS TRAINS,ANYTIME S,287.0,0.314751467467465,0.3901960784313725,1.2396958195967935,0.8066494894894832
Birmingham Snow Hill,BSW,1.0,52.4833566780576,-1.89908868312646,53.40631168010053,-2.984510383414912,125.98681280222233,124.0,39.8,WEST MIDLANDS TRAINS,ANYTIME S,287.0,0.3159060786979282,0.32096774193548383,1.0160226838888897,0.9842299939332437
Bishop Auckland,BIA,1.0,54.6571963763698,-1.67771509725951,53.40631168010053,-2.984510383414912,163.44803907419856,231.0,64.4,TRANSPENNINE EXPRESS,ANYTIME DAY S,95.0,0.394009009620269,0.2787878787878788,0.7075672687194743,1.4132931866813996
Bishopbriggs,BBG,3.0,55.9038831792009,-4.22491571705821,53.40631168010053,-2.984510383414912,289.3069793902111,265.0,132.0,LONDON NORTH EASTERN RAILWAY,ANYTIME S,0.0,0.4562627568758416,0.4981132075471698,1.0917244505290984,0.9159820497886214
Bishops Stortford,BIS,2.0,51.8666894209812,0.16489410333554,53.40631168010053,-2.984510383414912,273.47653745071597,223.0,182.5,VIRGIN WEST COAST,ANYTIME S,0.0,0.667333299233719,0.8183856502242153,1.22635218587765,0.8154264423513389
Bishopstone (Sussex),BIP,3.0,50.7801416620368,0.082756921439231,53.40631168010053,-2.984510383414912,359.8967241850903,281.0,220.5,VIRGIN WEST COAST,ANYTIME S,0.0,0.612675762746314,0.7846975088967971,1.2807712604451613,0.7807795434544863
Bishopton (Strathclyde),BPT,2.0,55.9022694882255,-4.5004875625329,53.40631168010053,-2.984510383414912,294.5496640230883,232.0,77.9,VIRGIN WEST COAST,ANYTIME S,317.0,0.2644715289639366,0.33577586206896554,1.2696106207891737,0.7876430644368844
Bitterne,BTE,2.0,50.9182213632939,-1.37699961416727,53.40631168010053,-2.984510383414912,297.8837222771407,288.0,128.8,CROSSCOUNTRY,ANYTIME S,700.0,0.4323834784103072,0.44722222222222224,1.0343184801289607,0.9668202001721155
Blackburn,BBN,1.0,53.7465184457461,-2.47912240276289,53.40631168010053,-2.984510383414912,50.54057657310995,85.0,17.9,NORTHERN,ANYTIME DAY S,0.0,0.3541708704906954,0.21058823529411763,0.5945950185071759,1.6818169827770453
Blackheath,BKH,2.0,51.4657945200002,0.00887187089452019,53.40631168010053,-2.984510383414912,296.71522945420327,211.0,191.0,VIRGIN WEST COAST,ANYTIME S,0.0,0.6437148519519456,0.9052132701421801,1.4062333149488306,0.7111195484914162
Blackhorse Road,BHO,1.0,51.58660384873,-0.0412357433706351,53.40631168010053,-2.984510383414912,284.4898259463494,181.0,162.5,VIRGIN WEST COAST,ANYTIME S,0.0,0.5711979311015681,0.8977900552486188,1.571766994178726,0.6362266186423621
Blackpool North,BPN,0.0,53.8219180942013,-3.04927516714828,53.40631168010053,-2.984510383414912,46.45423076225223,78.0,19.2,VIRGIN WEST COAST,ANYTIME DAY S,474.0,0.41331004054858944,0.24615384615384614,0.5955670610545157,1.6790720397286445
Blackpool Pleasure Beach,BPB,1.0,53.7879555202556,-3.05387646984086,53.40631168010053,-2.984510383414912,42.72354431371504,123.0,19.2,NORTHERN,ANYTIME DAY S,317.0,0.44940091718552594,0.15609756097560976,0.34734588872939054,2.8789746257197755
Blackpool South,BPS,1.0,53.7987040263195,-3.04893832565541,53.40631168010053,-2.984510383414912,43.88008226048683,125.0,19.2,NORTHERN,ANYTIME DAY S,317.0,0.43755615329119907,0.1536,0.3510406580838946,2.848672872989577
Blackridge,BKR,2.0,55.8842557507999,-3.75079743413867,53.40631168010053,-2.984510383414912,280.2332371488666,339.0,132.0,LONDON NORTH EASTERN RAILWAY,ANYTIME S,0.0,0.4710362030677983,0.3893805309734513,0.8266467172532938,1.2097066124241185
Blackrod,BLK,1.0,53.5915244932358,-2.56952431744104,53.40631168010053,-2.984510383414912,34.39897612222868,112.0,11.7,TRANSPENNINE EXPRESS,ANYTIME DAY S,312.0,0.3401264025541574,0.1044642857142857,0.3071337153770418,3.2559108620568913
Blackwater,BAW,2.0,51.3315811457068,-0.776741026218888,53.40631168010053,-2.984510383414912,275.4893413017842,256.0,115.9,VIRGIN WEST COAST,ANYTIME S,200.0,0.42070593167899595,0.452734375,1.0761302394600945,0.9292555522849263
Blaenau Ffestiniog,BFF,2.0,52.9945530771849,-3.93859577234881,53.40631168010053,-2.984510383414912,78.51597754191386,175.0,29.8,TRANSPORT FOR WALES RAIL,ANYTIME DAY S,1000.0,0.37954058438732413,0.1702857142857143,0.44866272881093633,2.2288457136839503
Blair Atholl,BLA,2.0,56.7655504660718,-3.85022876626298,53.40631168010053,-2.984510383414912,378.02294698948,428.0,151.0,LONDON NORTH EASTERN RAILWAY,ANYTIME S,0.0,0.39944665053415973,0.352803738317757,0.8832311845548597,1.1322064001895389
Blairhill,BAI,2.0,55.8664556230225,-4.0432911996593,53.40631168010053,-2.984510383414912,282.25108294982886,275.0,132.0,LONDON NORTH EASTERN RAILWAY,ANYTIME S,0.0,0.4676687104986714,0.48,1.026367574363014,0.9743098135388988
Blake Street,BKT,1.0,52.6048860712992,-1.84491459685048,53.40631168010053,-2.984510383414912,117.49846410775372,144.0,39.8,WEST MIDLANDS TRAINS,ANYTIME S,287.0,0.3387278319102181,0.27638888888888885,0.8159615563038453,1.225547934549533
Blakedown,BKD,1.0,52.4064026596129,-2.17686566095142,53.40631168010053,-2.984510383414912,123.83194727306673,142.0,40.4,WEST MIDLANDS TRAINS,ANYTIME S,287.0,0.32624860457788296,0.28450704225352114,0.8720559667117376,1.1467153923282025
Blantyre,BLT,2.0,55.7973304780703,-4.08697164977011,53.40631168010053,-2.984510383414912,275.5206657393573,261.0,132.0,LONDON NORTH EASTERN RAILWAY,ANYTIME S,0.0,0.479092919022169,0.5057471264367817,1.0556347346335528,0.947297362612016
Blaydon,BLO,1.0,54.9657896857216,-1.71258088882198,53.40631168010053,-2.984510383414912,192.4133355557565,217.0,80.8,TRANSPENNINE EXPRESS,ANYTIME DAY S,0.0,0.41992931397723315,0.3723502304147465,0.886697398874454,1.1277804595675693
Bleasby,BSB,1.0,53.0413649497003,-0.943687538181265,53.40631168010053,-2.984510383414912,142.22208008514707,222.0,55.8,EAST MIDLANDS TRAINS,ANYTIME S,0.0,0.39234414210924945,0.25135135135135134,0.6406400003835454,1.560939060004541
Bletchley,BLY,1.0,51.9953339717924,-0.736320506839459,53.40631168010053,-2.984510383414912,218.49923738324364,233.0,114.5,VIRGIN WEST COAST,ANYTIME S,0.0,0.5240292889405793,0.49141630901287553,0.9377649673100585,1.0663652779314845
Bloxwich,BLX,1.0,52.6182018754768,-2.01147807238452,53.40631168010053,-2.984510383414912,109.34811052656943,190.0,41.3,WEST MIDLANDS TRAINS,ANYTIME S,287.0,0.37769285450949713,0.21736842105263157,0.5755163711924707,1.7375700328524082
Bloxwich North,BWN,1.0,52.6254378492086,-2.01768461058018,53.40631168010053,-2.984510383414912,108.45038711158934,192.0,41.3,WEST MIDLANDS TRAINS,ANYTIME S,287.0,0.38081929534750875,0.21510416666666665,0.5648457662061944,1.7703947870876922
Blundellsands & Crosby,BLN,0.0,53.4876867000616,-3.03986028592851,53.40631168010053,-2.984510383414912,9.774785912767264,48.0,3.9,MERSEYRAIL,ANYTIME DAY S,0.0,0.3989857204858107,0.08125,0.20364137318265133,4.910593482902286
Blythe Bridge,BYB,1.0,52.9681439666743,-2.06696136521393,53.40631168010053,-2.984510383414912,78.3561586551511,116.0,27.7,WEST MIDLANDS TRAINS,ANYTIME S,0.0,0.3535140118584541,0.23879310344827587,0.6754841263375095,1.4804196886491219
Bodmin Parkway,BOD,1.0,50.4458686645733,-4.66292953056928,53.40631168010053,-2.984510383414912,349.01994191665716,393.0,87.9,CROSSCOUNTRY,ANYTIME S,817.0,0.25184807354357347,0.2236641221374046,0.8880914552586696,1.1260101581640996
Bodorgan,BOR,1.0,53.2043074000119,-4.41800424551237,53.40631168010053,-2.984510383414912,98.16752890604172,151.0,30.7,TRANSPORT FOR WALES RAIL,ANYTIME DAY S,39.0,0.3127306996734494,0.2033112582781457,0.650116085470475,1.5381868290127316
Bognor Regis,BOG,2.0,50.7865584395345,-0.676178286011514,53.40631168010053,-2.984510383414912,331.61293366157537,293.0,220.5,VIRGIN WEST COAST,ANYTIME S,0.0,0.6649318455866662,0.7525597269624573,1.1317847565241481,0.8835602301899917
Bogston,BGS,2.0,55.9370473872407,-4.71140217696609,53.40631168010053,-2.984510383414912,302.92096832172115,268.0,79.9,VIRGIN WEST COAST,ANYTIME S,317.0,0.263765167669546,0.29813432835820897,1.1303021206034372,0.884719210706362
Bolton,BON,1.0,53.5741455351566,-2.42582497565139,53.40631168010053,-2.984510383414912,41.521061187553364,76.0,11.7,TRANSPENNINE EXPRESS,ANYTIME DAY S,312.0,0.28178470552932955,0.1539473684210526,0.5463297524678075,1.8303963777973544
Bolton-Upon-Dearne,BTD,1.0,53.5189470302023,-1.31154616002462,53.40631168010053,-2.984510383414912,111.81617301885275,200.0,29.6,TRANSPENNINE EXPRESS,ANYTIME DAY S,325.0,0.26472020281904385,0.14800000000000002,0.5590808650942638,1.7886500190475936
Bookham,BKA,2.0,51.2887375770933,-0.384020684769355,53.40631168010053,-2.984510383414912,294.7885644073155,244.0,194.5,VIRGIN WEST COAST,ANYTIME S,0.0,0.6597949292607406,0.7971311475409836,1.2081498541283422,0.8277118906921372
Bootle (Cumbria),BOC,2.0,54.2913058315169,-3.39386227213438,53.40631168010053,-2.984510383414912,102.11907552682715,218.0,32.3,NORTHERN,ANYTIME DAY S,317.0,0.3162974188060941,0.1481651376146789,0.4684361262698493,2.134762764697477
Bootle New Strand,BNW,0.0,53.4533917659639,-2.99474773972908,53.40631168010053,-2.984510383414912,5.283746869604469,27.0,3.45,MERSEYRAIL,ANYTIME DAY S,0.0,0.652945738155367,0.1277777777777778,0.19569432850386922,5.110010124694177
Bootle Oriel Road,BOT,0.0,53.4466239167649,-2.9957338918952,53.40631168010053,-2.984510383414912,4.548130855240412,21.0,3.45,MERSEYRAIL,ANYTIME DAY S,1000.0,0.7585533727607832,0.16428571428571428,0.21657765977335297,4.6172813994134625
Bordesley,BBS,2.0,52.4718743800827,-1.87776885469942,53.40631168010053,-2.984510383414912,127.86472323415566,136.0,39.8,WEST MIDLANDS TRAINS,ANYTIME S,287.0,0.31126646187717616,0.29264705882352937,0.9401817884864387,1.063624090836582
Borough Green & Wrotham,BRG,2.0,51.2932170234776,0.306244959659036,53.40631168010053,-2.984510383414912,324.84812948504606,230.0,198.0,VIRGIN WEST COAST,ANYTIME S,0.0,0.6095155921441581,0.8608695652173913,1.4123831716741133,0.7080231625916988
Borth,BRH,1.0,52.4910318901744,-4.05017708151719,53.40631168010053,-2.984510383414912,124.51934738251923,239.0,53.9,TRANSPORT FOR WALES RAIL,ANYTIME DAY S,1000.0,0.432864459483722,0.22552301255230126,0.521001453483344,1.9193804418665967
Bosham,BOH,2.0,50.8427472866996,-0.847431235664145,53.40631168010053,-2.984510383414912,320.56981815442396,295.0,220.5,CROSSCOUNTRY,ANYTIME S,0.0,0.6878376800082326,0.747457627118644,1.0866773496760134,0.9202363519384519
Boston,BSN,1.0,52.9780883520384,-0.03100323679323,53.40631168010053,-2.984510383414912,203.063162055184,285.0,69.0,EAST MIDLANDS TRAINS,ANYTIME S,0.0,0.33979575271879553,0.24210526315789474,0.7125023230006456,1.4035041960124162
Botley,BOE,2.0,50.9164546156522,-1.25923650546392,53.40631168010053,-2.984510383414912,301.131264512079,583.0,131.1,VIRGIN WEST COAST,ANYTIME S,200.0,0.43535831529290214,0.2248713550600343,0.5165201792660017,1.936032782728924
Bottesford,BTF,1.0,52.9446141670485,-0.794842711685305,53.40631168010053,-2.984510383414912,155.15814917446156,220.0,69.0,EAST MIDLANDS TRAINS,ANYTIME S,0.0,0.44470754753858033,0.31363636363636366,0.7052643144293708,1.4179081225867778
Bourne End,BNE,3.0,51.5771173647136,-0.710473547391366,53.40631168010053,-2.984510383414912,255.48893615591086,455.0,98.8,CROSSCOUNTRY,ANYTIME S,267.0,0.38670950486759154,0.21714285714285714,0.5615141453976062,1.7808990355744347
Bournemouth,BMH,1.0,50.7272746595869,-1.86450316465566,53.40631168010053,-2.984510383414912,307.817745580748,331.0,146.05,VIRGIN WEST COAST,ANYTIME S,200.0,0.4744690717049241,0.4412386706948641,0.9299629775853414,1.0753116243363907
Bournville,BRV,1.0,52.4269645832552,-1.92642405915734,53.40631168010053,-2.984510383414912,130.16473377088676,129.0,39.8,WEST MIDLANDS TRAINS,ANYTIME S,287.0,0.3057663842347277,0.3085271317829457,1.0090289439603624,0.9910518483989919
Bow Brickhill,BWB,2.0,52.0043001848605,-0.696077833880482,53.40631168010053,-2.984510383414912,219.6786411122731,156.0,114.5,VIRGIN WEST COAST,ANYTIME S,0.0,0.5212158970952551,0.7339743589743589,1.4081964173863661,0.7101282091428802
Bowes Park,BOP,2.0,51.6070103763875,-0.120581954633459,53.40631168010053,-2.984510383414912,279.06871990706924,191.0,167.0,VIRGIN WEST COAST,ANYTIME S,0.0,0.5984189129315945,0.8743455497382199,1.4610927743825615,0.684419235748111
Bowling,BWG,3.0,55.9310849001239,-4.49384261915191,53.40631168010053,-2.984510383414912,297.42563364816107,259.0,77.9,VIRGIN WEST COAST,ANYTIME S,317.0,0.26191421043470525,0.3007722007722008,1.1483615198770698,0.8708059114581341
Box Hill & Westhumble,BXW,2.0,51.2540106794359,-0.328489952956063,53.40631168010053,-2.984510383414912,300.1918237227745,252.0,110.55,CROSSCOUNTRY,ANYTIME S,267.0,0.36826452709149177,0.4386904761904762,1.1912373957252955,0.8394632367892892
Bracknell,BCE,2.0,51.4130914141393,-0.751703650172948,53.40631168010053,-2.984510383414912,268.818579037652,266.0,101.05,CROSSCOUNTRY,ANYTIME S,267.0,0.37590407761900435,0.3798872180451128,1.0105961617956842,0.9895149396007439
Bradford Forster Square,BDQ,1.0,53.7969256219995,-1.75296173787813,53.40631168010053,-2.984510383414912,92.39395173118875,122.0,41.7,TRANSPENNINE EXPRESS,ANYTIME DAY S,0.0,0.45132824409677935,0.3418032786885246,0.7573274732064652,1.320432752513359
Bradford Interchange,BDI,1.0,53.7910764525054,-1.74959589964649,53.40631168010053,-2.984510383414912,92.29175735985405,121.0,41.7,TRANSPENNINE EXPRESS,ANYTIME DAY S,0.0,0.4518279984355252,0.34462809917355375,0.7627417963624301,1.3110596597289819
Bradford-on-Avon,BOA,2.0,51.3449161602034,-2.25232693866303,53.40631168010053,-2.984510383414912,234.73421252922847,235.0,98.8,CROSSCOUNTRY,ANYTIME S,700.0,0.42090157602270134,0.4204255319148936,0.9988689894860786,1.0011322911471137
Brading,BDN,4.0,50.6783720718463,-1.13872244962043,53.40631168010053,-2.984510383414912,328.8651513304306,340.0,221.0,VIRGIN WEST COAST,ANYTIME S,200.0,0.6720079616400219,0.65,0.9672504450895018,1.0338584025231106
Braintree,BTR,2.0,51.8753890748181,0.556686982906197,53.40631168010053,-2.984510383414912,294.02882783484705,248.0,188.5,VIRGIN WEST COAST,ANYTIME S,0.0,0.6410936008828307,0.7600806451612904,1.1856001122372866,0.8434547109758198
Braintree Freeport,BTP,2.0,51.8694135093739,0.568434688069829,53.40631168010053,-2.984510383414912,295.07498048712137,246.0,188.5,VIRGIN WEST COAST,ANYTIME S,0.0,0.6388206810649171,0.766260162601626,1.1994917905980544,0.8336864060581942
Bramhall,BML,1.0,53.360614520234,-2.16359288123925,53.40631168010053,-2.984510383414912,54.86051178694836,91.0,19.1,TRANSPENNINE EXPRESS,ANYTIME DAY S,0.0,0.3481557021227791,0.2098901098901099,0.6028627668895424,1.6587522980718792
Bramley (Hants),BMY,2.0,51.3302932744388,-1.06100278415591,53.40631168010053,-2.984510383414912,265.5508062924098,247.0,101.05,CROSSCOUNTRY,ANYTIME S,267.0,0.38052981804442104,0.40910931174089066,1.0751044789166389,0.9301421579116477
Bramley (W Yorks),BLE,1.0,53.8053497570895,-1.63720635437646,53.40631168010053,-2.984510383414912,99.62725230800642,137.0,35.8,TRANSPENNINE EXPRESS,ANYTIME DAY S,0.0,0.35933942942962177,0.26131386861313866,0.7272062212263243,1.3751257494932454
Brampton (Cumbria),BMP,2.0,54.9323930102284,-2.70294760254176,53.40631168010053,-2.984510383414912,170.8572992705392,166.0,49.0,VIRGIN WEST COAST,ANYTIME S,307.0,0.28678903511410614,0.29518072289156627,1.0292608389791518,0.9715710169171758
Brampton (Suffolk),BRP,2.0,52.3954307722651,1.54381046672808,53.40631168010053,-2.984510383414912,324.7467530332291,474.0,112.3,EAST MIDLANDS TRAINS,ANYTIME S,700.0,0.3458079224844755,0.2369198312236287,0.6851197321376141,1.4595988892042868
Branchton,BCN,2.0,55.9406016000061,-4.80354935893801,53.40631168010053,-2.984510383414912,305.51809913809484,301.0,80.4,VIRGIN WEST COAST,ANYTIME S,317.0,0.2631595320434978,0.26710963455149506,1.01501029613985,0.9852116809091148
Brandon,BND,1.0,52.4540047306678,0.624731734521936,53.40631168010053,-2.984510383414912,264.7946371285771,318.0,97.1,EAST MIDLANDS TRAINS,ANYTIME S,700.0,0.3666992694903064,0.3053459119496855,0.8326875381401796,1.2009306663019303
Branksome,BSM,2.0,50.7269660330633,-1.91975842787338,53.40631168010053,-2.984510383414912,306.92866764996916,328.0,146.05,VIRGIN WEST COAST,ANYTIME S,200.0,0.4758434626463759,0.4452743902439025,0.9357581330791742,1.0686522132695055
Braystones (Cumbria),BYS,2.0,54.4393640536404,-3.54182643942065,53.40631168010053,-2.984510383414912,120.67016105110453,257.0,66.5,NORTHERN,ANYTIME DAY S,0.0,0.551089013396086,0.2587548638132296,0.46953370058795535,2.1297725780871293
Bredbury,BDY,1.0,53.4231550957567,-2.11048830300964,53.40631168010053,-2.984510383414912,58.14544253090601,103.0,20.4,TRANSPENNINE EXPRESS,ANYTIME DAY S,0.0,0.350844350168232,0.19805825242718444,0.5645188595233593,1.7714200033003873
Breich,BRC,2.0,55.8273164832767,-3.66812586892786,53.40631168010053,-2.984510383414912,273.0884282824646,253.0,127.5,LONDON NORTH EASTERN RAILWAY,ANYTIME S,0.0,0.46688173791136417,0.5039525691699605,1.0794009023022315,0.9264398407182364
Brentford,BFD,2.0,51.4875457097478,-0.3096509962364,53.40631168010053,-2.984510383414912,280.4303928594603,194.0,167.5,VIRGIN WEST COAST,ANYTIME S,0.0,0.5972961714030184,0.8634020618556701,1.4455174889662903,0.6917937746399139
Brentwood,BRE,2.0,51.6136030493508,0.2995857793073,53.40631168010053,-2.984510383414912,299.1302775660528,237.0,196.5,VIRGIN WEST COAST,ANYTIME S,200.0,0.6569044150223463,0.8291139240506329,1.2621530698989571,0.7922969280422192
Bricket Wood,BWO,2.0,51.7054267834401,-0.359115040469,53.40631168010053,-2.984510383414912,259.8324051216068,195.0,64.0,VIRGIN WEST COAST,ANYTIME S,200.0,0.24631261820497988,0.3282051282051282,1.3324738724184966,0.7504837585932981
Bridge of Allan,BEA,2.0,56.1566398048563,-3.95722936202684,53.40631168010053,-2.984510383414912,312.4878498892143,278.0,133.5,LONDON NORTH EASTERN RAILWAY,ANYTIME S,0.0,0.4272166103332641,0.4802158273381295,1.1240570139899795,0.8896345893082204
Bridge of Orchy,BRO,3.0,56.5158728605762,-4.76299400728156,53.40631168010053,-2.984510383414912,364.39687252275155,372.0,99.5,VIRGIN WEST COAST,ANYTIME S,317.0,0.2730539351535944,0.2674731182795699,0.9795614852762139,1.0208649635893177
Bridgend,BGN,1.0,51.5069776497295,-3.57527638119945,53.40631168010053,-2.984510383414912,215.12957419660682,232.0,84.0,TRANSPORT FOR WALES RAIL,ANYTIME DAY S,1000.0,0.3904623542053425,0.3620689655172414,0.9272826473991673,1.0784198354242793
Bridgeton,BDG,2.0,55.8489676845822,-4.22605724682491,53.40631168010053,-2.984510383414912,283.4728635926499,231.0,76.3,VIRGIN WEST COAST,ANYTIME S,317.0,0.269161566412378,0.33030303030303027,1.2271552536478352,0.8148928157438966
Bridgwater,BWT,2.0,51.1278595271724,-2.99040597303838,53.40631168010053,-2.984510383414912,253.52912728936565,291.0,114.6,CROSSCOUNTRY,ANYTIME S,0.0,0.452019068677664,0.3938144329896907,0.8712341143964455,1.1477971115637018
Bridlington,BDT,1.0,54.0841300013586,-0.198720390714093,53.40631168010053,-2.984510383414912,198.65724863798619,231.0,76.5,TRANSPENNINE EXPRESS,ANYTIME DAY S,0.0,0.3850853695220869,0.33116883116883117,0.8599880893419315,1.1628068020863016
Brierfield,BRF,1.0,53.8239823807197,-2.23649020577414,53.40631168010053,-2.984510383414912,67.90742131700996,126.0,21.7,NORTHERN,ANYTIME DAY S,0.0,0.31955270247560436,0.17222222222222222,0.5389477882302378,1.8554673046970578
Brigg,BGG,1.0,53.5491442686681,-0.486124757673641,53.40631168010053,-2.984510383414912,166.6286250427322,223.0,37.3,EAST MIDLANDS TRAINS,ANYTIME S,0.0,0.22385109395480127,0.16726457399103137,0.7472135652140458,1.3383054678799111
Brighouse,BGH,1.0,53.6981985445311,-1.77943904000537,53.40631168010053,-2.984510383414912,86.22158867432137,121.0,31.7,TRANSPENNINE EXPRESS,ANYTIME DAY S,0.0,0.3676573406660151,0.26198347107438014,0.7125751130109204,1.403360827147881
Brighton (East Sussex),BTN,2.0,50.8290032740444,-0.141280362604851,53.40631168010053,-2.984510383414912,346.59335225374497,232.0,213.5,VIRGIN WEST COAST,ANYTIME S,0.0,0.6159956577692645,0.9202586206896551,1.493936863162694,0.669372330690723
Brimsdown,BMD,2.0,51.6555817179022,-0.0308174334464399,53.40631168010053,-2.984510383414912,279.47638491694556,181.0,167.5,VIRGIN WEST COAST,ANYTIME S,0.0,0.5993350745887794,0.925414364640884,1.5440684249555003,0.647639692540711
Brinnington,BNT,1.0,53.4321182782686,-2.13512015019042,53.40631168010053,-2.984510383414912,56.54447457061933,101.0,20.4,TRANSPENNINE EXPRESS,ANYTIME DAY S,0.0,0.3607779567307165,0.20198019801980197,0.5598462828774191,1.7862045896961944
Bristol Parkway,BPW,1.0,51.5138036668802,-2.54216343130652,53.40631168010053,-2.984510383414912,212.725222762608,187.0,88.55,CROSSCOUNTRY,ANYTIME S,0.0,0.41626469513122993,0.47352941176470587,1.1375680361636793,0.8790683002771316
Bristol Temple Meads,BRI,1.0,51.449146420501,-2.58131562733598,53.40631168010053,-2.984510383414912,219.5035062711272,197.0,88.55,CROSSCOUNTRY,ANYTIME S,0.0,0.40341041245429793,0.449492385786802,1.114230996300138,0.8974799689835877
Brithdir,BHD,2.0,51.7103060616454,-3.22872077880337,53.40631168010053,-2.984510383414912,189.45299570434898,282.0,82.7,TRANSPORT FOR WALES RAIL,ANYTIME DAY S,1000.0,0.4365198855396172,0.29326241134751774,0.6718191337033652,1.4884958612112702
Briton Ferry,BNF,1.0,51.6379005035521,-3.81925304025098,53.40631168010053,-2.984510383414912,204.77442385618227,254.0,84.0,TRANSPORT FOR WALES RAIL,ANYTIME DAY S,1000.0,0.41020747815164216,0.33070866141732286,0.8061985191188278,1.2403892791728228
Brixton,BRX,2.0,51.4632974069132,-0.114183479348404,53.40631168010053,-2.984510383414912,291.251756853557,177.0,191.0,VIRGIN WEST COAST,ANYTIME S,0.0,0.6557900356152558,1.07909604519774,1.6454901517150113,0.6077216560413627
Broad Green,BGE,0.0,53.4065063198581,-2.8934843782564,53.40631168010053,-2.984510383414912,6.05373228402824,15.0,2.5,NORTHERN,ANYTIME DAY S,83.0,0.412968377639664,0.16666666666666666,0.4035821522685493,2.477810265837984
Broadbottom,BDB,1.0,53.4409753914717,-2.01652101691897,53.40631168010053,-2.984510383414912,64.46525187784648,98.0,20.0,TRANSPENNINE EXPRESS,ANYTIME DAY S,0.0,0.31024465766297593,0.20408163265306123,0.6578086926310865,1.520198822548582
Broadstairs,BSR,2.0,51.3606706129939,1.43356042841681,53.40631168010053,-2.984510383414912,377.1253789958117,285.0,221.5,VIRGIN WEST COAST,ANYTIME S,0.0,0.587337825393236,0.7771929824561403,1.3232469438449532,0.7557168407994234
Brockenhurst,BCU,1.0,50.8168418133325,-1.57353117285741,53.40631168010053,-2.984510383414912,303.8947372262182,316.0,137.2,CROSSCOUNTRY,ANYTIME S,700.0,0.4514721158131435,0.4341772151898734,0.9616922064120829,1.0398337361293977
Brockholes,BHS,1.0,53.5969730380642,-1.76969142002127,53.40631168010053,-2.984510383414912,83.35607989478424,116.0,31.7,TRANSPENNINE EXPRESS,ANYTIME DAY S,0.0,0.3802961948308168,0.27327586206896554,0.7185868956446918,1.3916201451222319
Brockley,BCY,2.0,51.4646472014469,-0.0375366925196268,53.40631168010053,-2.984510383414912,294.6558992368339,214.0,191.0,VIRGIN WEST COAST,ANYTIME S,0.0,0.6482137316602001,0.8925233644859814,1.3768967254057658,0.7262708825931038
Bromborough,BOM,0.0,53.3218495381578,-2.98689585549247,53.40631168010053,-2.984510383414912,9.401395972935413,27.0,4.05,MERSEYRAIL,ANYTIME DAY S,0.0,0.4307870886046151,0.15,0.34819985084945976,2.8719139240307676
Bromborough Rake,BMR,0.0,53.3299093778849,-2.98946942122466,53.40631168010053,-2.984510383414912,8.509460737420534,25.0,4.05,MERSEYRAIL,ANYTIME DAY S,1000.0,0.4759408527722607,0.162,0.34037842949682134,2.9379064985942023
Bromley Cross (Lancs),BMC,1.0,53.6140430093272,-2.41089911446368,53.40631168010053,-2.984510383414912,44.527480226366386,82.0,11.7,TRANSPENNINE EXPRESS,ANYTIME DAY S,312.0,0.26275908586158875,0.14268292682926828,0.5430180515410535,1.8415594051837842
Bromley North,BMN,3.0,51.4083259856208,0.0169926357417391,53.40631168010053,-2.984510383414912,301.86053084761375,231.0,191.0,VIRGIN WEST COAST,ANYTIME S,0.0,0.632742543265523,0.8268398268398268,1.3067555447948647,0.765254070650973
Bromley South,BMS,2.0,51.3999745779484,0.0173440284479178,53.40631168010053,-2.984510383414912,302.57431709201603,213.0,191.0,VIRGIN WEST COAST,ANYTIME S,0.0,0.6312498755203829,0.8967136150234741,1.4205366999625166,0.7039592852661862
Bromsgrove,BMV,1.0,52.3222879772082,-2.04734524157192,53.40631168010053,-2.984510383414912,136.14479381191367,147.0,53.3,WEST MIDLANDS TRAINS,ANYTIME S,0.0,0.39149495553707947,0.3625850340136054,0.9261550599449909,1.0797328042017014
Brondesbury,BSY,2.0,51.5451643215911,-0.202308734122339,53.40631168010053,-2.984510383414912,280.36609813979027,199.0,162.5,VIRGIN WEST COAST,ANYTIME S,0.0,0.5795993205960931,0.8165829145728644,1.4088748650240717,0.7097862449146002
Brondesbury Park,BSP,2.0,51.5406977630272,-0.210127665126915,53.40631168010053,-2.984510383414912,280.382432097282,201.0,162.5,VIRGIN WEST COAST,ANYTIME S,0.0,0.5795655554611164,0.8084577114427861,1.394937473120806,0.7168780101395963
Brookmans Park,BPK,2.0,51.7210604040222,-0.204548729285783,53.40631168010053,-2.984510383414912,265.86804188612354,194.0,167.5,VIRGIN WEST COAST,ANYTIME S,0.0,0.630011786342277,0.8634020618556701,1.370453824155276,0.7296852928382193
Brookwood,BKO,2.0,51.3037572593507,-0.635747900032551,53.40631168010053,-2.984510383414912,283.4199135828851,225.0,175.5,VIRGIN WEST COAST,ANYTIME S,200.0,0.6192225443208869,0.78,1.2596440603683783,0.7938750568216498
Broome,BME,1.0,52.4227745962921,-2.88520796216339,53.40631168010053,-2.984510383414912,109.65620829632823,173.0,35.9,TRANSPORT FOR WALES RAIL,ANYTIME DAY S,1000.0,0.3273868443726053,0.207514450867052,0.6338509150076777,1.5776580522691008
Broomfleet,BMF,1.0,53.7402076992399,-0.671828400321333,53.40631168010053,-2.984510383414912,157.63743331136106,259.0,56.9,TRANSPENNINE EXPRESS,ANYTIME DAY S,0.0,0.36095487477021215,0.21969111969111968,0.6086387386539037,1.643010765649999
Brora,BRA,3.0,58.012954677959,-3.85228367382381,53.40631168010053,-2.984510383414912,515.7676239282628,605.0,205.5,LONDON NORTH EASTERN RAILWAY,ANYTIME S,0.0,0.39843524576987144,0.3396694214876033,0.8525084693029137,1.1730088744076508
Brough,BUH,1.0,53.726959736948,-0.578724236728498,53.40631168010053,-2.984510383414912,163.33270572993518,165.0,56.9,TRANSPENNINE EXPRESS,ANYTIME DAY S,0.0,0.34836868553492356,0.34484848484848485,0.9898951862420314,1.0102079633262282
Broughty Ferry,BYF,2.0,56.4671632427311,-2.87315275743822,53.40631168010053,-2.984510383414912,340.81558094359633,300.0,146.0,LONDON NORTH EASTERN RAILWAY,ANYTIME S,0.0,0.42838417068779033,0.4866666666666667,1.1360519364786545,0.8802414466187473
Broxbourne,BXB,2.0,51.7469087203036,-0.0110867237416249,53.40631168010053,-2.984510383414912,273.3255245260563,192.0,170.0,VIRGIN WEST COAST,ANYTIME S,0.0,0.6219689884242545,0.8854166666666666,1.4235704402398766,0.7024590928085698
Bruce Grove,BCV,2.0,51.5939575362971,-0.0698670703254643,53.40631168010053,-2.984510383414912,282.5321313732887,170.0,167.0,VIRGIN WEST COAST,ANYTIME S,0.0,0.591083213042963,0.9823529411764705,1.6619537139605216,0.601701474355112
Brundall,BDA,1.0,52.6194794445227,1.43929868679443,53.40631168010053,-2.984510383414912,309.49723534001714,689.0,107.1,VIRGIN WEST COAST,ANYTIME S,200.0,0.34604509433610525,0.15544267053701016,0.44919772908565625,2.2261911297626193
Brundall Gardens,BGA,1.0,52.623439277351,1.41841612253682,53.40631168010053,-2.984510383414912,308.0161222616127,386.0,107.1,VIRGIN WEST COAST,ANYTIME S,200.0,0.34770907189408384,0.27746113989637305,0.7979692286570277,1.2531811554726084
Brunstane,BSU,2.0,55.9425140850115,-3.10098653970798,53.40631168010053,-2.984510383414912,282.423477385672,241.0,127.5,LONDON NORTH EASTERN RAILWAY,ANYTIME S,0.0,0.4514497207535211,0.529045643153527,1.1718816489032033,0.8533284917772437
Brunswick,BRW,0.0,53.3832435421687,-2.97607735757102,53.40631168010053,-2.984510383414912,2.627915037243481,15.0,2.05,MERSEYRAIL,ANYTIME DAY S,0.0,0.7800861028407988,0.13666666666666666,0.17519433581623206,5.707947093957065
Bruton,BRU,2.0,51.1116412233567,-2.44707381432238,53.40631168010053,-2.984510383414912,257.9545551279513,302.0,113.45,CROSSCOUNTRY,ANYTIME S,700.0,0.43980615090796216,0.37566225165562916,0.854154156052819,1.1707488547748308
Bryn,BYN,0.0,53.4998691660173,-2.6472139954436,53.40631168010053,-2.984510383414912,24.70845600738043,42.0,6.8,NORTHERN,ANYTIME DAY S,303.0,0.2752094261967982,0.1619047619047619,0.5882965716042959,1.699822926509636
Buckenham (Norfolk),BUC,-999.0,52.5977342869752,1.47032522512213,53.40631168010053,-2.984510383414912,312.25409394803415,-999.0,112.3,VIRGIN WEST COAST,ANYTIME S,200.0,0.35964300285103434,-999.0,-999.0,-999.0
Buckley,BCK,1.0,53.163039091322,-3.05592619131988,53.40631168010053,-2.984510383414912,27.489978320828374,63.0,7.6,TRANSPORT FOR WALES RAIL,ANYTIME DAY S,1000.0,0.2764643868140738,0.12063492063492062,0.436348862235371,2.291744259116665
Bucknell,BUK,1.0,52.3573820377697,-2.94737831871819,53.40631168010053,-2.984510383414912,116.75588172107871,182.0,35.9,TRANSPORT FOR WALES RAIL,ANYTIME DAY S,1000.0,0.30747915626008876,0.19725274725274725,0.6415158336323006,1.558807978811592
Buckshaw Parkway,BSV,1.0,53.6733436562841,-2.6608302706882,53.40631168010053,-2.984510383414912,36.65708324937658,115.0,13.8,NORTHERN,ANYTIME DAY S,0.0,0.37646203071093204,0.12000000000000001,0.3187572456467529,3.137183589257767
Bugle,BGL,3.0,50.4003548175137,-4.79210144517706,53.40631168010053,-2.984510383414912,356.81762306959223,515.0,97.5,CROSSCOUNTRY,ANYTIME S,817.0,0.2732488355290232,0.18932038834951456,0.6928497535331888,1.4433143620250968
Builth Road,BHR,1.0,52.1693260878635,-3.42703322967269,53.40631168010053,-2.984510383414912,140.85414639861412,223.0,44.2,TRANSPORT FOR WALES RAIL,ANYTIME DAY S,1000.0,0.3137997789210619,0.19820627802690585,0.6316329434915431,1.583197979624362
Bulwell,BLW,1.0,52.9996957837852,-1.19623056375416,53.40631168010053,-2.984510383414912,127.77324876491545,243.0,55.8,EAST MIDLANDS TRAINS,ANYTIME S,0.0,0.4367111311591054,0.22962962962962963,0.5258158385387467,1.9018065389186851
Bures,BUE,3.0,51.9711590332091,0.769143780923498,53.40631168010053,-2.984510383414912,299.8232096836815,259.0,88.2,VIRGIN WEST COAST,ANYTIME S,200.0,0.2941733566692601,0.34054054054054056,1.1576185702072646,0.8638423965684622
Burgess Hill,BUG,2.0,50.9536546008005,-0.127412852764647,53.40631168010053,-2.984510383414912,335.60846714802153,247.0,209.0,VIRGIN WEST COAST,ANYTIME S,0.0,0.6227494847673782,0.8461538461538461,1.3587387333927998,0.7359766638159925
Burley Park,BUY,1.0,53.8120311080587,-1.57776768947798,53.40631168010053,-2.984510383414912,103.47951875529499,108.0,35.8,TRANSPENNINE EXPRESS,ANYTIME DAY S,0.0,0.34596218102500725,0.33148148148148143,0.9581436921786574,1.0436847919190164
Burley-in-Wharfedale,BUW,1.0,53.9081516997075,-1.75337211508043,53.40631168010053,-2.984510383414912,98.71330997991139,135.0,41.7,TRANSPENNINE EXPRESS,ANYTIME DAY S,0.0,0.42243543457803356,0.30888888888888894,0.7312097035548991,1.3675967306483099
Burnage,BNA,0.0,53.4211687602571,-2.21567840315285,53.40631168010053,-2.984510383414912,51.14894534024192,79.0,15.0,TRANSPENNINE EXPRESS,ANYTIME DAY S,0.0,0.29326117870505936,0.189873417721519,0.6474550043068598,1.5445088745133126
Burneside (Cumbria),BUD,1.0,54.3549826054845,-2.76667730640148,53.40631168010053,-2.984510383414912,106.55689060792608,154.0,34.9,NORTHERN,ANYTIME DAY S,0.0,0.32752457209373576,0.22662337662337662,0.691927861090429,1.4452373668319571
Burnham (Bucks),BNM,2.0,51.5235048795581,-0.646373823188634,53.40631168010053,-2.984510383414912,262.92838119257476,239.0,98.8,CROSSCOUNTRY,ANYTIME S,267.0,0.3757677263742655,0.41338912133891215,1.1001187497597271,0.9089927793871402
Burnham-on-Crouch,BUU,2.0,51.6336547723703,0.814027782561537,53.40631168010053,-2.984510383414912,324.5691211057681,238.0,205.5,VIRGIN WEST COAST,ANYTIME S,0.0,0.6331471068470289,0.8634453781512605,1.363735802965412,0.7332798609712549
Burnley Barracks,BUB,1.0,53.7908801067712,-2.25808600820696,53.40631168010053,-2.984510383414912,64.38028964486607,112.0,21.7,NORTHERN,ANYTIME DAY S,0.0,0.33705968270259934,0.19375,0.5748240146863042,1.739662878465029
Burnley Central,BNC,1.0,53.7935141377532,-2.24497131410056,53.40631168010053,-2.984510383414912,65.22360378570981,115.0,21.7,NORTHERN,ANYTIME DAY S,0.0,0.3327016408246115,0.18869565217391304,0.5671617720496506,1.7631653776419507
Burnley Manchester Road,BYM,1.0,53.784967519749,-2.24886752625716,53.40631168010053,-2.984510383414912,64.40751120303821,144.0,21.7,NORTHERN,ANYTIME DAY S,0.0,0.33691722587436934,0.15069444444444444,0.44727438335443204,2.235764079534986
Burnside (Strathclyde),BUI,2.0,55.8169313339993,-4.20239033426663,53.40631168010053,-2.984510383414912,279.62896777164025,284.0,77.9,VIRGIN WEST COAST,ANYTIME S,317.0,0.278583440838709,0.27429577464788735,0.9846090414494375,1.0156315429806593
Burntisland,BTS,2.0,56.0570842114504,-3.23319831966981,53.40631168010053,-2.984510383414912,295.5140974603826,251.0,133.5,LONDON NORTH EASTERN RAILWAY,ANYTIME S,0.0,0.45175509780171275,0.5318725099601593,1.1773470018341936,0.8493672625335573
Burscough Bridge,BCB,2.0,53.6052595050232,-2.84088028461687,53.40631168010053,-2.984510383414912,24.105767631329904,91.0,9.8,NORTHERN,ANYTIME DAY S,0.0,0.4065417102612027,0.1076923076923077,0.2648985453992297,3.7750301667111676
Burscough Junction,BCJ,1.0,53.5975223038556,-2.84060569626726,53.40631168010053,-2.984510383414912,23.32508017314453,49.0,6.9,NORTHERN,ANYTIME DAY S,198.0,0.2958189188967657,0.14081632653061224,0.4760220443498884,2.1007430472379016
Bursledon,BUO,2.0,50.8836886125224,-1.30503236047306,53.40631168010053,-2.984510383414912,303.3035265834563,303.0,128.8,CROSSCOUNTRY,ANYTIME S,700.0,0.42465711312644333,0.4250825082508251,1.0010017378991958,0.9989992645754062
Burton Joyce,BUJ,1.0,52.9834418843688,-1.04087761567102,53.40631168010053,-2.984510383414912,138.1582640368876,210.0,55.8,EAST MIDLANDS TRAINS,ANYTIME S,0.0,0.4038846346904132,0.2657142857142857,0.6578964954137505,1.5199959370069314
Burton-on-Trent,BUT,1.0,52.8058165084357,-1.64245997205794,53.40631168010053,-2.984510383414912,111.99912897625904,149.0,53.6,CROSSCOUNTRY,ANYTIME S,0.0,0.47857515044926674,0.3597315436241611,0.7516720065520741,1.3303674891220287
Bury St Edmunds,BSE,1.0,52.2537604920335,0.713306656862091,53.40631168010053,-2.984510383414912,280.2531440382012,363.0,88.2,VIRGIN WEST COAST,ANYTIME S,200.0,0.31471547019639323,0.24297520661157027,0.7720472287553751,1.2952575474069246
Busby,BUS,2.0,55.7803445376612,-4.26220173231044,53.40631168010053,-2.984510383414912,276.8601360808892,252.0,77.9,VIRGIN WEST COAST,ANYTIME S,317.0,0.28136950701071767,0.30912698412698414,1.0986513336543222,0.9102068776213202
Bush Hill Park,BHK,2.0,51.6415169536941,-0.0692211146516689,53.40631168010053,-2.984510383414912,278.7368059592993,179.0,167.5,VIRGIN WEST COAST,ANYTIME S,0.0,0.6009253045127383,0.9357541899441341,1.5571888601078174,0.642182862733016
Bushey,BSH,1.0,51.6457502336329,-0.385321269560704,53.40631168010053,-2.984510383414912,263.59462517080914,179.0,62.0,VIRGIN WEST COAST,ANYTIME S,200.0,0.23520965178946288,0.3463687150837989,1.4725956713453023,0.679073026940546
Butlers Lane,BUL,1.0,52.5924709448511,-1.83802031828625,53.40631168010053,-2.984510383414912,118.85673367595594,142.0,39.8,WEST MIDLANDS TRAINS,ANYTIME S,287.0,0.3348569220193144,0.28028169014084503,0.8370192512391263,1.1947156514256947
Buxted,BXD,2.0,50.9900108378352,0.131438921683175,53.40631168010053,-2.984510383414912,342.9744610686636,283.0,198.0,VIRGIN WEST COAST,ANYTIME S,0.0,0.5773024597314269,0.6996466431095406,1.2119238907019914,0.8251343237575445
Buxton,BUX,1.0,53.2607227045765,-1.91286358993768,53.40631168010053,-2.984510383414912,73.20658738499799,125.0,26.0,TRANSPENNINE EXPRESS,ANYTIME DAY S,0.0,0.3551592954779382,0.208,0.5856526990799839,1.7074966128747027
Byfleet & New Haw,BFN,2.0,51.3497957278428,-0.481389767596653,53.40631168010053,-2.984510383414912,285.30801077614325,209.0,110.55,VIRGIN WEST COAST,ANYTIME S,200.0,0.38747597622395225,0.5289473684210526,1.365110099407384,0.7325416465925466
Bynea,BYE,1.0,51.6720366859549,-4.09888164715589,53.40631168010053,-2.984510383414912,207.2622138880987,321.0,88.2,TRANSPORT FOR WALES RAIL,ANYTIME DAY S,1000.0,0.425547900629969,0.27476635514018694,0.6456766787791237,1.5487627675988667
Cadoxton,CAD,2.0,51.4122831697514,-3.24889594393883,53.40631168010053,-2.984510383414912,222.61346630073234,264.0,79.1,TRANSPORT FOR WALES RAIL,ANYTIME DAY S,1000.0,0.3553244164175695,0.2996212121212121,0.8432328268967134,1.1859120851357567
Caergwrle,CGW,1.0,53.1078664074892,-3.03291327418616,53.40631168010053,-2.984510383414912,33.37101526003575,74.0,10.5,TRANSPORT FOR WALES RAIL,ANYTIME DAY S,1000.0,0.31464430788758546,0.14189189189189189,0.45095966567615875,2.2174932174934594
Caerphilly,CPH,2.0,51.57158067131,-3.21848255919666,53.40631168010053,-2.984510383414912,204.77997250750295,275.0,82.7,TRANSPORT FOR WALES RAIL,ANYTIME DAY S,1000.0,0.4038480862525262,0.30072727272727273,0.7446544454818289,1.3429047608155347
Caersws,CWS,1.0,52.5161279090032,-3.43249879239218,53.40631168010053,-2.984510383414912,103.53695960009294,191.0,34.9,TRANSPORT FOR WALES RAIL,ANYTIME DAY S,1000.0,0.3370776980007888,0.18272251308900522,0.5420783225135756,1.8447518715802482
Caldercruix,CAC,2.0,55.8879475461776,-3.88771190821316,53.40631168010053,-2.984510383414912,282.32756513505416,345.0,132.0,LONDON NORTH EASTERN RAILWAY,ANYTIME S,0.0,0.46754201962835795,0.3826086956521739,0.8183407685074033,1.2219848240286628
Caldicot,CDT,1.0,51.5847930591881,-2.76057390572724,53.40631168010053,-2.984510383414912,203.26214353187683,216.0,69.4,TRANSPORT FOR WALES RAIL,ANYTIME DAY S,1000.0,0.34143101511234564,0.3212962962962963,0.9410284422772075,1.0626671363727183
Caledonian Rd & Barnsbury,CIR,2.0,51.5430392840645,-0.116729249835755,53.40631168010053,-2.984510383414912,284.49168080075634,160.0,162.5,VIRGIN WEST COAST,ANYTIME S,0.0,0.5711942069540051,1.015625,1.778073005004727,0.5624066037700974
Calstock,CSK,2.0,50.4978023671618,-4.20898850028348,53.40631168010053,-2.984510383414912,334.3760470203191,388.0,90.4,CROSSCOUNTRY,ANYTIME S,817.0,0.2703542936330803,0.2329896907216495,0.8617939356193791,1.1603701983366719
Cam & Dursley,CDU,2.0,51.71762106741,-2.35908298700462,53.40631168010053,-2.984510383414912,192.63897022499722,244.0,71.45,CROSSCOUNTRY,ANYTIME S,0.0,0.370901069064833,0.29282786885245904,0.7895039763319558,1.2666180665055178
Camberley,CAM,2.0,51.3363271281171,-0.744271720142327,53.40631168010053,-2.984510383414912,276.2569454177023,244.0,115.4,VIRGIN WEST COAST,ANYTIME S,200.0,0.4177270541579125,0.47295081967213115,1.1322005959741896,0.8832357124309415
Camborne,CBN,2.0,50.2104431448962,-5.2974123155278,53.40631168010053,-2.984510383414912,389.6751448949667,494.0,94.4,CROSSCOUNTRY,ANYTIME S,817.0,0.24225306960608084,0.1910931174089069,0.7888160827833334,1.2677226312013128
Cambridge,CBG,1.0,52.1940653655991,0.137456461171047,53.40631168010053,-2.984510383414912,250.03904184848216,274.0,192.0,CROSSCOUNTRY,ANYTIME S,0.0,0.7678800821687181,0.7007299270072993,0.9125512476221976,1.0958288672616079
Cambridge Heath,CBH,2.0,51.5319710950389,-0.0572790666047599,53.40631168010053,-2.984510383414912,288.1782941852686,197.0,167.0,VIRGIN WEST COAST,ANYTIME S,0.0,0.5795023545133361,0.8477157360406091,1.4628339806358812,0.6836045738869894
Cambuslang,CBL,2.0,55.8196110785266,-4.17300936139383,53.40631168010053,-2.984510383414912,279.38743854811844,220.0,76.3,VIRGIN WEST COAST,ANYTIME S,317.0,0.27309746063210705,0.3468181818181818,1.2699429024914475,0.7874369769208853
