Name,Code,Changes,lat,lon,terminal lat,terminal lon,linear distance,Journey time,fare,company,fare type,route code,cost per km,cost per min,speed (linear),minutes to travel 1km linear
Abbey Wood,ABW,2.0,51.4910605627019,0.121394025366647,53.47826324565094,-2.24163921811783,273.22124307145964,217.0,191.0,VIRGIN WEST COAST,ANYTIME S,0.0,0.6990671656890344,0.880184331797235,1.259084069453731,0.7942281411231438
Aber,ABE,1.0,51.5749691125956,-3.22982905106563,53.47826324565094,-2.24163921811783,222.15296241371308,248.0,81.6,TRANSPORT FOR WALES RAIL,ANYTIME DAY S,1000.0,0.3673144805876466,0.3290322580645161,0.895778074248843,1.1163479311977496
Abercynon,ACY,1.0,51.6447124034837,-3.32698855170195,53.47826324565094,-2.24163921811783,216.89705486243562,255.0,81.6,TRANSPORT FOR WALES RAIL,ANYTIME DAY S,1000.0,0.3762153435036443,0.31999999999999995,0.8505766857350416,1.1756729484488884
Aberdare,ABA,1.0,51.7150618291708,-3.44308409477462,53.47826324565094,-2.24163921811783,212.41820019497152,293.0,81.6,TRANSPORT FOR WALES RAIL,ANYTIME DAY S,1000.0,0.38414787398208866,0.2784982935153583,0.7249767924743056,1.3793544984896076
Aberdeen,ABD,1.0,57.1437058328662,-2.09868538622245,53.47826324565094,-2.24163921811783,408.17117341217477,389.0,126.0,TRANSPENNINE EXPRESS,ANYTIME S,307.0,0.30869401909665023,0.32390745501285345,1.0492832221392667,0.9530315351475946
Aberdour,AUR,1.0,56.0545955695197,-3.30056061487314,53.47826324565094,-2.24163921811783,294.77340736046284,254.0,71.0,VIRGIN WEST COAST,ANYTIME S,317.0,0.24086297551657312,0.2795275590551181,1.1605252258285939,0.8616788138198532
Aberdovey,AVY,1.0,52.5439615025967,-4.05706796158074,53.47826324565094,-2.24163921811783,160.17417919142943,222.0,48.6,TRANSPORT FOR WALES RAIL,ANYTIME DAY S,1000.0,0.3034196912719406,0.21891891891891893,0.7215053116731055,1.3859911823533086
Abererch,ABH,1.0,52.8985884658899,-4.37417647351973,53.47826324565094,-2.24163921811783,156.45851014727307,333.0,54.6,TRANSPORT FOR WALES RAIL,ANYTIME DAY S,1000.0,0.34897430602276275,0.16396396396396395,0.46984537581763686,2.1283597784904758
Abergavenny,AGV,0.0,51.8166930409601,-3.00964730040687,53.47826324565094,-2.24163921811783,192.06357077102064,157.0,63.7,TRANSPORT FOR WALES RAIL,ANYTIME DAY S,1000.0,0.3316610211102632,0.40573248407643314,1.2233348456752906,0.8174376815433488
Abergele & Pensarn,AGL,0.0,53.2945771647609,-3.58262268840784,53.47826324565094,-2.24163921811783,91.53453444895014,107.0,30.1,TRANSPORT FOR WALES RAIL,ANYTIME DAY S,1000.0,0.3288376368679421,0.28130841121495326,0.8554629387752349,1.1689577124541461
Aberystwyth,AYW,1.0,52.4140498933205,-4.08189442746786,53.47826324565094,-2.24163921811783,171.24503863578454,223.0,51.2,TRANSPORT FOR WALES RAIL,ANYTIME DAY S,1000.0,0.29898676427581417,0.2295964125560538,0.7679149714609173,1.302227508466925
Accrington,ACR,0.0,53.7529733751372,-2.36954810226505,53.47826324565094,-2.24163921811783,31.724762836257575,59.0,11.1,NORTHERN,ANYTIME DAY S,0.0,0.34988441228988604,0.188135593220339,0.5377078446823318,1.8597459752345293
Achanalt,AAT,2.0,57.6096018732679,-4.91385256332031,53.47826324565094,-2.24163921811783,489.81556703725045,594.0,135.0,VIRGIN WEST COAST,ANYTIME S,307.0,0.27561394346156676,0.22727272727272727,0.8246053317125428,1.2127013512308937
Achnasheen,ACN,2.0,57.5792959197415,-5.07233352893289,53.47826324565094,-2.24163921811783,490.2193897335744,603.0,135.0,VIRGIN WEST COAST,ANYTIME S,307.0,0.2753869039602251,0.22388059701492538,0.8129674788284816,1.230061504355672
Achnashellach,ACH,2.0,57.4820809030767,-5.33305678830677,53.47826324565094,-2.24163921811783,486.6020679705664,623.0,141.0,VIRGIN WEST COAST,ANYTIME S,307.0,0.28976448987990905,0.22632423756019263,0.78106270942306,1.2803069304622932
Acklington,ACK,1.0,55.3070993237817,-1.65183479633575,53.47826324565094,-2.24163921811783,207.14358056741378,223.0,77.1,TRANSPENNINE EXPRESS,ANYTIME DAY S,0.0,0.3722055966629785,0.34573991031390133,0.9288949801229317,1.0765479644078366
Acle,ACL,1.0,52.6346777628319,1.54391497575916,53.47826324565094,-2.24163921811783,270.5840659612628,308.0,107.1,VIRGIN WEST COAST,ANYTIME S,200.0,0.39581044663336745,0.3477272727272727,0.8785196946794247,1.1382784086188347
Acocks Green,ACG,2.0,52.4493240670217,-1.81897562150643,53.47826324565094,-2.24163921811783,117.97490380269704,131.0,45.35,CROSSCOUNTRY,ANYTIME S,0.0,0.38440378875700554,0.34618320610687026,0.9005717847534125,1.1104056521977448
Acton Bridge (Cheshire),ACB,1.0,53.2665097605329,-2.60312690733168,53.47826324565094,-2.24163921811783,33.678879908101464,72.0,14.4,NORTHERN,ANYTIME DAY S,0.0,0.4275676637492946,0.2,0.4677622209458537,2.1378383187464727
Acton Central,ACC,2.0,51.5087150057177,-0.262970693276422,53.47826324565094,-2.24163921811783,257.0648729755335,201.0,175.5,VIRGIN WEST COAST,ANYTIME S,0.0,0.6827070457685732,0.8731343283582089,1.2789297162961866,0.7819037960084514
Acton Main Line,AML,1.0,51.5171788796431,-0.266756440210259,53.47826324565094,-2.24163921811783,256.12128783644016,567.0,177.0,CROSSCOUNTRY,ANYTIME S,700.0,0.69107883024949,0.31216931216931215,0.451713029693898,2.2137948969009087
Adderley Park,ADD,1.0,52.4830872932844,-1.85594463679675,53.47826324565094,-2.24163921811783,113.73814872261705,116.0,45.35,CROSSCOUNTRY,ANYTIME S,0.0,0.39872286044147703,0.390948275862069,0.9805012820915263,1.0198864787477693
Addiewell,ADW,1.0,55.8434130805542,-3.60652712168835,53.47826324565094,-2.24163921811783,277.61037511288555,259.0,76.5,LONDON NORTH EASTERN RAILWAY,ANYTIME S,95.0,0.27556606977996617,0.2953667953667954,1.0718547301655812,0.9329622493204083
Addlestone,ASN,2.0,51.3730447500684,-0.48445679693337,53.47826324565094,-2.24163921811783,262.97277175821563,253.0,111.05,VIRGIN WEST COAST,ANYTIME S,0.0,0.42228706514947645,0.43893280632411064,1.0394180701905755,0.9620767895796266
Adisham,ADM,2.0,51.2411978022143,1.19908904695378,53.47826324565094,-2.24163921811783,341.8440454284458,292.0,220.5,VIRGIN WEST COAST,ANYTIME S,0.0,0.6450309810827308,0.7551369863013698,1.1706987857138553,0.8541906869667003
Adlington (Cheshire),ADC,0.0,53.3195557900317,-2.13356274381038,53.47826324565094,-2.24163921811783,19.070053954382878,30.0,8.1,NORTHERN,ANYTIME DAY S,325.0,0.42474971593556365,0.26999999999999996,0.635668465146096,1.5731470960576432
Adlington (Lancs),ADL,0.0,53.6132468473224,-2.6030711963325,53.47826324565094,-2.24163921811783,28.27898917345827,36.0,6.5,NORTHERN,ANYTIME DAY S,0.0,0.22985262875310572,0.18055555555555555,0.7855274770405075,1.2730299438633548
Adwick,AWK,1.0,53.5723210050351,-1.180356329611,53.47826324565094,-2.24163921811783,71.15733412052077,417.0,21.8,TRANSPENNINE EXPRESS,ANYTIME DAY S,79.0,0.30636336042433593,0.05227817745803357,0.17064108901803543,5.860253270502205
Aigburth,AIG,1.0,53.3645680055959,-2.92715540113816,53.47826324565094,-2.24163921811783,47.29808331847269,64.0,15.0,TRANSPENNINE EXPRESS,ANYTIME DAY S,0.0,0.3171375867178452,0.234375,0.7390325518511358,1.3531203699961394
Ainsdale,ANS,1.0,53.6020355257546,-3.04265252059266,53.47826324565094,-2.24163921811783,54.86152499940879,107.0,14.5,NORTHERN,ANYTIME DAY S,0.0,0.26430180349810284,0.13551401869158877,0.512724532704755,1.9503650327101383
Aintree,AIN,1.0,53.4739127558616,-2.95628079876913,53.47826324565094,-2.24163921811783,47.45188975441644,92.0,15.0,TRANSPENNINE EXPRESS,ANYTIME DAY S,0.0,0.31610964447635975,0.16304347826086957,0.5157814103740918,1.9388058194550066
Airbles,AIR,1.0,55.7828378389089,-3.99419330717581,53.47826324565094,-2.24163921811783,280.3726699120073,198.0,71.2,LONDON NORTH EASTERN RAILWAY,ANYTIME S,95.0,0.25394771902106417,0.35959595959595964,1.4160235854141785,0.7062029264911616
Airdrie,ADR,1.0,55.8639835131324,-3.98291292517007,53.47826324565094,-2.24163921811783,288.3325937072609,234.0,77.9,LONDON NORTH EASTERN RAILWAY,ANYTIME S,95.0,0.2701741034490555,0.33290598290598294,1.2321905713985508,0.8115627754438894
Albany Park,AYP,2.0,51.4354507399114,0.12573706592842,53.47826324565094,-2.24163921811783,278.47951040800973,221.0,191.0,VIRGIN WEST COAST,ANYTIME S,0.0,0.6858673362365492,0.8642533936651584,1.2600882823891844,0.793595190095693
Albrighton,ALB,1.0,52.6379442676754,-2.26890024505565,53.47826324565094,-2.24163921811783,93.5347369550381,98.0,40.05,CROSSCOUNTRY,ANYTIME S,0.0,0.4281831681341225,0.40867346938775506,0.9544360913779398,1.0477390880685145
Alderley Edge,ALD,0.0,53.3037821045932,-2.23679936267512,53.47826324565094,-2.24163921811783,19.421306768837432,32.0,7.6,NORTHERN,ANYTIME DAY S,0.0,0.39132279256278585,0.2375,0.6069158365261698,1.6476749160538353
Aldermaston,AMT,1.0,51.4019618556841,-1.1374239270022,53.47826324565094,-2.24163921811783,242.9297743234661,240.0,105.8,CROSSCOUNTRY,ANYTIME S,700.0,0.4355168084877281,0.4408333333333333,1.012207393014442,0.9879398302179089
Aldershot,AHT,2.0,51.2464179114788,-0.759859888333875,53.47826324565094,-2.24163921811783,268.0620308802287,240.0,115.9,CROSSCOUNTRY,ANYTIME S,700.0,0.432362612561809,0.4829166666666667,1.1169251286676196,0.8953151597483534
Aldrington,AGT,3.0,50.8363824121951,-0.183821512855377,53.47826324565094,-2.24163921811783,325.9219961196384,262.0,213.5,VIRGIN WEST COAST,ANYTIME S,0.0,0.65506471653306,0.8148854961832062,1.2439770844261007,0.803873328953919
Alexandra Palace,AAP,2.0,51.5979224924556,-0.120235220128854,53.47826324565094,-2.24163921811783,253.9433692517985,181.0,189.5,VIRGIN WEST COAST,ANYTIME S,0.0,0.7462293682183155,1.0469613259668509,1.403002040065185,0.7127573385093146
Alexandra Parade,AXP,2.0,55.8631759802332,-4.21064896878422,53.47826324565094,-2.24163921811783,294.28111487183736,239.0,71.2,LONDON NORTH EASTERN RAILWAY,ANYTIME S,95.0,0.24194552895794344,0.297907949790795,1.2313017358654283,0.8121486154627595
Alexandria,ALX,2.0,55.9850887680667,-4.57748537031666,53.47826324565094,-2.24163921811783,316.99846479260066,318.0,78.9,VIRGIN WEST COAST,ANYTIME S,275.0,0.2488971044437742,0.24811320754716984,0.9968505182157253,1.0031594323589377
Alfreton,ALF,0.0,53.1004322999438,-1.36969621564025,53.47826324565094,-2.24163921811783,71.75788198269838,93.0,30.1,EAST MIDLANDS TRAINS,ANYTIME S,0.0,0.41946611533569855,0.32365591397849464,0.7715901288462191,1.2960248746252478
Allens West,ALW,1.0,54.5246233650745,-1.36111683481751,53.47826324565094,-2.24163921811783,129.9894203720157,145.0,55.4,TRANSPENNINE EXPRESS,ANYTIME DAY S,0.0,0.4261885301238453,0.38206896551724134,0.8964787611863152,1.115475394728476
Alloa,ALO,2.0,56.1177936041036,-3.79005640302655,53.47826324565094,-2.24163921811783,310.22880824116146,287.0,92.5,VIRGIN WEST COAST,ANYTIME S,275.0,0.2981670223485293,0.32229965156794427,1.080936614080702,0.925123626097599
Alness,ASS,2.0,57.6943991747966,-4.24971726526612,53.47826324565094,-2.24163921811783,486.12259376168527,604.0,132.5,VIRGIN WEST COAST,ANYTIME S,307.0,0.27256499019042973,0.21937086092715233,0.8048387313935187,1.242484936415242
Alnmouth,ALM,1.0,55.3927786386397,-1.63663783937358,53.47826324565094,-2.24163921811783,216.6940841702944,195.0,77.1,TRANSPENNINE EXPRESS,ANYTIME DAY S,0.0,0.3558011299441339,0.39538461538461533,1.1112517136938174,0.8998861263178484
Alresford (Essex),ALR,2.0,51.8539974379073,0.997436403040026,53.47826324565094,-2.24163921811783,284.01185098278506,267.0,88.2,VIRGIN WEST COAST,ANYTIME S,200.0,0.3105504213813462,0.3303370786516854,1.0637147976883337,0.9401016157462521
Alsager,ASG,1.0,53.0930054110113,-2.29905784069112,53.47826324565094,-2.24163921811783,43.04664388426758,98.0,13.1,NORTHERN,ANYTIME DAY S,0.0,0.30432105311670316,0.1336734693877551,0.43925146820681205,2.2766002446898406
Althorne (Essex),ALN,2.0,51.6478675266105,0.75248341471277,53.47826324565094,-2.24163921811783,287.5494998802861,230.0,205.5,VIRGIN WEST COAST,ANYTIME S,0.0,0.7146595632597333,0.8934782608695652,1.250215216870809,0.7998622849135701
Althorpe,ALP,1.0,53.5855003548442,-0.733182290833722,53.47826324565094,-2.24163921811783,100.73225394405159,129.0,37.0,TRANSPENNINE EXPRESS,ANYTIME DAY S,0.0,0.36731035543541424,0.2868217054263566,0.7808701856128031,1.28062259057212
Altnabreac,ABC,2.0,58.3881525009701,-3.7062809681672,53.47826324565094,-2.24163921811783,554.2448462041107,745.0,144.0,VIRGIN WEST COAST,ANYTIME S,307.0,0.2598129707226351,0.19328859060402684,0.7439528136967929,1.3441712721414107
Alton,AON,2.0,51.1519686627366,-0.966913302570746,53.47826324565094,-2.24163921811783,273.04931179850365,254.0,122.4,CROSSCOUNTRY,ANYTIME S,700.0,0.4482706775336058,0.4818897637795276,1.07499729054529,0.9302349027249661
Altrincham,ALT,0.0,53.3877187203289,-2.34688910433965,53.47826324565094,-2.24163921811783,12.267108111266593,30.0,4.5,GREATER MANCHESTER PTE,ANYTIME DAY S,325.0,0.36683462468770645,0.15,0.4089036037088864,2.4455641645847095
Alvechurch,ALV,1.0,52.3460721156993,-1.96766073187852,53.47826324565094,-2.24163921811783,127.33617288288781,142.0,48.3,CROSSCOUNTRY,ANYTIME S,0.0,0.3793109130460669,0.3401408450704225,0.8967336118513226,1.1151583778994099
Ambergate,AMB,2.0,53.0605170840145,-1.48069758186533,53.47826324565094,-2.24163921811783,68.8393212201494,147.0,39.0,EAST MIDLANDS TRAINS,ANYTIME S,0.0,0.566536672772779,0.2653061224489796,0.4682947021778871,2.1354074589127823
Amberley,AMY,2.0,50.8966791881016,-0.541992407726222,53.47826324565094,-2.24163921811783,309.8595527679365,277.0,209.0,VIRGIN WEST COAST,ANYTIME S,0.0,0.6744991339883802,0.7545126353790613,1.1186265442885794,0.8939533976783796
Amersham,AMR,2.0,51.6742050968552,-0.607596139216709,53.47826324565094,-2.24163921811783,229.27312466388793,232.0,88.55,VIRGIN WEST COAST,ANYTIME S,0.0,0.38622058354991845,0.3816810344827586,0.9882462269995169,1.0118935672905824
Ammanford,AMF,1.0,51.7959795450084,-3.99673575596767,53.47826324565094,-2.24163921811783,221.7113059777144,341.0,52.1,TRANSPORT FOR WALES RAIL,ANYTIME DAY S,1000.0,0.23499027156168978,0.1527859237536657,0.6501797829258487,1.5380361344056854
Ancaster,ANC,1.0,52.9876865844111,-0.535623734022494,53.47826324565094,-2.24163921811783,126.3224232785934,201.0,54.0,EAST MIDLANDS TRAINS,ANYTIME S,0.0,0.42747754989553655,0.26865671641791045,0.628469767555191,1.591166435722275
Anderston,AND,1.0,55.8599021238713,-4.27098003165416,53.47826324565094,-2.24163921811783,295.65576807643475,228.0,71.2,LONDON NORTH EASTERN RAILWAY,ANYTIME S,95.0,0.24082060182094245,0.312280701754386,1.2967358248966436,0.7711670957187483
Andover,ADV,1.0,51.2115476149434,-1.49223307188506,53.47826324565094,-2.24163921811783,257.3407211207902,259.0,124.7,CROSSCOUNTRY,ANYTIME S,700.0,0.48457158065345013,0.4814671814671815,0.9935935178408888,1.0064477898094915
Anerley,ANZ,2.0,51.4121513855632,-0.0658859220340606,53.47826324565094,-2.24163921811783,273.36384385131413,207.0,191.0,VIRGIN WEST COAST,ANYTIME S,0.0,0.6987024959448814,0.9227053140096618,1.3205982794749476,0.7572325479612065
Angel Road,AGR,2.0,51.61240330726,-0.0487914234374522,53.47826324565094,-2.24163921811783,255.39486780758517,192.0,189.5,VIRGIN WEST COAST,ANYTIME S,0.0,0.7419882851474117,0.9869791666666666,1.3301816031645062,0.7517770488037099
Angmering,ANG,2.0,50.8165743892467,-0.489394019247872,53.47826324565094,-2.24163921811783,319.5077106708005,275.0,220.5,VIRGIN WEST COAST,ANYTIME S,0.0,0.6901241899203757,0.8018181818181818,1.1618462206210929,0.8606991030752985
Annan,ANN,1.0,54.9838388790739,-3.2625810423293,53.47826324565094,-2.24163921811783,180.32018571153287,185.0,57.7,VIRGIN WEST COAST,ANYTIME S,275.0,0.3199863607744146,0.3118918918918919,0.9747037065488263,1.0259528031761993
Anniesland,ANL,1.0,55.8893555064876,-4.32195784208586,53.47826324565094,-2.24163921811783,300.0325391251866,238.0,76.3,VIRGIN WEST COAST,ANYTIME S,275.0,0.2543057503778426,0.3205882352941176,1.2606409206940612,0.7932472947565733
Ansdell & Fairhaven,AFV,1.0,53.7414654744213,-2.99303444657805,53.47826324565094,-2.24163921811783,57.71858698711097,91.0,20.5,NORTHERN,ANYTIME DAY S,317.0,0.3551715499303165,0.22527472527472528,0.6342701866715491,1.576615172861405
Apperley Bridge,APY,1.0,53.8417501065548,-1.70582867126391,53.47826324565094,-2.24163921811783,53.77109703498214,103.0,26.8,TRANSPENNINE EXPRESS,ANYTIME DAY S,0.0,0.4984090241373462,0.26019417475728157,0.5220494857765257,1.915527219632338
Appleby,APP,1.0,54.5803488158896,-2.48669258391647,53.47826324565094,-2.24163921811783,123.71462632049487,188.0,42.2,NORTHERN,ANYTIME DAY S,0.0,0.34110760590810635,0.224468085106383,0.6580565229813558,1.5196263012019902
Appledore (Kent),APD,3.0,51.0332342031393,0.816341504124954,53.47826324565094,-2.24163921811783,342.89495932452184,229.0,220.5,VIRGIN WEST COAST,ANYTIME S,0.0,0.6430540724027235,0.962882096069869,1.4973579009804447,0.6678430048989736
Appleford,APF,1.0,51.6396415502262,-1.24214153179695,53.47826324565094,-2.24163921811783,215.52888490935703,227.0,93.3,CROSSCOUNTRY,ANYTIME S,0.0,0.4328886127687169,0.41101321585903083,0.9494664533451852,1.0532230985905544
Appley Bridge,APB,0.0,53.5786734960166,-2.71925251339081,53.47826324565094,-2.24163921811783,33.58635633821334,48.0,7.3,GREATER MANCHESTER PTE,ANYTIME DAY S,327.0,0.21735016226497675,0.15208333333333332,0.6997157570461113,1.429151751879299
Apsley,APS,1.0,51.7325208234117,-0.462934812195194,53.47826324565094,-2.24163921811783,228.58681008608812,155.0,174.0,VIRGIN WEST COAST,ANYTIME S,700.0,0.761198775793187,1.1225806451612903,1.474753613458633,0.6780793692410574
Arbroath,ARB,1.0,56.5595762979872,-2.58893177406225,53.47826324565094,-2.24163921811783,343.7407487791285,332.0,98.5,VIRGIN WEST COAST,ANYTIME S,307.0,0.2865531664483905,0.29668674698795183,1.0353637011419534,0.9658441752372147
Ardgay,ARD,2.0,57.8814576101148,-4.36209023833324,53.47826324565094,-2.24163921811783,507.9915724492496,646.0,142.0,VIRGIN WEST COAST,ANYTIME S,307.0,0.2795321964011251,0.21981424148606812,0.7863646632341325,1.2716746399656818
Ardlui,AUI,2.0,56.3019723653141,-4.72165858161935,53.47826324565094,-2.24163921811783,352.2724066346204,358.0,93.3,VIRGIN WEST COAST,ANYTIME S,275.0,0.2648518539709852,0.2606145251396648,0.9840011358508949,1.0162589895135339
Ardrossan Harbour,ADS,1.0,55.6398782290401,-4.82111163323781,53.47826324565094,-2.24163921811783,292.77997666563857,291.0,80.4,VIRGIN WEST COAST,ANYTIME S,275.0,0.27460894326055174,0.27628865979381445,1.0061167583011634,0.9939204289654298
Ardrossan South Beach,ASB,1.0,55.641422142645,-4.80121264089138,53.47826324565094,-2.24163921811783,292.1887187372397,257.0,80.4,VIRGIN WEST COAST,ANYTIME S,275.0,0.27516462766758065,0.31284046692607004,1.1369210845806992,0.8795685237632863
Ardrossan Town,ADN,1.0,55.6397124556587,-4.81267645169651,53.47826324565094,-2.24163921811783,292.45462228464885,289.0,80.4,VIRGIN WEST COAST,ANYTIME S,275.0,0.27491444440821977,0.27820069204152253,1.0119537103275047,0.9881874929598944
Ardwick,ADK,0.0,53.471345820655,-2.21388417456067,53.47826324565094,-2.24163921811783,1.9972364431749194,4.0,2.4,GREATER MANCHESTER PTE,ANYTIME DAY S,1000.0,1.2016604284392212,0.6,0.49930911079372986,2.002767380732035
Argyle Street,AGS,1.0,55.8573090626122,-4.25069486323156,53.47826324565094,-2.24163921811783,294.8216670830245,218.0,71.2,LONDON NORTH EASTERN RAILWAY,ANYTIME S,95.0,0.24150192455139133,0.326605504587156,1.3523929682707547,0.7394300498904959
Arisaig,ARG,2.0,56.9125537431151,-5.83907949880085,53.47826324565094,-2.24163921811783,445.5727304272989,608.0,119.7,VIRGIN WEST COAST,ANYTIME S,275.0,0.26864301117622064,0.196875,0.7328498855712153,1.3645359297839779
Arlesey,ARL,2.0,52.0260300130868,-0.266319838272065,53.47826324565094,-2.24163921811783,209.52042264270526,206.0,204.5,VIRGIN WEST COAST,ANYTIME S,0.0,0.9760385046031214,0.9927184466019418,1.0170894303043945,0.9831977112383521
Armadale (West Lothian),ARM,1.0,55.8857140292087,-3.69541334262219,53.47826324565094,-2.24163921811783,283.905790835651,239.0,77.9,LONDON NORTH EASTERN RAILWAY,ANYTIME S,95.0,0.2743867948966747,0.32594142259414227,1.187890338224481,0.8418285491695155
Armathwaite,AWT,1.0,54.8094679848183,-2.77207147292765,53.47826324565094,-2.24163921811783,152.1726308035478,161.0,57.7,VIRGIN WEST COAST,ANYTIME S,307.0,0.3791746235529679,0.3583850931677019,0.9451716198978124,1.0580089149398237
Arnside,ARN,0.0,54.2027315043991,-2.82824189170434,53.47826324565094,-2.24163921811783,89.40277062403347,84.0,23.9,NORTHERN,ANYTIME DAY S,317.0,0.26732952271140403,0.2845238095238095,1.0643186979051602,0.9395681969773196
Arram,ARR,1.0,53.8843427696163,-0.426570132093475,53.47826324565094,-2.24163921811783,128.1607045593665,158.0,53.2,TRANSPENNINE EXPRESS,ANYTIME DAY S,0.0,0.41510383532073,0.3367088607594937,0.811143699742826,1.2328271800878823
Arrochar & Tarbet,ART,2.0,56.2039766194239,-4.72277124702392,53.47826324565094,-2.24163921811783,342.6978754106795,344.0,93.3,VIRGIN WEST COAST,ANYTIME S,275.0,0.27225146898909686,0.2712209302325581,0.9962147541008125,1.0037996284271096
Arundel,ARU,2.0,50.84821399905,-0.546174298416944,53.47826324565094,-2.24163921811783,314.78132946460363,281.0,220.5,VIRGIN WEST COAST,ANYTIME S,0.0,0.7004862720893829,0.7846975088967971,1.1202182543224328,0.8926831857465605
Ascot (Berks),ACT,1.0,51.406243053303,-0.675833255037063,53.47826324565094,-2.24163921811783,253.9470541097351,235.0,198.0,VIRGIN WEST COAST,ANYTIME S,0.0,0.779690084195427,0.8425531914893617,1.0806257621690856,0.9253897463935623
Ascott-under-Wychwood,AUW,2.0,51.8673416456497,-1.56405280921503,53.47826324565094,-2.24163921811783,185.02789691830972,241.0,75.65,CROSSCOUNTRY,ANYTIME S,0.0,0.40885726563383934,0.3139004149377594,0.7677506096195424,1.3025062923695345
Ash,ASH,1.0,51.2495967734882,-0.712805474371656,53.47826324565094,-2.24163921811783,268.95690250145867,251.0,115.9,CROSSCOUNTRY,ANYTIME S,700.0,0.43092405854641125,0.4617529880478088,1.071541444228919,0.9332350189400278
Ash Vale,AHV,2.0,51.2722464128127,-0.72164859629209,53.47826324565094,-2.24163921811783,266.390756911926,261.0,115.9,CROSSCOUNTRY,ANYTIME S,700.0,0.43507515554797876,0.44406130268199234,1.0206542410418622,0.9797637238828512
Ashburys,ABY,0.0,53.471639721401,-2.19443661452133,53.47826324565094,-2.24163921811783,3.2196910594532357,6.0,2.4,GREATER MANCHESTER PTE,ANYTIME DAY S,1000.0,0.7454131330251186,0.39999999999999997,0.5366151765755393,1.8635328325627967
Ashchurch for Tewkesbury,ASC,1.0,51.9989057939667,-2.10876020926952,53.47826324565094,-2.24163921811783,164.86923665881312,155.0,66.8,CROSSCOUNTRY,ANYTIME S,0.0,0.40516958380924967,0.4309677419354839,1.0636724945729878,0.9401390043478098
Ashfield,ASF,2.0,55.8889269328418,-4.24921509407071,53.47826324565094,-2.24163921811783,297.923770386947,247.0,76.3,VIRGIN WEST COAST,ANYTIME S,275.0,0.2561057813577635,0.3089068825910931,1.206169110878328,0.8290711401751978
Ashford (Surrey),AFS,1.0,51.4365062586203,-0.468070995385795,53.47826324565094,-2.24163921811783,257.18429231647264,258.0,105.8,VIRGIN WEST COAST,ANYTIME S,0.0,0.411378156290393,0.41007751937984493,0.9968383423119095,1.0031716854718469
Ashford International,AFK,2.0,51.1437026741936,0.876197214386404,53.47826324565094,-2.24163921811783,335.6389862884147,216.0,213.5,VIRGIN WEST COAST,ANYTIME S,0.0,0.6361001216245463,0.9884259259259259,1.5538841957796976,0.6435486008004777
Ashford International (Eurostar),ASI,-999.0,nan,nan,53.47826324565094,-2.24163921811783,-999.0,-999.0,-999.0,N/A,no route found,-998.0,-999.0,-999.0,-999.0,-999.0
Ashley,ASY,0.0,53.3557258053839,-2.34146074338483,53.47826324565094,-2.24163921811783,15.166946834523584,38.0,6.4,NORTHERN,ANYTIME DAY S,325.0,0.4219702270882941,0.16842105263157894,0.3991301798558838,2.5054482233367463
Ashtead,AHD,2.0,51.317872587997,-0.307571763628547,53.47826324565094,-2.24163921811783,274.0586130132389,221.0,194.5,VIRGIN WEST COAST,ANYTIME S,0.0,0.7097021978674478,0.8800904977375565,1.2400842217793617,0.8063968417928328
Ashton-under-Lyne,AHN,0.0,53.4912746360398,-2.09431253377749,53.47826324565094,-2.24163921811783,9.88658952962641,10.0,4.1,GREATER MANCHESTER PTE,ANYTIME DAY S,1000.0,0.4147031681363764,0.41,0.988658952962641,1.0114711417960403
Ashurst (Kent),AHS,2.0,51.1286608253579,0.152652111896866,53.47826324565094,-2.24163921811783,308.2264437941585,249.0,196.5,VIRGIN WEST COAST,ANYTIME S,200.0,0.637518304987575,0.7891566265060241,1.2378572039926046,0.8078476231140264
Ashurst New Forest,ANF,1.0,50.8898511647037,-1.52663085660955,53.47826324565094,-2.24163921811783,292.13280684770956,284.0,128.8,CROSSCOUNTRY,ANYTIME S,700.0,0.44089536327614226,0.45352112676056344,1.0286366438299632,0.9721605836213074
Ashwell & Morden,AWM,2.0,52.0307706434447,-0.109788918120069,53.47826324565094,-2.24163921811783,216.00013552239247,234.0,102.9,VIRGIN WEST COAST,ANYTIME S,200.0,0.47638858999388217,0.4397435897435898,0.9230775022324464,1.0833326536304024
Askam,ASK,1.0,54.1889331625586,-3.20451175494515,53.47826324565094,-2.24163921811783,101.36499872318538,204.0,33.4,NORTHERN,ANYTIME DAY S,317.0,0.32950229784159574,0.16372549019607843,0.4968872486430656,2.012529004781004
Aslockton,ALK,1.0,52.9515495737311,-0.898097621841918,53.47826324565094,-2.24163921811783,107.1965982857085,159.0,54.0,EAST MIDLANDS TRAINS,ANYTIME S,0.0,0.503747328400059,0.33962264150943394,0.6741924420484812,1.4832560225112847
Aspatria,ASP,1.0,54.7589599137074,-3.33187421074512,53.47826324565094,-2.24163921811783,159.37816566552587,210.0,58.9,NORTHERN,ANYTIME DAY S,0.0,0.36956128685536943,0.2804761904761905,0.7589436460263137,1.317620886920672
Aspley Guise,APG,2.0,52.0212361960308,-0.632334507265971,53.47826324565094,-2.24163921811783,195.17614772247148,184.0,113.5,VIRGIN WEST COAST,ANYTIME S,0.0,0.5815259770440292,0.6168478260869565,1.0607399332743015,0.9427381478070606
Aston,AST,1.0,52.5042320347358,-1.8719337575538,53.47826324565094,-2.24163921811783,111.20232907334882,116.0,45.35,CROSSCOUNTRY,ANYTIME S,0.0,0.4078151993569059,0.390948275862069,0.9586407678736968,1.0431436190827141
Atherstone,ATH,1.0,52.5789720633612,-1.55281147568713,53.47826324565094,-2.24163921811783,110.23350046786892,113.0,38.5,VIRGIN WEST COAST,ANYTIME S,0.0,0.34925861772140726,0.3407079646017699,0.9755177032554772,1.0250967221433511
Atherton,ATN,0.0,53.5291462480773,-2.47897234425216,53.47826324565094,-2.24163921811783,16.735113760620717,29.0,5.3,GREATER MANCHESTER PTE,ANYTIME DAY S,1000.0,0.3166993709042716,0.18275862068965518,0.5770728882972661,1.7328833502309202
Attadale,ATT,2.0,57.3950433711996,-5.4555786528295,53.47826324565094,-2.24163921811783,481.0494086225691,639.0,147.5,LONDON NORTH EASTERN RAILWAY,ANYTIME S,95.0,0.3066213103189331,0.23082942097026604,0.7528159759351629,1.3283458799579542
Attenborough,ATB,1.0,52.9062133028873,-1.23141560765685,53.47826324565094,-2.24163921811783,92.80046034168676,182.0,45.3,EAST MIDLANDS TRAINS,ANYTIME S,0.0,0.4881441302468502,0.24890109890109888,0.5098926392400371,1.9611971678791775
Attleborough,ATL,0.0,52.5145445883409,1.02234755537498,53.47826324565094,-2.24163921811783,243.95693618935329,276.0,88.2,EAST MIDLANDS TRAINS,ANYTIME S,700.0,0.3615392182640848,0.31956521739130433,0.8839019427150482,1.1313472136155034
Auchinleck,AUK,1.0,55.4702784722357,-4.29535018687193,53.47826324565094,-2.24163921811783,258.6122473559838,351.0,71.2,VIRGIN WEST COAST,ANYTIME S,93.0,0.27531565394887153,0.20284900284900287,0.7367870295042274,1.3572443052816558
Audley End,AUD,1.0,52.0044405435161,0.207160027997398,53.47826324565094,-2.24163921811783,232.89404217980112,285.0,212.5,VIRGIN WEST COAST,ANYTIME S,0.0,0.9124321000703989,0.7456140350877193,0.8171720778238636,1.2237324636238291
Aughton Park,AUG,1.0,53.5542504500956,-2.89522128047861,53.47826324565094,-2.24163921811783,44.17147550654634,106.0,19.5,TRANSPENNINE EXPRESS,ANYTIME DAY S,0.0,0.4414613679162709,0.18396226415094338,0.4167120330806258,2.3997387179038316
Aviemore,AVM,1.0,57.1885162452285,-3.82886797624022,53.47826324565094,-2.24163921811783,425.134413736771,472.0,119.0,VIRGIN WEST COAST,ANYTIME S,307.0,0.27991147306574155,0.2521186440677966,0.9007085036795996,1.110237103252353
Avoncliff,AVF,1.0,51.3396528744674,-2.28132558221387,53.47826324565094,-2.24163921811783,237.98934831919235,231.0,102.2,CROSSCOUNTRY,ANYTIME S,700.0,0.42943098387297957,0.44242424242424244,1.0302569191307027,0.9706316758772825
Avonmouth,AVN,1.0,51.5003648679963,-2.69946651797304,53.47826324565094,-2.24163921811783,222.2787120673949,235.0,97.45,CROSSCOUNTRY,ANYTIME S,0.0,0.4384135533881138,0.4146808510638298,0.945866859861255,1.0572312472673857
Axminster,AXM,1.0,50.7792744117621,-3.00472359764506,53.47826324565094,-2.24163921811783,304.8233909479662,379.0,150.8,CROSSCOUNTRY,ANYTIME S,700.0,0.49471269094877895,0.3978891820580475,0.8042833534247129,1.2433429036444774
Aylesbury,AYS,1.0,51.8138902206829,-0.815095998270687,53.47826324565094,-2.24163921811783,208.85791914525956,489.0,74.45,VIRGIN WEST COAST,ANYTIME S,0.0,0.3564624233770156,0.15224948875255626,0.42711230909051034,2.341304567244602
Aylesbury Vale Parkway,AVP,2.0,51.8311587338339,-0.860182437861177,53.47826324565094,-2.24163921811783,205.74384826408087,254.0,74.45,VIRGIN WEST COAST,ANYTIME S,0.0,0.3618577207928973,0.29311023622047244,0.8100151506459876,1.2345448096896696
Aylesford,AYL,3.0,51.3013153585378,0.466170568242092,53.47826324565094,-2.24163921811783,304.3601169293009,235.0,205.5,VIRGIN WEST COAST,ANYTIME S,0.0,0.6751870188291954,0.874468085106383,1.295149433741706,0.7721116760333865
Aylesham,AYH,2.0,51.2272505439136,1.2094526827124,53.47826324565094,-2.24163921811783,343.48253830160024,294.0,220.5,VIRGIN WEST COAST,ANYTIME S,0.0,0.6419540308811463,0.75,1.1683079534068035,0.8559387078415284
Ayr,AYR,1.0,55.4581477383334,-4.62587677242484,53.47826324565094,-2.24163921811783,269.16519153396575,279.0,71.2,VIRGIN WEST COAST,ANYTIME S,93.0,0.2645215735148849,0.25519713261648747,0.9647497904443217,1.0365381883518665
Bache,BAC,1.0,53.2087886904783,-2.89167051075084,53.47826324565094,-2.24163921811783,52.666681241637214,91.0,18.6,TRANSPORT FOR WALES RAIL,ANYTIME DAY S,1000.0,0.3531644592273116,0.20439560439560442,0.5787547389190902,1.727847623101363
Baglan,BAJ,0.0,51.615545271975,-3.81113654529303,53.47826324565094,-2.24163921811783,233.01111775457085,245.0,81.6,TRANSPORT FOR WALES RAIL,ANYTIME DAY S,1000.0,0.3501978823428879,0.3330612244897959,0.9510657867533504,1.051451975171661
Bagshot,BAG,2.0,51.3643669407293,-0.688661997063008,53.47826324565094,-2.24163921811783,257.84609732925196,272.0,115.9,VIRGIN WEST COAST,ANYTIME S,0.0,0.4494929386191313,0.42610294117647063,0.9479635931222499,1.0548928326523184
Baildon,BLD,2.0,53.8502255005868,-1.75363638811678,53.47826324565094,-2.24163921811783,52.48265727554813,114.0,26.8,TRANSPENNINE EXPRESS,ANYTIME DAY S,0.0,0.5106448756832712,0.23508771929824562,0.46037418662761515,2.172146112981079
Baillieston,BIO,1.0,55.844505909339,-4.11369931815988,53.47826324565094,-2.24163921811783,289.7595428995553,221.0,71.2,LONDON NORTH EASTERN RAILWAY,ANYTIME S,95.0,0.24572098398388686,0.3221719457013575,1.311129153391653,0.7627013688263904
Balcombe,BAB,2.0,51.0555201604538,-0.136933757536862,53.47826324565094,-2.24163921811783,305.45273967774943,242.0,205.5,VIRGIN WEST COAST,ANYTIME S,0.0,0.6727718344147153,0.8491735537190083,1.2622014036270637,0.7922665884591782
Baldock,BDK,2.0,51.9928698318742,-0.187563753520231,53.47826324565094,-2.24163921811783,215.79015354116095,211.0,204.5,VIRGIN WEST COAST,ANYTIME S,0.0,0.9476799411099756,0.9691943127962085,1.022702149484175,0.9778017974288746
Balham,BAL,1.0,51.4432234163815,-0.152424495700288,53.47826324565094,-2.24163921811783,267.26647296281465,219.0,191.0,VIRGIN WEST COAST,ANYTIME S,0.0,0.7146425733188548,0.8721461187214612,1.2203948537114824,0.8194069296169069
Balloch,BHC,2.0,56.0029392993731,-4.58348654319574,53.47826324565094,-2.24163921811783,318.91567115594245,320.0,78.9,VIRGIN WEST COAST,ANYTIME S,275.0,0.24740082453150983,0.24656250000000002,0.9966114723623202,1.0034000487969978
Balmossie,BSI,2.0,56.4745685552318,-2.83895622541232,53.47826324565094,-2.24163921811783,335.73981396787633,422.0,103.7,TRANSPENNINE EXPRESS,ANYTIME S,307.0,0.308870130040407,0.24573459715639812,0.7955919762271951,1.256925697946497
Bamber Bridge,BMB,1.0,53.7268691714662,-2.6607753764786,53.47826324565094,-2.24163921811783,39.184616847247355,78.0,12.7,NORTHERN,ANYTIME DAY S,0.0,0.32410678020683903,0.16282051282051282,0.5023668826570173,1.9905770752860978
Bamford,BAM,0.0,53.3390008432273,-1.68908191470249,53.47826324565094,-2.24163921811783,39.88077057968763,55.0,12.2,NORTHERN,ANYTIME DAY S,0.0,0.3059118422905749,0.2218181818181818,0.7251049196306841,1.379110764424723
Banavie,BNV,2.0,56.8433146084024,-5.09542698683765,53.47826324565094,-2.24163921811783,416.3555062776577,550.0,111.4,VIRGIN WEST COAST,ANYTIME S,275.0,0.26755980963467785,0.20254545454545456,0.7570100114139231,1.3209864928103483
Banbury,BAN,0.0,52.0603086671337,-1.32813289497966,53.47826324565094,-2.24163921811783,169.4072805135805,148.0,66.7,CROSSCOUNTRY,ANYTIME S,0.0,0.3937256993783866,0.4506756756756757,1.1446437872539224,0.873634235502267
Bangor (Gwynedd),BNG,1.0,53.2222875881889,-4.1358808597691,53.47826324565094,-2.24163921811783,129.31515563931836,163.0,31.9,VIRGIN WEST COAST,ANYTIME DAY S,43.0,0.2466841557920283,0.19570552147239262,0.7933445131246525,1.2604864386865398
Bank Hall,BAH,2.0,53.4374965462522,-2.98751189569183,53.47826324565094,-2.24163921811783,49.75152959885733,78.0,15.0,TRANSPENNINE EXPRESS,ANYTIME DAY S,0.0,0.30149826791143547,0.19230769230769232,0.6378401230622734,1.5677909931394645
Banstead,BAD,2.0,51.3293474848423,-0.213158931277083,53.47826324565094,-2.24163921811783,276.0851686493187,226.0,191.0,VIRGIN WEST COAST,ANYTIME S,0.0,0.6918155036520878,0.8451327433628318,1.221615790483711,0.8185879781433081
Barassie,BSS,1.0,55.5610644543682,-4.65113966824502,53.47826324565094,-2.24163921811783,279.42305701394105,256.0,80.4,VIRGIN WEST COAST,ANYTIME S,275.0,0.28773573970307204,0.3140625,1.0914963164607072,0.9161734995520702
Barbican,ZBB,1.0,nan,nan,53.47826324565094,-2.24163921811783,-999.0,166.0,178.0,VIRGIN WEST COAST,ANYTIME S,0.0,-999.0,1.072289156626506,-999.0,-999.0
Bardon Mill,BLL,1.0,54.9744957852522,-2.34650475516335,53.47826324565094,-2.24163921811783,166.6847582298878,187.0,73.9,TRANSPENNINE EXPRESS,ANYTIME DAY S,0.0,0.44335187442920737,0.3951871657754011,0.8913623434753358,1.1218782208154503
Bare Lane,BAR,1.0,54.0745443408907,-2.83533086719705,53.47826324565094,-2.24163921811783,77.04785254255752,98.0,21.2,NORTHERN,ANYTIME DAY S,317.0,0.2751536778820687,0.21632653061224488,0.7862025769648726,1.2719368128510722
Bargeddie,BGI,1.0,55.8512961462984,-4.07380825280165,53.47826324565094,-2.24163921811783,289.3827217274875,218.0,71.2,LONDON NORTH EASTERN RAILWAY,ANYTIME S,95.0,0.2460409508037223,0.326605504587156,1.327443677649025,0.7533276302698239
Bargoed,BGD,1.0,51.6923127611933,-3.22968013064506,53.47826324565094,-2.24163921811783,209.71202149331688,270.0,81.6,TRANSPORT FOR WALES RAIL,ANYTIME DAY S,1000.0,0.38910501848650786,0.3022222222222222,0.7767111907159885,1.287479840580357
Barking,BKG,2.0,51.5394928787692,0.0809024258638578,53.47826324565094,-2.24163921811783,267.197066178418,201.0,189.5,VIRGIN WEST COAST,ANYTIME S,0.0,0.7092143739088189,0.9427860696517413,1.3293386377035723,0.7522537686315177
Barlaston,BRT,2.0,nan,nan,53.47826324565094,-2.24163921811783,-999.0,92.0,17.75,CROSSCOUNTRY,ANYTIME DAY S,0.0,-999.0,0.19293478260869565,-999.0,-999.0
Barming,BMG,2.0,51.2848926922128,0.478958086821072,53.47826324565094,-2.24163921811783,306.36152155554754,235.0,205.5,VIRGIN WEST COAST,ANYTIME S,0.0,0.6707761436768424,0.874468085106383,1.3036660491725427,0.7670676095574597
Barmouth,BRM,1.0,52.7228954666472,-4.05659664341287,53.47826324565094,-2.24163921811783,147.79467795173022,258.0,51.2,TRANSPORT FOR WALES RAIL,ANYTIME DAY S,1000.0,0.346426547353227,0.19844961240310077,0.5728475889601946,1.7456650237721203
Barnehurst,BNH,2.0,51.4649571594916,0.159646215915891,53.47826324565094,-2.24163921811783,277.12526058479756,207.0,191.0,VIRGIN WEST COAST,ANYTIME S,0.0,0.6892190181326178,0.9227053140096618,1.3387693748057854,0.7469546426882296
Barnes,BNS,2.0,51.4670847781107,-0.242164290131055,53.47826324565094,-2.24163921811783,261.78714340134246,200.0,189.5,VIRGIN WEST COAST,ANYTIME S,0.0,0.7238705367187571,0.9475,1.3089357170067124,0.7639794582783717
Barnes Bridge,BNI,2.0,51.4720072305495,-0.252630234454485,53.47826324565094,-2.24163921811783,260.9465318736569,203.0,189.5,VIRGIN WEST COAST,ANYTIME S,0.0,0.7262024087438367,0.9334975369458128,1.2854508959293445,0.7779371449868013
Barnetby,BTB,0.0,53.575120046432,-0.409679706265516,53.47826324565094,-2.24163921811783,121.96461053919546,131.0,43.2,TRANSPENNINE EXPRESS,ANYTIME DAY S,0.0,0.3542011064440445,0.3297709923664122,0.9310275613679043,1.07408205889282
Barnham,BAA,1.0,50.8309058508596,-0.639679954401345,53.47826324565094,-2.24163921811783,314.2934523602904,326.0,220.5,VIRGIN WEST COAST,ANYTIME S,0.0,0.701573635543733,0.6763803680981595,0.9640903446634675,1.0372471890578547
Barnhill,BNL,2.0,55.8774948886876,-4.22300584363342,53.47826324565094,-2.24163921811783,296.05306842755823,242.0,71.2,LONDON NORTH EASTERN RAILWAY,ANYTIME S,95.0,0.24049742290518453,0.29421487603305785,1.2233597868907364,0.8174210160541384
Barnsley,BNY,1.0,53.5543015489003,-1.47716484028851,53.47826324565094,-2.24163921811783,51.4113949035589,96.0,22.2,TRANSPENNINE EXPRESS,ANYTIME DAY S,92.0,0.4318108863150731,0.23124999999999998,0.5355353635787385,1.867290319200316
Barnstaple,BNP,1.0,51.0739744679973,-4.06311775092404,53.47826324565094,-2.24163921811783,294.9832288699184,376.0,73.3,CROSSCOUNTRY,ANYTIME S,700.0,0.24848870317411778,0.19494680851063828,0.7845298640157403,1.27464873660939
Barnt Green,BTG,1.0,52.3610898378667,-1.99246673824797,53.47826324565094,-2.24163921811783,125.44871764953851,136.0,48.3,CROSSCOUNTRY,ANYTIME S,0.0,0.3850178854353373,0.35514705882352937,0.9224170415407243,1.0841083316605773
Barrhead,BRR,1.0,55.8037583421428,-4.39728431394783,53.47826324565094,-2.24163921811783,293.8747228469026,239.0,77.9,VIRGIN WEST COAST,ANYTIME S,275.0,0.2650789399147571,0.32594142259414227,1.2296013508238604,0.8132717155279454
Barrhill,BRL,1.0,55.0970106102442,-4.78178229089313,53.47826324565094,-2.24163921811783,244.5708787908062,413.0,78.9,VIRGIN WEST COAST,ANYTIME S,93.0,0.32260586538386343,0.19104116222760292,0.5921813045782233,1.688672020323645
Barrow Haven,BAV,1.0,53.697419946542,-0.392955239385703,53.47826324565094,-2.24163921811783,124.82558759545023,188.0,43.6,TRANSPENNINE EXPRESS,ANYTIME DAY S,0.0,0.34928736038723185,0.23191489361702128,0.6639658914651608,1.506101462220174
Barrow-in-Furness,BIF,0.0,54.1190037011827,-3.22612090695349,53.47826324565094,-2.24163921811783,96.4029497599513,124.0,33.4,NORTHERN,ANYTIME DAY S,317.0,0.34646242758305484,0.2693548387096774,0.7774431432254137,1.286267695218527
Barrow-Upon-Soar,BWS,1.0,52.7493358553102,-1.14484305880024,53.47826324565094,-2.24163921811783,109.42494461464088,173.0,59.8,EAST MIDLANDS TRAINS,ANYTIME S,0.0,0.5464933083639766,0.34566473988439306,0.6325141307204675,1.5809923469392635
Barry,BRY,1.0,51.3967862682376,-3.28498495899336,53.47826324565094,-2.24163921811783,242.2349709695069,240.0,78.0,TRANSPORT FOR WALES RAIL,ANYTIME DAY S,1000.0,0.32200140090350055,0.325,1.0093123790396121,0.99077354124154
Barry Docks,BYD,1.0,51.4024452836283,-3.26070393235989,53.47826324565094,-2.24163921811783,241.15241629787587,237.0,78.0,TRANSPORT FOR WALES RAIL,ANYTIME DAY S,1000.0,0.32344689386671116,0.3291139240506329,1.017520743872894,0.9827809467488531
Barry Island,BYI,1.0,51.3924170726249,-3.27336400852697,53.47826324565094,-2.24163921811783,242.47107328310776,260.0,78.0,TRANSPORT FOR WALES RAIL,ANYTIME DAY S,1000.0,0.32168785721061116,0.3,0.932581051088876,1.0722928573687038
Barry Links,BYL,2.0,56.4931516826701,-2.74544214683501,53.47826324565094,-2.24163921811783,337.17047958992947,429.0,98.5,VIRGIN WEST COAST,ANYTIME S,307.0,0.2921370818696726,0.2296037296037296,0.7859451738692995,1.2723533819501476
Barton-on-Humber,BAU,1.0,53.6889177395454,-0.44343673614012,53.47826324565094,-2.24163921811783,121.37449878396247,192.0,43.6,TRANSPENNINE EXPRESS,ANYTIME DAY S,0.0,0.3592187851387526,0.22708333333333333,0.6321588478331378,1.5818808886844151
Basildon,BSO,2.0,51.5681040297501,0.456788850539816,53.47826324565094,-2.24163921811783,280.5409881784869,230.0,194.5,VIRGIN WEST COAST,ANYTIME S,0.0,0.6933033253460077,0.8456521739130435,1.2197434268629865,0.8198445492523485
Basingstoke,BSK,0.0,51.2683569850094,-1.08726383162934,53.47826324565094,-2.24163921811783,258.1587469149339,218.0,114.6,VIRGIN WEST COAST,ANYTIME S,200.0,0.4439129077341003,0.5256880733944954,1.184214435389605,0.8444416569461943
Bat & Ball,BBL,2.0,51.2897587469008,0.194227480292899,53.47826324565094,-2.24163921811783,294.60058131963365,253.0,196.5,VIRGIN WEST COAST,ANYTIME S,200.0,0.6670047938120082,0.7766798418972332,1.1644291751764175,0.8587898871981582
Bath Spa,BTH,1.0,51.3776883852266,-2.3570184714201,53.47826324565094,-2.24163921811783,233.87402012934325,203.0,97.45,CROSSCOUNTRY,ANYTIME S,0.0,0.41667732032016896,0.48004926108374385,1.1520887691100652,0.8679886713698748
Bathgate,BHG,1.0,55.8971563834902,-3.63609679157923,53.47826324565094,-2.24163921811783,283.8706174632581,218.0,78.5,LONDON NORTH EASTERN RAILWAY,ANYTIME S,95.0,0.27653443213495105,0.36009174311926606,1.3021587957030187,0.7679554930626666
Batley,BTL,0.0,53.7099423400798,-1.6229526318262,53.47826324565094,-2.24163921811783,48.4039775399292,80.0,18.1,TRANSPENNINE EXPRESS,ANYTIME DAY S,0.0,0.37393621185509035,0.22625,0.605049719249115,1.6527567374810623
Battersby,BTT,1.0,54.457680170473,-1.09297186288525,53.47826324565094,-2.24163921811783,132.53454280139908,213.0,53.5,TRANSPENNINE EXPRESS,ANYTIME DAY S,95.0,0.40366834841063964,0.2511737089201878,0.622227900476052,1.607128190868528
Battersea Park,BAK,2.0,51.4769582891996,-0.147533519657093,53.47826324565094,-2.24163921811783,264.24419682425736,184.0,189.5,VIRGIN WEST COAST,ANYTIME S,0.0,0.7171396847213717,1.0298913043478262,1.4361097653492247,0.6963256041621761
Battle,BAT,2.0,50.9129130238687,0.494702777064857,53.47826324565094,-2.24163921811783,341.24889602380233,267.0,213.5,VIRGIN WEST COAST,ANYTIME S,0.0,0.6256430496557804,0.799625468164794,1.278085752898136,0.7824201136210462
Battlesbridge,BLB,2.0,51.624822766888,0.56528550890708,53.47826324565094,-2.24163921811783,280.6499514940998,215.0,205.5,VIRGIN WEST COAST,ANYTIME S,0.0,0.7322288812307893,0.9558139534883721,1.3053486116004642,0.7660788781733319
Bayford,BAY,2.0,51.7577148923117,-0.0956100209046352,53.47826324565094,-2.24163921811783,240.3574426126838,201.0,198.5,VIRGIN WEST COAST,ANYTIME S,0.0,0.8258533534152566,0.9875621890547264,1.195808172202407,0.8362545291509651
Beaconsfield,BCF,1.0,51.6112905925788,-0.643822282354315,53.47826324565094,-2.24163921811783,234.3166299774265,221.0,194.5,VIRGIN WEST COAST,ANYTIME S,0.0,0.830073392651378,0.8800904977375565,1.060256244241749,0.9431682250691751
Bearley,BER,1.0,52.2444115945748,-1.75025547969474,53.47826324565094,-2.24163921811783,141.23884620269772,157.0,60.1,CROSSCOUNTRY,ANYTIME S,0.0,0.4255203268493712,0.38280254777070066,0.8996104853675013,1.1115922015865436
Bearsden,BRN,1.0,55.9171345827093,-4.3320211452141,53.47826324565094,-2.24163921811783,303.0691190919848,253.0,77.9,VIRGIN WEST COAST,ANYTIME S,275.0,0.2570370753489949,0.30790513833992095,1.1979016564900586,0.8347930688484686
Bearsted,BSD,2.0,51.2758187894535,0.577580355704965,53.47826324565094,-2.24163921811783,311.27031551358135,246.0,209.0,VIRGIN WEST COAST,ANYTIME S,0.0,0.671442118260329,0.8495934959349594,1.2653264858275666,0.7903098616844063
Beasdale,BSL,2.0,56.8995610683265,-5.76380325043513,53.47826324565094,-2.24163921811783,441.90516108977,603.0,119.7,VIRGIN WEST COAST,ANYTIME S,275.0,0.27087260014074327,0.19850746268656716,0.7328443799166998,1.3645461811601352
Beaulieu Road,BEU,1.0,50.8550493435382,-1.50474962699015,53.47826324565094,-2.24163921811783,296.20444585833707,316.0,128.8,CROSSCOUNTRY,ANYTIME S,700.0,0.434834796711998,0.4075949367088608,0.9373558413238515,1.0668307124300571
Beauly,BEL,2.0,57.4782879378611,-4.46986686037102,53.47826324565094,-2.24163921811783,467.02212929557203,556.0,130.0,VIRGIN WEST COAST,ANYTIME S,307.0,0.27835940064785397,0.23381294964028776,0.8399678584452734,1.1905217443092833
Bebington,BEB,1.0,53.3576570664328,-3.00363517233964,53.47826324565094,-2.24163921811783,52.41057687302731,65.0,19.1,TRANSPENNINE EXPRESS,ANYTIME DAY S,0.0,0.36443025701229526,0.29384615384615387,0.8063165672773432,1.240207680931895
Beccles,BCC,2.0,52.4585181871493,1.5694932615698,53.47826324565094,-2.24163921811783,280.02970279814207,376.0,107.1,EAST MIDLANDS TRAINS,ANYTIME S,700.0,0.3824594281600279,0.28484042553191485,0.7447598478673991,1.3427147057719002
Beckenham Hill,BEC,2.0,51.4245808668055,-0.0159511139458484,53.47826324565094,-2.24163921811783,274.04903910635153,214.0,191.0,VIRGIN WEST COAST,ANYTIME S,0.0,0.6969555544614688,0.8925233644859814,1.2806029864782782,0.7808821395536877
Beckenham Junction,BKJ,2.0,51.4111718661491,-0.0260225635677561,53.47826324565094,-2.24163921811783,274.9310259493381,209.0,191.0,VIRGIN WEST COAST,ANYTIME S,0.0,0.6947197004793334,0.9138755980861244,1.315459454303053,0.7601906670166527
Bedford,BDM,1.0,52.1361864656103,-0.479442379912954,53.47826324565094,-2.24163921811783,190.846725044075,200.0,81.3,VIRGIN WEST COAST,ANYTIME S,200.0,0.42599630662367516,0.4065,0.9542336252203749,1.04796139390818
Bedford St Johns,BSJ,2.0,52.1294772366621,-0.467501028060375,53.47826324565094,-2.24163921811783,191.93787300681635,164.0,81.3,VIRGIN WEST COAST,ANYTIME S,200.0,0.4235745594467058,0.49573170731707317,1.1703528841879045,0.8544431457473525
Bedhampton,BDH,2.0,50.8539566355958,-0.99582843515536,53.47826324565094,-2.24163921811783,304.18268510985496,291.0,137.2,VIRGIN WEST COAST,ANYTIME S,200.0,0.45104473961248154,0.4714776632302405,1.0453013234015633,0.9566619477203508
Bedminster,BMT,1.0,51.4400904239394,-2.59414932604792,53.47826324565094,-2.24163921811783,228.06119985642843,231.0,96.3,CROSSCOUNTRY,ANYTIME S,0.0,0.4222550791656968,0.41688311688311686,0.9872779214564001,1.012886015444195
Bedworth,BEH,1.0,52.4792974206142,-1.46739223305473,53.47826324565094,-2.24163921811783,122.73197141780962,183.0,53.6,CROSSCOUNTRY,ANYTIME S,0.0,0.43672402048796644,0.292896174863388,0.6706665104798339,1.4910540251734676
Bedwyn,BDW,1.0,51.3796409426581,-1.59878627020561,53.47826324565094,-2.24163921811783,237.5809440237758,280.0,105.8,CROSSCOUNTRY,ANYTIME S,700.0,0.4453219109585326,0.37785714285714284,0.848503371513485,1.1785457000792923
Beeston,BEE,1.0,52.9207551214346,-1.20765801407939,53.47826324565094,-2.24163921811783,92.86459443336108,144.0,45.3,EAST MIDLANDS TRAINS,ANYTIME S,0.0,0.48780700843427394,0.3145833333333333,0.6448930168983408,1.5506447950228577
Bekesbourne,BKS,2.0,51.2613539349877,1.13670763163281,53.47826324565094,-2.24163921811783,337.2692839421231,286.0,220.5,VIRGIN WEST COAST,ANYTIME S,0.0,0.6537802595680157,0.7709790209790209,1.179263230566864,0.8479870940428683
Belle Vue,BLV,0.0,53.4623764935822,-2.18050724055323,53.47826324565094,-2.24163921811783,4.4278347119259385,9.0,2.6,GREATER MANCHESTER PTE,ANYTIME DAY S,1000.0,0.5871944571456462,0.2888888888888889,0.4919816346584376,2.032596197811852
Bellgrove,BLG,2.0,55.8567093051092,-4.22437490020632,53.47826324565094,-2.24163921811783,294.02008639365954,265.0,71.2,LONDON NORTH EASTERN RAILWAY,ANYTIME S,95.0,0.24216032609646704,0.2686792452830189,1.1095097599760737,0.9012989665107269
Bellingham,BGM,2.0,51.4329113825773,-0.0193308081217253,53.47826324565094,-2.24163921811783,273.14193595702994,212.0,191.0,VIRGIN WEST COAST,ANYTIME S,0.0,0.6992701407448751,0.9009433962264151,1.2884053582878772,0.7761532452246782
Bellshill,BLH,1.0,55.8170682424416,-4.02449996284266,53.47826324565094,-2.24163921811783,284.62899790091905,196.0,71.2,LONDON NORTH EASTERN RAILWAY,ANYTIME S,95.0,0.2501501973624807,0.363265306122449,1.4521887648006073,0.6886157118405367
Belmont,BLM,2.0,51.3438134158344,-0.198855124360003,53.47826324565094,-2.24163921811783,275.171402591093,223.0,191.0,VIRGIN WEST COAST,ANYTIME S,0.0,0.6941128264110628,0.8565022421524664,1.2339524779869642,0.8104039805741727
Belper,BLP,2.0,53.0237591485711,-1.48251049959613,53.47826324565094,-2.24163921811783,71.59518590952455,141.0,40.8,EAST MIDLANDS TRAINS,ANYTIME S,0.0,0.5698707180055278,0.28936170212765955,0.5077672759540748,1.9694061578132211
Beltring,BEG,3.0,51.2047063375307,0.403495486821792,53.47826324565094,-2.24163921811783,310.6010184914603,249.0,205.5,VIRGIN WEST COAST,ANYTIME S,0.0,0.6616204962819529,0.8253012048192772,1.2473936485600816,0.8016715502394466
Belvedere,BVD,2.0,51.4921162437256,0.152286098901381,53.47826324565094,-2.24163921811783,274.36280758440944,220.0,191.0,VIRGIN WEST COAST,ANYTIME S,0.0,0.6961584978723389,0.8681818181818182,1.2471036708382248,0.801857955664474
Bempton,BEM,1.0,54.1276580609781,-0.18045684367924,53.47826324565094,-2.24163921811783,153.82952615645866,185.0,58.2,TRANSPENNINE EXPRESS,ANYTIME DAY S,0.0,0.3783408910770829,0.3145945945945946,0.8315109521970738,1.2026299802278408
Ben Rhydding,BEY,1.0,53.9257153348267,-1.79743026313235,53.47826324565094,-2.24163921811783,57.799516055994765,112.0,26.8,TRANSPENNINE EXPRESS,ANYTIME DAY S,0.0,0.46367170226887044,0.2392857142857143,0.5160671076428104,1.9377324870937869
Benfleet,BEF,2.0,51.5439424321207,0.561713345502072,53.47826324565094,-2.24163921811783,287.2802100098644,236.0,194.5,VIRGIN WEST COAST,ANYTIME S,0.0,0.6770393268416276,0.8241525423728814,1.217289025465527,0.8214975893811008
Bentham,BEN,1.0,54.1155197017626,-2.51067651046258,53.47826324565094,-2.24163921811783,73.10924568553796,154.0,23.9,NORTHERN,ANYTIME DAY S,317.0,0.32690803708740435,0.1551948051948052,0.4747353615944023,2.1064367243288817
Bentley (Hants),BTY,2.0,51.1812327932647,-0.868126900052275,53.47826324565094,-2.24163921811783,272.19657112694324,254.0,122.4,CROSSCOUNTRY,ANYTIME S,700.0,0.4496750252703103,0.4818897637795276,1.0716400438068632,0.9331491537472124
Bentley (South Yorks),BYK,1.0,53.543936635355,-1.15094859528964,53.47826324565094,-2.24163921811783,72.72579041977022,100.0,21.8,TRANSPENNINE EXPRESS,ANYTIME DAY S,79.0,0.29975610954753895,0.218,0.7272579041977022,1.3750280254474263
Bere Alston,BAS,1.0,50.4855988011236,-4.20035543651004,53.47826324565094,-2.24163921811783,359.11517855247007,430.0,90.4,CROSSCOUNTRY,ANYTIME S,817.0,0.25172982207097583,0.2102325581395349,0.8351515780290002,1.1973874279924734
Bere Ferrers,BFE,1.0,50.4512820780774,-4.18143518031599,53.47826324565094,-2.24163921811783,362.19588457488777,425.0,90.4,CROSSCOUNTRY,ANYTIME S,817.0,0.24958870006516837,0.2127058823529412,0.8522256107644418,1.173398202740006
Berkhamsted,BKM,1.0,51.7631330812332,-0.562012981628892,53.47826324565094,-2.24163921811783,222.17027531437157,170.0,174.0,VIRGIN WEST COAST,ANYTIME S,700.0,0.7831830777262597,1.0235294117647058,1.30688397243748,0.7651788690428974
Berkswell,BKW,1.0,52.3958819317755,-1.64284047482006,53.47826324565094,-2.24163921811783,127.001822497764,137.0,53.6,CROSSCOUNTRY,ANYTIME S,0.0,0.42204118764471815,0.39124087591240875,0.9270206021734598,1.0787246773754922
Bermuda Park,BEP,2.0,52.5014343619449,-1.47217775464212,53.47826324565094,-2.24163921811783,120.36126374083919,145.0,38.5,VIRGIN WEST COAST,ANYTIME S,0.0,0.3198703536621039,0.2655172413793103,0.8300776809713047,1.2047065267793524
Berney Arms,BYA,-999.0,52.5897827472666,1.63037533346209,53.47826324565094,-2.24163921811783,277.8896404737114,-999.0,107.1,VIRGIN WEST COAST,ANYTIME S,200.0,0.3854047952900632,-999.0,-999.0,-999.0
Berry Brow,BBW,1.0,53.6210419716152,-1.79343228301033,53.47826324565094,-2.24163921811783,33.69074277286184,63.0,14.2,TRANSPENNINE EXPRESS,ANYTIME DAY S,0.0,0.4214807638921577,0.22539682539682537,0.5347736948073307,1.869949867972249
Berrylands,BRS,2.0,51.3990439366779,-0.280713667843256,53.47826324565094,-2.24163921811783,267.021129534556,204.0,191.0,VIRGIN WEST COAST,ANYTIME S,0.0,0.7152991987298223,0.9362745098039216,1.308927105561549,0.7639844845072448
Berwick (Sussex),BRK,2.0,50.8403762860459,0.166017608785235,53.47826324565094,-2.24163921811783,336.5555175604011,271.0,220.5,VIRGIN WEST COAST,ANYTIME S,0.0,0.6551667956548275,0.8136531365313653,1.2419022788206682,0.8052163338886995
Berwick-upon-Tweed,BWK,1.0,55.7743389009866,-2.01097357377303,53.47826324565094,-2.24163921811783,256.02472263969224,196.0,86.7,TRANSPENNINE EXPRESS,ANYTIME DAY S,0.0,0.3386391716631769,0.44234693877551023,1.306248584896389,0.7655510685811151
Bescar Lane,BES,0.0,53.623855333027,-2.9146110021991,53.47826324565094,-2.24163921811783,47.45598402084501,66.0,14.5,NORTHERN,ANYTIME DAY S,0.0,0.3055462930371623,0.2196969696969697,0.719030060921894,1.3907624372726008
Bescot Stadium,BSC,1.0,52.5630947071172,-1.9911057185482,53.47826324565094,-2.24163921811783,103.22414752508317,145.0,45.35,CROSSCOUNTRY,ANYTIME S,0.0,0.43933518549019823,0.3127586206896552,0.7118906725867805,1.40471007488597
Betchworth,BTO,1.0,51.2481879331766,-0.266973015200458,53.47826324565094,-2.24163921811783,282.2373140681309,331.0,111.05,VIRGIN WEST COAST,ANYTIME S,0.0,0.3934632115057366,0.33549848942598187,0.852680707154474,1.1727719316379903
Bethnal Green,BET,2.0,51.5239156627757,-0.0595680464428894,53.47826324565094,-2.24163921811783,263.1307523571018,187.0,189.5,VIRGIN WEST COAST,ANYTIME S,0.0,0.7201742795263416,1.0133689839572193,1.4071163227652503,0.7106732995853609
Betws-y-Coed,BYC,1.0,53.0920709395504,-3.80086212197837,53.47826324565094,-2.24163921811783,112.51972263769441,171.0,39.8,TRANSPORT FOR WALES RAIL,ANYTIME DAY S,1000.0,0.3537157670407098,0.2327485380116959,0.6580100739046457,1.5197335719588285
Beverley,BEV,1.0,53.8422725915824,-0.422980126740875,53.47826324565094,-2.24163921811783,126.8670356290085,153.0,53.2,TRANSPENNINE EXPRESS,ANYTIME DAY S,0.0,0.4193366680023197,0.34771241830065364,0.8291963113007091,1.2059870339164458
Bexhill,BEX,2.0,50.84103990242,0.477016592346932,53.47826324565094,-2.24163921811783,347.3941126329845,317.0,220.5,VIRGIN WEST COAST,ANYTIME S,0.0,0.6347257825665981,0.695583596214511,1.0958804814920646,0.9125082679075356
Bexley,BXY,2.0,51.4402175270263,0.147902494716889,53.47826324565094,-2.24163921811783,278.9158560314075,219.0,191.0,VIRGIN WEST COAST,ANYTIME S,0.0,0.6847943416257136,0.8721461187214612,1.273588383705057,0.7851830409216297
Bexleyheath,BXH,2.0,51.4634982236074,0.133734871030645,53.47826324565094,-2.24163921811783,276.2262286504567,204.0,191.0,VIRGIN WEST COAST,ANYTIME S,0.0,0.691462215348478,0.9362745098039216,1.354050140443415,0.7385250886444478
Bicester North,BCS,1.0,51.9034829537461,-1.15038352192815,53.47826324565094,-2.24163921811783,190.13678873541386,170.0,72.55,VIRGIN WEST COAST,ANYTIME S,0.0,0.3815673993577195,0.42676470588235293,1.118451698443611,0.894093148047034
Bicester Village,BIT,1.0,51.8930236127002,-1.14876425178293,53.47826324565094,-2.24163921811783,191.25551707094962,200.0,93.3,CROSSCOUNTRY,ANYTIME S,0.0,0.48782906464020437,0.46649999999999997,0.9562775853547482,1.0457214676102988
Bickley,BKL,2.0,51.4001024308637,0.0452405405139698,53.47826324565094,-2.24163921811783,278.6454237578922,217.0,191.0,VIRGIN WEST COAST,ANYTIME S,0.0,0.6854589514664161,0.880184331797235,1.2840802938151714,0.7787674998335723
Bidston,BID,1.0,53.4091398593576,-3.07856110228132,53.47826324565094,-2.24163921811783,56.14014891330949,75.0,17.7,TRANSPENNINE EXPRESS,ANYTIME DAY S,0.0,0.3152823842225996,0.236,0.7485353188441265,1.3359423060279645
Biggleswade,BIW,2.0,52.0846785950736,-0.261187193156868,53.47826324565094,-2.24163921811783,204.69774783132485,214.0,204.5,VIRGIN WEST COAST,ANYTIME S,0.0,0.9990339520907294,0.955607476635514,0.9565315319220787,1.0454438422856533
Bilbrook,BBK,1.0,52.6237197237583,-2.18608801838282,53.47826324565094,-2.24163921811783,95.17269899107379,90.0,40.05,CROSSCOUNTRY,ANYTIME S,0.0,0.4208139563611228,0.44499999999999995,1.0574744332341532,0.9456493401373546
Billericay,BIC,2.0,51.6288812691945,0.418629610467223,53.47826324565094,-2.24163921811783,273.6588853255641,217.0,196.5,VIRGIN WEST COAST,ANYTIME S,200.0,0.718047213289748,0.9055299539170507,1.2611008540348576,0.792957991266541
Billingham (Cleveland),BIL,1.0,54.605606575355,-1.27971968622732,53.47826324565094,-2.24163921811783,140.41075638412215,164.0,55.4,TRANSPENNINE EXPRESS,ANYTIME DAY S,0.0,0.3945566666448405,0.33780487804878045,0.8561631486836716,1.1680016846525965
Billingshurst,BIG,2.0,51.0152034952011,-0.450302232654151,53.47826324565094,-2.24163921811783,300.1141890166399,263.0,209.0,VIRGIN WEST COAST,ANYTIME S,0.0,0.6964015952888251,0.7946768060836502,1.1411185894168818,0.8763331079471818
Bingham,BIN,0.0,52.9541905628363,-0.95154335353279,53.47826324565094,-2.24163921811783,104.05862466560767,139.0,48.1,EAST MIDLANDS TRAINS,ANYTIME S,0.0,0.46223943622712027,0.3460431654676259,0.7486231990331487,1.3357854809889755
Bingley,BIY,1.0,53.8486154371384,-1.8373224993653,53.47826324565094,-2.24163921811783,49.12604459498999,106.0,27.0,TRANSPENNINE EXPRESS,ANYTIME DAY S,0.0,0.5496066337641508,0.25471698113207547,0.463453250896132,2.1577149325555545
Birchgrove,BCG,1.0,51.5215597229164,-3.20185379786194,53.47826324565094,-2.24163921811783,227.2848593777087,235.0,79.2,TRANSPORT FOR WALES RAIL,ANYTIME DAY S,1000.0,0.3484613986908081,0.3370212765957447,0.9671696143732285,1.0339448067214634
Birchington-on-sea,BCH,2.0,51.3774886896266,1.3014083545974,53.47826324565094,-2.24163921811783,335.6739874563886,284.0,221.5,VIRGIN WEST COAST,ANYTIME S,0.0,0.6598664426708897,0.7799295774647887,1.1819506600577063,0.8460590055012762
Birchwood,BWD,0.0,53.4127205850305,-2.5253082468513,53.47826324565094,-2.24163921811783,20.21044805764472,21.0,6.3,NORTHERN,ANYTIME DAY S,1000.0,0.31171995702574185,0.3,0.9624022884592723,1.0390665234191396
Birkbeck,BIK,2.0,51.4038899816034,-0.0557387405611835,53.47826324565094,-2.24163921811783,274.5172802756947,230.0,191.0,VIRGIN WEST COAST,ANYTIME S,0.0,0.6957667648760791,0.8304347826086956,1.1935533925030204,0.8378343241963256
Birkdale,BDL,1.0,53.6340528065899,-3.01445011129132,53.47826324565094,-2.24163921811783,54.07030142943581,102.0,14.5,NORTHERN,ANYTIME DAY S,0.0,0.26816939459683165,0.14215686274509803,0.5301009944062334,1.8864329826811603
Birkenhead Central,BKC,1.0,53.3883166263867,-3.02082115838918,53.47826324565094,-2.24163921811783,52.745279787581524,57.0,17.7,TRANSPENNINE EXPRESS,ANYTIME DAY S,0.0,0.33557505185833386,0.31052631578947365,0.9253557857470442,1.0806654212387024
Birkenhead Hamilton Square,BKQ,1.0,53.3946967251861,-3.01368016573114,53.47826324565094,-2.24163921811783,52.14429432052186,54.0,17.7,TRANSPENNINE EXPRESS,ANYTIME DAY S,0.0,0.3394426989691565,0.3277777777777778,0.965635080009664,1.0355878951601385
Birkenhead North,BKN,1.0,53.4044379353974,-3.05753365912751,53.47826324565094,-2.24163921811783,54.83540379052007,71.0,17.7,TRANSPENNINE EXPRESS,ANYTIME DAY S,0.0,0.322784164544804,0.24929577464788732,0.7723296308523954,1.2947839368746377
Birkenhead Park,BKP,1.0,53.3974085855031,-3.03910128885113,53.47826324565094,-2.24163921811783,53.75445703484843,69.0,17.7,TRANSPENNINE EXPRESS,ANYTIME DAY S,0.0,0.32927502157682076,0.25652173913043474,0.779050101954325,1.283614490892691
Birmingham International,BHI,0.0,52.4508081112451,-1.72585685988124,53.47826324565094,-2.24163921811783,119.47687689802767,107.0,52.05,CROSSCOUNTRY,ANYTIME S,0.0,0.4356491511275789,0.48644859813084107,1.1166063261497914,0.8955707813765792
Birmingham Moor Street,BMO,1.0,52.479080623723,-1.89247273057604,53.47826324565094,-2.24163921811783,113.64105282184534,108.0,45.35,CROSSCOUNTRY,ANYTIME S,0.0,0.39906353271027006,0.4199074074074074,1.052231970572642,0.9503607835217015
Birmingham New Street,BHM,0.0,52.4778198092097,-1.9002055706822,53.47826324565094,-2.24163921811783,113.67248575331624,88.0,45.35,CROSSCOUNTRY,ANYTIME S,0.0,0.39895318290492277,0.5153409090909091,1.291732792651321,0.7741539161109857
Birmingham Snow Hill,BSW,1.0,52.4833566780576,-1.89908868312646,53.47826324565094,-2.24163921811783,113.08404297093342,110.0,45.35,CROSSCOUNTRY,ANYTIME S,0.0,0.40102917094727986,0.4122727272727273,1.028036754281213,0.9727278677883304
Bishop Auckland,BIA,1.0,54.6571963763698,-1.67771509725951,53.47826324565094,-2.24163921811783,136.31622267113988,158.0,57.6,TRANSPENNINE EXPRESS,ANYTIME DAY S,95.0,0.42254691973793046,0.36455696202531646,0.862760902981898,1.1590696756700176
Bishopbriggs,BBG,2.0,55.9038831792009,-4.22491571705821,53.47826324565094,-2.24163921811783,298.7405481315918,257.0,71.2,LONDON NORTH EASTERN RAILWAY,ANYTIME S,95.0,0.2383339002532633,0.27704280155642025,1.162414584169618,0.860278263554616
Bishops Stortford,BIS,2.0,51.8666894209812,0.16489410333554,53.47826324565094,-2.24163921811783,242.17368713774803,217.0,200.0,VIRGIN WEST COAST,ANYTIME S,0.0,0.82585355314114,0.9216589861751152,1.116007774828332,0.8960511051581369
Bishopstone (Sussex),BIP,2.0,50.7801416620368,0.082756921439231,53.47826324565094,-2.24163921811783,339.7619495254826,275.0,220.5,VIRGIN WEST COAST,ANYTIME S,0.0,0.6489837967669838,0.8018181818181818,1.235497998274482,0.8093902227252633
Bishopton (Strathclyde),BPT,1.0,55.9022694882255,-4.5004875625329,53.47826324565094,-2.24163921811783,306.6024574472693,240.0,77.9,VIRGIN WEST COAST,ANYTIME S,275.0,0.25407493680443693,0.32458333333333333,1.277510239363622,0.7827725909250944
Bitterne,BTE,1.0,50.9182213632939,-1.37699961416727,53.47826324565094,-2.24163921811783,290.92260237248917,297.0,131.1,CROSSCOUNTRY,ANYTIME S,700.0,0.45063531994720446,0.44141414141414137,0.9795373817255527,1.020890084090921
Blackburn,BBN,0.0,53.7465184457461,-2.47912240276289,53.47826324565094,-2.24163921811783,33.7405991217096,69.0,11.1,NORTHERN,ANYTIME DAY S,0.0,0.32898052461842514,0.1608695652173913,0.48899419016970436,2.0450140719523726
Blackheath,BKH,2.0,51.4657945200002,0.00887187089452019,53.47826324565094,-2.24163921811783,271.1458692433331,189.0,191.0,VIRGIN WEST COAST,ANYTIME S,0.0,0.7044178859630416,1.0105820105820107,1.4346342288007041,0.697041782445104
Blackhorse Road,BHO,1.0,51.58660384873,-0.0412357433706351,53.47826324565094,-2.24163921811783,258.05453703968516,175.0,177.5,VIRGIN WEST COAST,ANYTIME S,0.0,0.6878390980302858,1.0142857142857142,1.4745973545124866,0.6781512234101409
Blackpool North,BPN,0.0,53.8219180942013,-3.04927516714828,53.47826324565094,-2.24163921811783,65.6877647346401,89.0,20.5,NORTHERN,ANYTIME DAY S,317.0,0.31208247202221256,0.2303370786516854,0.738064772299327,1.3548946346330204
Blackpool Pleasure Beach,BPB,1.0,53.7879555202556,-3.05387646984086,53.47826324565094,-2.24163921811783,63.83514760126426,101.0,20.5,NORTHERN,ANYTIME DAY S,317.0,0.3211396976482278,0.20297029702970298,0.6320311643689531,1.5822004615839518
Blackpool South,BPS,1.0,53.7987040263195,-3.04893832565541,53.47826324565094,-2.24163921811783,64.21139935964801,103.0,20.5,NORTHERN,ANYTIME DAY S,317.0,0.3192579542641566,0.19902912621359223,0.6234116442684273,1.6040765506930796
Blackridge,BKR,1.0,55.8842557507999,-3.75079743413867,53.47826324565094,-2.24163921811783,284.9522373456353,243.0,77.9,LONDON NORTH EASTERN RAILWAY,ANYTIME S,95.0,0.27337914846939954,0.3205761316872428,1.1726429520396515,0.8527744939417725
Blackrod,BLK,0.0,53.5915244932358,-2.56952431744104,53.47826324565094,-2.24163921811783,25.13041747976272,32.0,6.3,GREATER MANCHESTER PTE,ANYTIME DAY S,304.0,0.25069221412948384,0.196875,0.785325546242585,1.2733572781180134
Blackwater,BAW,1.0,51.3315811457068,-0.776741026218888,53.47826324565094,-2.24163921811783,258.82766470741814,238.0,111.05,CROSSCOUNTRY,ANYTIME S,700.0,0.42904996313099775,0.4665966386554622,1.087511196249656,0.9195307629462176
Blaenau Ffestiniog,BFF,1.0,52.9945530771849,-3.93859577234881,53.47826324565094,-2.24163921811783,125.43930790895827,198.0,41.1,TRANSPORT FOR WALES RAIL,ANYTIME DAY S,1000.0,0.3276484914109195,0.20757575757575758,0.6335318581260518,1.5784525863591743
Blair Atholl,BLA,1.0,56.7655504660718,-3.85022876626298,53.47826324565094,-2.24163921811783,380.04944774370085,376.0,106.5,VIRGIN WEST COAST,ANYTIME S,307.0,0.2802266932165676,0.28324468085106386,1.0107698078289917,0.989344945065065
Blairhill,BAI,1.0,55.8664556230225,-4.0432911996593,53.47826324565094,-2.24163921811783,290.12154441280506,270.0,77.9,LONDON NORTH EASTERN RAILWAY,ANYTIME S,95.0,0.26850815287663876,0.28851851851851856,1.0745242385659446,0.9306444323067068
Blake Street,BKT,1.0,52.6048860712992,-1.84491459685048,53.47826324565094,-2.24163921811783,100.77177123808903,109.0,45.35,CROSSCOUNTRY,ANYTIME S,0.0,0.4500268224208697,0.41605504587155967,0.9245116627347617,1.0816521200413407
Blakedown,BKD,2.0,52.4064026596129,-2.17686566095142,53.47826324565094,-2.24163921811783,119.36163453371019,137.0,52.05,CROSSCOUNTRY,ANYTIME S,326.0,0.4360697656607576,0.37992700729927004,0.8712528068154028,1.1477724859850873
Blantyre,BLT,1.0,55.7973304780703,-4.08697164977011,53.47826324565094,-2.24163921811783,284.2971075015302,209.0,71.2,LONDON NORTH EASTERN RAILWAY,ANYTIME S,95.0,0.25044222442402714,0.3406698564593302,1.360273241634116,0.7351464171997426
Blaydon,BLO,1.0,54.9657896857216,-1.71258088882198,53.47826324565094,-2.24163921811783,169.1317346238088,175.0,73.0,TRANSPENNINE EXPRESS,ANYTIME DAY S,0.0,0.43161622011605466,0.41714285714285715,0.9664670549931931,1.0346964180864324
Bleasby,BSB,1.0,53.0413649497003,-0.943687538181265,53.47826324565094,-2.24163921811783,99.32890400688466,169.0,45.3,EAST MIDLANDS TRAINS,ANYTIME S,0.0,0.45606060444259183,0.2680473372781065,0.5877449941235778,1.7014181490242388
Bletchley,BLY,1.0,51.9953339717924,-0.736320506839459,53.47826324565094,-2.24163921811783,193.8207940936588,120.0,113.5,VIRGIN WEST COAST,ANYTIME S,0.0,0.5855924826371008,0.9458333333333333,1.6151732841138233,0.6191286160039833
Bloxwich,BLX,1.0,52.6182018754768,-2.01147807238452,53.47826324565094,-2.24163921811783,96.95022757914707,137.0,48.3,CROSSCOUNTRY,ANYTIME S,0.0,0.49819377639489726,0.3525547445255474,0.7076658947382998,1.4130962187598537
Bloxwich North,BWN,1.0,52.6254378492086,-2.01768461058018,53.47826324565094,-2.24163921811783,96.08924736177606,139.0,48.3,CROSSCOUNTRY,ANYTIME S,0.0,0.5026576992340306,0.3474820143884892,0.6912895493652954,1.446571846656941
Blundellsands & Crosby,BLN,1.0,53.4876867000616,-3.03986028592851,53.47826324565094,-2.24163921811783,53.00051302093883,435.0,15.0,TRANSPENNINE EXPRESS,ANYTIME DAY S,0.0,0.28301612843019036,0.034482758620689655,0.1218402598182502,8.207467724475519
Blythe Bridge,BYB,1.0,52.9681439666743,-2.06696136521393,53.47826324565094,-2.24163921811783,57.957761015398575,63.0,15.5,EAST MIDLANDS TRAINS,ANYTIME DAY S,0.0,0.26743614191517623,0.24603174603174602,0.9199644605618821,1.0869985123003936
Bodmin Parkway,BOD,1.0,50.4458686645733,-4.66292953056928,53.47826324565094,-2.24163921811783,376.16445866540573,464.0,87.9,CROSSCOUNTRY,ANYTIME S,817.0,0.23367438888793615,0.18943965517241382,0.8106992643650985,1.2335030312173194
Bodorgan,BOR,1.0,53.2043074000119,-4.41800424551237,53.47826324565094,-2.24163921811783,148.1256557849285,196.0,43.4,TRANSPORT FOR WALES RAIL,ANYTIME DAY S,1000.0,0.2929944834338135,0.22142857142857142,0.7557431417598394,1.3232008929268997
Bognor Regis,BOG,2.0,50.7865584395345,-0.676178286011514,53.47826324565094,-2.24163921811783,318.0900850710067,290.0,220.5,VIRGIN WEST COAST,ANYTIME S,0.0,0.6931998523335872,0.7603448275862069,1.096862362313816,0.9116914157675295
Bogston,BGS,1.0,55.9370473872407,-4.71140217696609,53.47826324565094,-2.24163921811783,316.5905378637822,276.0,79.9,VIRGIN WEST COAST,ANYTIME S,275.0,0.25237646247778317,0.28949275362318844,1.1470671661731238,0.8717885312123672
Bolton,BON,0.0,53.5741455351566,-2.42582497565139,53.47826324565094,-2.24163921811783,16.21973028236437,32.0,4.4,GREATER MANCHESTER PTE,ANYTIME DAY S,1000.0,0.2712745479364782,0.1375,0.5068665713238866,1.9729058031743867
Bolton-Upon-Dearne,BTD,1.0,53.5189470302023,-1.31154616002462,53.47826324565094,-2.24163921811783,61.887537127950544,141.0,21.6,TRANSPENNINE EXPRESS,ANYTIME DAY S,0.0,0.349020190532751,0.15319148936170213,0.43891870303511027,2.278326243755458
Bookham,BKA,2.0,51.2887375770933,-0.384020684769355,53.47826324565094,-2.24163921811783,274.4911681062932,220.0,194.5,VIRGIN WEST COAST,ANYTIME S,0.0,0.708583818349603,0.884090909090909,1.247687127755878,0.8014829821949238
Bootle (Cumbria),BOC,1.0,54.2913058315169,-3.39386227213438,53.47826324565094,-2.24163921811783,118.0209199290158,251.0,45.7,NORTHERN,ANYTIME DAY S,317.0,0.3872194864053463,0.18207171314741036,0.4702028682430909,2.126741599294134
Bootle New Strand,BNW,2.0,53.4533917659639,-2.99474773972908,53.47826324565094,-2.24163921811783,50.092050187356676,90.0,15.0,TRANSPENNINE EXPRESS,ANYTIME DAY S,0.0,0.29944871379582755,0.16666666666666666,0.5565783354150742,1.7966922827749654
Bootle Oriel Road,BOT,2.0,53.4466239167649,-2.9957338918952,53.47826324565094,-2.24163921811783,50.20861562975329,84.0,15.0,TRANSPENNINE EXPRESS,ANYTIME DAY S,0.0,0.29875350698000724,0.17857142857142858,0.5977216146399201,1.6730196390880405
Bordesley,BBS,2.0,52.4718743800827,-1.87776885469942,53.47826324565094,-2.24163921811783,114.63270568620375,117.0,45.35,CROSSCOUNTRY,ANYTIME S,0.0,0.3956113547920727,0.3876068376068376,0.9797667152666987,1.0206511248218855
Borough Green & Wrotham,BRG,2.0,51.2932170234776,0.306244959659036,53.47826324565094,-2.24163921811783,298.63980397479025,222.0,198.0,VIRGIN WEST COAST,ANYTIME S,0.0,0.6630060606948236,0.8918918918918919,1.3452243422287848,0.7433704316881355
Borth,BRH,1.0,52.4910318901744,-4.05017708151719,53.47826324565094,-2.24163921811783,163.76987351638246,210.0,48.6,TRANSPORT FOR WALES RAIL,ANYTIME DAY S,1000.0,0.2967578771143056,0.23142857142857143,0.7798565405542022,1.2822871233334194
Bosham,BOH,2.0,50.8427472866996,-0.847431235664145,53.47826324565094,-2.24163921811783,308.368762993449,342.0,220.5,CROSSCOUNTRY,ANYTIME S,0.0,0.7150529705393159,0.6447368421052632,0.9016630496884475,1.109061750224245
Boston,BSN,1.0,52.9780883520384,-0.03100323679323,53.47826324565094,-2.24163921811783,157.76961672339488,237.0,51.2,EAST MIDLANDS TRAINS,ANYTIME S,0.0,0.3245238282461252,0.2160337552742616,0.6656945853307801,1.5021903768424154
Botley,BOE,1.0,50.9164546156522,-1.25923650546392,53.47826324565094,-2.24163921811783,292.8548923425464,290.0,131.1,CROSSCOUNTRY,ANYTIME S,700.0,0.44766197672619035,0.45206896551724135,1.0098444563536082,0.9902515122089642
Bottesford,BTF,1.0,52.9446141670485,-0.794842711685305,53.47826324565094,-2.24163921811783,113.4430349536661,165.0,54.0,EAST MIDLANDS TRAINS,ANYTIME S,0.0,0.47600983191304247,0.32727272727272727,0.6875335451737339,1.454474486400963
Bourne End,BNE,2.0,51.5771173647136,-0.710473547391366,53.47826324565094,-2.24163921811783,235.68506696744188,264.0,101.05,CROSSCOUNTRY,ANYTIME S,700.0,0.4287501168411289,0.3827651515151515,0.8927464657857647,1.1201388505300152
Bournemouth,BMH,0.0,50.7272746595869,-1.86450316465566,53.47826324565094,-2.24163921811783,307.18806286698106,280.0,146.05,CROSSCOUNTRY,ANYTIME S,700.0,0.47544165172603975,0.5216071428571429,1.0971002245249324,0.9114937520252729
Bournville,BRV,1.0,52.4269645832552,-1.92642405915734,53.47826324565094,-2.24163921811783,118.89656503420916,120.0,45.35,CROSSCOUNTRY,ANYTIME S,0.0,0.3814239712219761,0.3779166666666667,0.9908047086184096,1.0092806294738066
Bow Brickhill,BWB,2.0,52.0043001848605,-0.696077833880482,53.47826324565094,-2.24163921811783,194.4117791451101,177.0,113.5,VIRGIN WEST COAST,ANYTIME S,0.0,0.5838123620857506,0.6412429378531074,1.0983716335881926,0.9104386615786596
Bowes Park,BOP,2.0,51.6070103763875,-0.120581954633459,53.47826324565094,-2.24163921811783,253.08929439115397,193.0,189.5,VIRGIN WEST COAST,ANYTIME S,0.0,0.7487475930417049,0.9818652849740933,1.3113434942546838,0.7625767042588341
Bowling,BWG,2.0,55.9310849001239,-4.49384261915191,53.47826324565094,-2.24163921811783,309.20352256210697,294.0,77.9,VIRGIN WEST COAST,ANYTIME S,275.0,0.25193762139094944,0.2649659863945578,1.051712661775874,0.9508300473548028
Box Hill & Westhumble,BXW,2.0,51.2540106794359,-0.328489952956063,53.47826324565094,-2.24163921811783,279.6887508527141,234.0,111.05,VIRGIN WEST COAST,ANYTIME S,0.0,0.39704850360063154,0.47457264957264955,1.195251072020146,0.8366443029495523
Bracknell,BCE,1.0,51.4130914141393,-0.751703650172948,53.47826324565094,-2.24163921811783,251.12861462124908,228.0,101.05,CROSSCOUNTRY,ANYTIME S,700.0,0.4023834565901743,0.4432017543859649,1.1014412921984609,0.9079013171950494
Bradford Forster Square,BDQ,1.0,53.7969256219995,-1.75296173787813,53.47826324565094,-2.24163921811783,47.985802188904735,86.0,26.8,TRANSPENNINE EXPRESS,ANYTIME DAY S,0.0,0.5584985303464759,0.3116279069767442,0.5579744440570318,1.79219677648496
Bradford Interchange,BDI,0.0,53.7910764525054,-1.74959589964649,53.47826324565094,-2.24163921811783,47.659949293265285,65.0,26.8,TRANSPENNINE EXPRESS,ANYTIME DAY S,0.0,0.5623170061531527,0.4123076923076923,0.7332299891271582,1.3638285596998105
Bradford-on-Avon,BOA,1.0,51.3449161602034,-2.25232693866303,53.47826324565094,-2.24163921811783,237.38958247833406,217.0,102.2,CROSSCOUNTRY,ANYTIME S,700.0,0.4305159431725591,0.4709677419354839,1.0939612095775764,0.9141091944074885
Brading,BDN,3.0,50.6783720718463,-1.13872244962043,53.47826324565094,-2.24163921811783,320.57457297063473,356.0,240.5,VIRGIN WEST COAST,ANYTIME S,200.0,0.750215457736975,0.675561797752809,0.9004903735130189,1.110506041390283
Braintree,BTR,2.0,51.8753890748181,0.556686982906197,53.47826324565094,-2.24163921811783,260.03848328019785,245.0,212.5,VIRGIN WEST COAST,ANYTIME S,0.0,0.817186738360668,0.8673469387755102,1.0613815644089708,0.9421682395217115
Braintree Freeport,BTP,2.0,51.8694135093739,0.568434688069829,53.47826324565094,-2.24163921811783,261.0817463037218,243.0,212.5,VIRGIN WEST COAST,ANYTIME S,0.0,0.8139213216108734,0.8744855967078189,1.074410478616139,0.9307429701244341
Bramhall,BML,0.0,53.360614520234,-2.16359288123925,53.47826324565094,-2.24163921811783,14.084292905212536,24.0,5.3,GREATER MANCHESTER PTE,ANYTIME DAY S,325.0,0.37630572125054945,0.22083333333333333,0.586845537717189,1.704025907549658
Bramley (Hants),BMY,1.0,51.3302932744388,-1.06100278415591,53.47826324565094,-2.24163921811783,252.15060942516996,225.0,104.05,CROSSCOUNTRY,ANYTIME S,700.0,0.4126502023421785,0.46244444444444444,1.1206693752229775,0.8923238397596363
Bramley (W Yorks),BLE,0.0,53.8053497570895,-1.63720635437646,53.47826324565094,-2.24163921811783,54.06733944187518,83.0,23.0,TRANSPENNINE EXPRESS,ANYTIME DAY S,0.0,0.42539544644555766,0.27710843373493976,0.6514137282153636,1.5351226980426647
Brampton (Cumbria),BMP,1.0,54.9323930102284,-2.70294760254176,53.47826324565094,-2.24163921811783,164.6317298097714,184.0,57.7,VIRGIN WEST COAST,ANYTIME S,307.0,0.35047921847551,0.3135869565217391,0.8947376620096271,1.1176460346532728
Brampton (Suffolk),BRP,2.0,52.3954307722651,1.54381046672808,53.47826324565094,-2.24163921811783,281.5527049444714,423.0,107.1,EAST MIDLANDS TRAINS,ANYTIME S,700.0,0.3803905915985519,0.2531914893617021,0.6656092315472136,1.5023830088346168
Branchton,BCN,1.0,55.9406016000061,-4.80354935893801,53.47826324565094,-2.24163921811783,319.949750579074,259.0,80.4,VIRGIN WEST COAST,ANYTIME S,275.0,0.251289459843256,0.3104247104247104,1.2353272223130272,0.8095021156642203
Brandon,BND,1.0,52.4540047306678,0.624731734521936,53.47826324565094,-2.24163921811783,223.76929372118218,255.0,88.2,EAST MIDLANDS TRAINS,ANYTIME S,700.0,0.3941559564910533,0.3458823529411765,0.8775266420438517,1.139566540875494
Branksome,BSM,1.0,50.7269660330633,-1.91975842787338,53.47826324565094,-2.24163921811783,306.9273413160857,328.0,146.05,CROSSCOUNTRY,ANYTIME S,700.0,0.47584551892231736,0.4452743902439025,0.9357540893783101,1.068656831266827
Braystones (Cumbria),BYS,1.0,54.4393640536404,-3.54182643942065,53.47826324565094,-2.24163921811783,136.84287439659334,248.0,67.1,NORTHERN,ANYTIME DAY S,0.0,0.4903433978267152,0.27056451612903226,0.5517857838572312,1.8122975061255646
Bredbury,BDY,0.0,53.4231550957567,-2.11048830300964,53.47826324565094,-2.24163921811783,10.655303657659955,16.0,4.4,GREATER MANCHESTER PTE,ANYTIME DAY S,1000.0,0.412939897478839,0.275,0.6659564786037472,1.501599627195778
Breich,BRC,1.0,55.8273164832767,-3.66812586892786,53.47826324565094,-2.24163921811783,277.2107642930645,321.0,76.5,LONDON NORTH EASTERN RAILWAY,ANYTIME S,95.0,0.2759633097043986,0.2383177570093458,0.8635849354924129,1.1579636917008096
Brentford,BFD,2.0,51.4875457097478,-0.3096509962364,53.47826324565094,-2.24163921811783,257.4622136480694,210.0,191.0,VIRGIN WEST COAST,ANYTIME S,0.0,0.7418564351391851,0.9095238095238095,1.2260105411812827,0.8156536721425595
Brentwood,BRE,2.0,51.6136030493508,0.2995857793073,53.47826324565094,-2.24163921811783,269.7317139027644,221.0,196.5,VIRGIN WEST COAST,ANYTIME S,200.0,0.7285016550587607,0.8891402714932126,1.2205054927726895,0.8193326502187589
Bricket Wood,BWO,1.0,51.7054267834401,-0.359115040469,53.47826324565094,-2.24163921811783,234.91622514757867,144.0,177.5,VIRGIN WEST COAST,ANYTIME S,200.0,0.7555885077264938,1.2326388888888888,1.631362674635963,0.6129844795076907
Bridge of Allan,BEA,1.0,56.1566398048563,-3.95722936202684,53.47826324565094,-2.24163921811783,317.87477132424397,267.0,89.5,VIRGIN WEST COAST,ANYTIME S,307.0,0.2815574184360378,0.3352059925093633,1.1905422146975428,0.8399534158929843
Bridge of Orchy,BRO,2.0,56.5158728605762,-4.76299400728156,53.47826324565094,-2.24163921811783,374.62258856682337,440.0,99.5,VIRGIN WEST COAST,ANYTIME S,275.0,0.2656006419171162,0.22613636363636364,0.8514149740155077,1.1745154014425239
Bridgend,BGN,0.0,51.5069776497295,-3.57527638119945,53.47826324565094,-2.24163921811783,237.31421548804215,226.0,81.6,TRANSPORT FOR WALES RAIL,ANYTIME DAY S,1000.0,0.3438479226041631,0.36106194690265486,1.050062900389567,0.9523239032909419
Bridgeton,BDG,1.0,55.8489676845822,-4.22605724682491,53.47826324565094,-2.24163921811783,293.2969688235736,215.0,76.3,VIRGIN WEST COAST,ANYTIME S,275.0,0.2601458866282952,0.35488372093023257,1.3641719480166214,0.7330454210364805
Bridgwater,BWT,1.0,51.1278595271724,-2.99040597303838,53.47826324565094,-2.24163921811783,266.4731077687153,281.0,116.95,CROSSCOUNTRY,ANYTIME S,0.0,0.4388810600036476,0.41619217081850535,0.9483028746217627,1.054515415656477
Bridlington,BDT,1.0,54.0841300013586,-0.198720390714093,53.47826324565094,-2.24163921811783,150.59963992027565,183.0,58.2,TRANSPENNINE EXPRESS,ANYTIME DAY S,0.0,0.38645510726858234,0.31803278688524594,0.8229488520233642,1.2151423475970888
Brierfield,BRF,1.0,53.8239823807197,-2.23649020577414,53.47826324565094,-2.24163921811783,38.47952345941241,108.0,14.6,NORTHERN,ANYTIME DAY S,0.0,0.3794225782291677,0.13518518518518519,0.3562918838834483,2.806687564982884
Brigg,BGG,1.0,53.5491442686681,-0.486124757673641,53.47826324565094,-2.24163921811783,116.72061087481471,173.0,25.5,EAST MIDLANDS TRAINS,ANYTIME S,0.0,0.21847041245653934,0.14739884393063585,0.6746856119931486,1.4821718178424041
Brighouse,BGH,0.0,53.6981985445311,-1.77943904000537,53.47826324565094,-2.24163921811783,39.19168273091556,58.0,14.2,TRANSPENNINE EXPRESS,ANYTIME DAY S,0.0,0.36232177366547774,0.24482758620689654,0.6757186677744061,1.4799058360984303
Brighton (East Sussex),BTN,2.0,50.8290032740444,-0.141280362604851,53.47826324565094,-2.24163921811783,327.9317801033015,248.0,213.5,VIRGIN WEST COAST,ANYTIME S,0.0,0.6510500444109002,0.8608870967741935,1.3223055649326674,0.756254852524137
Brimsdown,BMD,2.0,51.6555817179022,-0.0308174334464399,53.47826324565094,-2.24163921811783,252.18487599575386,194.0,192.5,VIRGIN WEST COAST,ANYTIME S,0.0,0.7633288841763898,0.9922680412371134,1.2999220412152261,0.7692769014556863
Brinnington,BNT,0.0,53.4321182782686,-2.13512015019042,53.47826324565094,-2.24163921811783,8.743253931650113,14.0,4.1,GREATER MANCHESTER PTE,ANYTIME DAY S,1000.0,0.4689329661532783,0.2928571428571428,0.6245181379750081,1.60123451857217
Bristol Parkway,BPW,0.0,51.5138036668802,-2.54216343130652,53.47826324565094,-2.24163921811783,219.54886456357391,169.0,96.3,CROSSCOUNTRY,ANYTIME S,0.0,0.43862672754618043,0.5698224852071005,1.2991057074767687,0.769760300678136
Bristol Temple Meads,BRI,0.0,51.449146420501,-2.58131562733598,53.47826324565094,-2.24163921811783,226.9686807870784,179.0,96.3,CROSSCOUNTRY,ANYTIME S,0.0,0.42428761389479985,0.5379888268156424,1.2679814569110526,0.7886550663257443
Brithdir,BHD,1.0,51.7103060616454,-3.22872077880337,53.47826324565094,-2.24163921811783,207.79056544798922,276.0,81.6,TRANSPORT FOR WALES RAIL,ANYTIME DAY S,1000.0,0.3927031038395475,0.29565217391304344,0.7528643675651784,1.3282604982808224
Briton Ferry,BNF,0.0,51.6379005035521,-3.81925304025098,53.47826324565094,-2.24163921811783,231.04342516709406,248.0,81.6,TRANSPORT FOR WALES RAIL,ANYTIME DAY S,1000.0,0.3531803596704198,0.3290322580645161,0.9316267143834438,1.073391289194413
Brixton,BRX,2.0,51.4632974069132,-0.114183479348404,53.47826324565094,-2.24163921811783,266.75832061768654,193.0,191.0,VIRGIN WEST COAST,ANYTIME S,0.0,0.7160039077983923,0.9896373056994818,1.3821674643403448,0.7235013309167001
Broad Green,BGE,0.0,53.4065063198581,-2.8934843782564,53.47826324565094,-2.24163921811783,44.04435879652584,54.0,12.1,NORTHERN,ANYTIME DAY S,0.0,0.2747230367434576,0.22407407407407406,0.8156362740097378,1.2260366929046869
Broadbottom,BDB,0.0,53.4409753914717,-2.01652101691897,53.47826324565094,-2.24163921811783,15.518012245058433,26.0,4.4,GREATER MANCHESTER PTE,ANYTIME DAY S,1000.0,0.28354146977820177,0.16923076923076924,0.5968466248099398,1.6754723214166465
Broadstairs,BSR,2.0,51.3606706129939,1.43356042841681,53.47826324565094,-2.24163921811783,343.4926699927036,286.0,221.5,VIRGIN WEST COAST,ANYTIME S,0.0,0.644846366022032,0.7744755244755245,1.20102332165281,0.8326232987914273
Brockenhurst,BCU,0.0,50.8168418133325,-1.57353117285741,53.47826324565094,-2.24163921811783,299.64343420091365,265.0,137.2,CROSSCOUNTRY,ANYTIME S,700.0,0.45787754490894716,0.5177358490566037,1.1307299403808062,0.8843844708518295
Brockholes,BHS,1.0,53.5969730380642,-1.76969142002127,53.47826324565094,-2.24163921811783,33.96515712317308,68.0,14.2,TRANSPENNINE EXPRESS,ANYTIME DAY S,0.0,0.4180754986206704,0.20882352941176469,0.4994876047525453,2.002051683535605
Brockley,BCY,2.0,51.4646472014469,-0.0375366925196268,53.47826324565094,-2.24163921811783,269.48834559822575,201.0,191.0,VIRGIN WEST COAST,ANYTIME S,0.0,0.7087505011617745,0.9502487562189055,1.340738037802118,0.7458578572435428
Bromborough,BOM,1.0,53.3218495381578,-2.98689585549247,53.47826324565094,-2.24163921811783,52.5381907141886,73.0,19.1,TRANSPENNINE EXPRESS,ANYTIME DAY S,0.0,0.36354506579614293,0.2616438356164384,0.7197012426601178,1.3894654347182425
Bromborough Rake,BMR,1.0,53.3299093778849,-2.98946942122466,53.47826324565094,-2.24163921811783,52.4058194669319,71.0,19.1,TRANSPENNINE EXPRESS,ANYTIME DAY S,0.0,0.3644633400313893,0.2690140845070423,0.7381101333370691,1.35481136870307
Bromley Cross (Lancs),BMC,0.0,53.6140430093272,-2.41089911446368,53.47826324565094,-2.24163921811783,18.82149732859268,31.0,5.3,GREATER MANCHESTER PTE,ANYTIME DAY S,304.0,0.2815928991976905,0.17096774193548386,0.6071450751158929,1.647052806628001
Bromley North,BMN,3.0,51.4083259856208,0.0169926357417391,53.47826324565094,-2.24163921811783,276.80930491487044,215.0,191.0,VIRGIN WEST COAST,ANYTIME S,0.0,0.6900057064871424,0.8883720930232558,1.2874851391389324,0.7767079942132755
Bromley South,BMS,2.0,51.3999745779484,0.0173440284479178,53.47826324565094,-2.24163921811783,277.60394687170464,201.0,191.0,VIRGIN WEST COAST,ANYTIME S,0.0,0.6880305635145423,0.9502487562189055,1.381114163540819,0.7240531061069267
Bromsgrove,BMV,1.0,52.3222879772082,-2.04734524157192,53.47826324565094,-2.24163921811783,129.30454590392793,132.0,66.2,CROSSCOUNTRY,ANYTIME S,323.0,0.5119696259494696,0.5015151515151516,0.9795798932115752,1.0208457798388215
Brondesbury,BSY,2.0,51.5451643215911,-0.202308734122339,53.47826324565094,-2.24163921811783,255.79169142624974,195.0,175.5,VIRGIN WEST COAST,ANYTIME S,0.0,0.6861051624524733,0.9,1.3117522637243577,0.762339069391637
Brondesbury Park,BSP,2.0,51.5406977630272,-0.210127665126915,53.47826324565094,-2.24163921811783,255.9271367916065,459.0,175.5,VIRGIN WEST COAST,ANYTIME S,0.0,0.6857420522111501,0.38235294117647056,0.557575461419622,1.793479213475316
Brookmans Park,BPK,2.0,51.7210604040222,-0.204548729285783,53.47826324565094,-2.24163921811783,239.3248936802839,184.0,192.5,VIRGIN WEST COAST,ANYTIME S,0.0,0.8043459125366303,1.046195652173913,1.300678770001543,0.7688293397752727
Brookwood,BKO,1.0,51.3037572593507,-0.635747900032551,53.47826324565094,-2.24163921811783,265.50193486675397,265.0,111.05,VIRGIN WEST COAST,ANYTIME S,0.0,0.4182643718047933,0.4190566037735849,1.0018940938368075,0.9981094869722668
Broome,BME,1.0,52.4227745962921,-2.88520796216339,53.47826324565094,-2.24163921811783,125.17089255239172,147.0,31.1,TRANSPORT FOR WALES RAIL,ANYTIME DAY S,1000.0,0.24846031985417646,0.21156462585034014,0.8515026704244335,1.1743944378959466
Broomfleet,BMF,1.0,53.7402076992399,-0.671828400321333,53.47826324565094,-2.24163921811783,107.9132126973632,168.0,40.5,TRANSPENNINE EXPRESS,ANYTIME DAY S,0.0,0.37530158715207623,0.24107142857142858,0.6423405517700191,1.556806583741946
Brora,BRA,2.0,58.012954677959,-3.85228367382381,53.47826324565094,-2.24163921811783,514.8727116353873,671.0,142.0,VIRGIN WEST COAST,ANYTIME S,307.0,0.2757963216752471,0.21162444113263784,0.7673214778470749,1.3032347312964139
Brough,BUH,0.0,53.726959736948,-0.578724236728498,53.47826324565094,-2.24163921811783,113.50639666491051,107.0,40.5,TRANSPENNINE EXPRESS,ANYTIME DAY S,0.0,0.3568080847422427,0.37850467289719625,1.0608074454664533,0.9426781498128386
Broughty Ferry,BYF,1.0,56.4671632427311,-2.87315275743822,53.47826324565094,-2.24163921811783,335.1777639860168,366.0,103.7,TRANSPENNINE EXPRESS,ANYTIME S,307.0,0.3093880655052232,0.2833333333333333,0.9157862403989531,1.0919578782537287
Broxbourne,BXB,2.0,51.7469087203036,-0.0110867237416249,53.47826324565094,-2.24163921811783,244.81598564191017,208.0,192.5,VIRGIN WEST COAST,ANYTIME S,0.0,0.7863048627942448,0.9254807692307693,1.176999930970722,0.8496177218763789
Bruce Grove,BCV,2.0,51.5939575362971,-0.0698670703254643,53.47826324565094,-2.24163921811783,256.25920240313445,186.0,189.5,VIRGIN WEST COAST,ANYTIME S,0.0,0.7394856388489334,1.0188172043010753,1.3777376473286798,0.7258275927488211
Brundall,BDA,1.0,52.6194794445227,1.43929868679443,53.47826324565094,-2.24163921811783,264.6652449628902,299.0,99.9,VIRGIN WEST COAST,ANYTIME S,200.0,0.3774579469775391,0.334113712374582,0.8851680433541478,1.1297289904532952
Brundall Gardens,BGA,1.0,52.623439277351,1.41841612253682,53.47826324565094,-2.24163921811783,263.19036139492954,296.0,99.9,VIRGIN WEST COAST,ANYTIME S,200.0,0.3795731708050484,0.3375,0.8891566263342214,1.124661246829773
Brunstane,BSU,1.0,55.9425140850115,-3.10098653970798,53.47826324565094,-2.24163921811783,279.84585431718216,221.0,77.0,LONDON NORTH EASTERN RAILWAY,ANYTIME S,95.0,0.2751514764722112,0.34841628959276016,1.2662708340143989,0.7897204714332297
Brunswick,BRW,1.0,53.3832435421687,-2.97607735757102,53.47826324565094,-2.24163921811783,49.94808178232361,69.0,15.0,TRANSPENNINE EXPRESS,ANYTIME DAY S,0.0,0.30031183310243614,0.21739130434782608,0.7238852432220814,1.3814344322712062
Bruton,BRU,1.0,51.1116412233567,-2.44707381432238,53.47826324565094,-2.24163921811783,263.71332772202135,283.0,116.95,CROSSCOUNTRY,ANYTIME S,700.0,0.44347398370125723,0.41325088339222615,0.9318492145654464,1.0731349926246754
Bryn,BYN,1.0,53.4998691660173,-2.6472139954436,53.47826324565094,-2.24163921811783,27.027627556705767,62.0,7.3,GREATER MANCHESTER PTE,ANYTIME DAY S,327.0,0.2700939986198978,0.11774193548387096,0.43592947672106075,2.293949029374475
Buckenham (Norfolk),BUC,-999.0,52.5977342869752,1.47032522512213,53.47826324565094,-2.24163921811783,267.5403942645755,-999.0,107.1,VIRGIN WEST COAST,ANYTIME S,200.0,0.4003133818143621,-999.0,-999.0,-999.0
Buckley,BCK,1.0,53.163039091322,-3.05592619131988,53.47826324565094,-2.24163921811783,64.61540805506758,168.0,23.5,TRANSPORT FOR WALES RAIL,ANYTIME DAY S,1000.0,0.3636903442592586,0.13988095238095238,0.384615524137307,2.599999056832147
Bucknell,BUK,1.0,52.3573820377697,-2.94737831871819,53.47826324565094,-2.24163921811783,133.4629501883304,156.0,31.1,TRANSPORT FOR WALES RAIL,ANYTIME DAY S,1000.0,0.23302347172840548,0.19935897435897437,0.855531731976477,1.1688637167084004
Buckshaw Parkway,BSV,0.0,53.6733436562841,-2.6608302706882,53.47826324565094,-2.24163921811783,35.248142747739294,48.0,11.2,NORTHERN,ANYTIME DAY S,0.0,0.3177472379227224,0.2333333333333333,0.7343363072445687,1.3617738768116674
Bugle,BGL,3.0,50.4003548175137,-4.79210144517706,53.47826324565094,-2.24163921811783,384.7090761642632,497.0,97.5,CROSSCOUNTRY,ANYTIME S,817.0,0.25343826293916033,0.19617706237424548,0.7740625274934874,1.2918852992898737
Builth Road,BHR,1.0,52.1693260878635,-3.42703322967269,53.47826324565094,-2.24163921811783,166.13515930954048,226.0,31.6,TRANSPORT FOR WALES RAIL,ANYTIME DAY S,1000.0,0.19020657717084055,0.13982300884955753,0.7351113243784977,1.3603381785003152
Bulwell,BLW,1.0,52.9996957837852,-1.19623056375416,53.47826324565094,-2.24163921811783,87.79573630548542,188.0,45.3,EAST MIDLANDS TRAINS,ANYTIME S,0.0,0.5159703865615816,0.2409574468085106,0.4669985973696033,2.1413340546043567
Bures,BUE,3.0,51.9711590332091,0.769143780923498,53.47826324565094,-2.24163921811783,263.60167082113395,253.0,88.2,VIRGIN WEST COAST,ANYTIME S,200.0,0.3345957547433295,0.3486166007905138,1.0419038372376836,0.959781473356716
Burgess Hill,BUG,2.0,50.9536546008005,-0.127412852764647,53.47826324565094,-2.24163921811783,315.8687091512317,223.0,209.0,VIRGIN WEST COAST,ANYTIME S,0.0,0.6616673128579347,0.9372197309417041,1.41645161054364,0.7059895252024853
Burley Park,BUY,1.0,53.8120311080587,-1.57776768947798,53.47826324565094,-2.24163921811783,57.51007822083119,95.0,23.0,TRANSPENNINE EXPRESS,ANYTIME DAY S,0.0,0.39992990292384933,0.24210526315789474,0.605369244429802,1.6518843816419864
Burley-in-Wharfedale,BUW,1.0,53.9081516997075,-1.75337211508043,53.47826324565094,-2.24163921811783,57.70194916069826,107.0,26.8,TRANSPENNINE EXPRESS,ANYTIME DAY S,0.0,0.4644557140585108,0.2504672897196262,0.5392705529037221,1.854356768815696
Burnage,BNA,0.0,53.4211687602571,-2.21567840315285,53.47826324565094,-2.24163921811783,6.584235308707891,12.0,3.5,GREATER MANCHESTER PTE,ANYTIME DAY S,1000.0,0.5315727394145714,0.2916666666666667,0.5486862757256575,1.822535106564245
Burneside (Cumbria),BUD,1.0,54.3549826054845,-2.76667730640148,53.47826324565094,-2.24163921811783,103.49982171968969,84.0,33.3,NORTHERN,ANYTIME DAY S,317.0,0.32173968463623975,0.3964285714285714,1.2321407347582105,0.8115956008842085
Burnham (Bucks),BNM,1.0,51.5235048795581,-0.646373823188634,53.47826324565094,-2.24163921811783,242.98803563195062,232.0,101.05,CROSSCOUNTRY,ANYTIME S,700.0,0.4158640969181648,0.4355603448275862,1.0473622225515113,0.9547795198912838
Burnham-on-Crouch,BUU,2.0,51.6336547723703,0.814027782561537,53.47826324565094,-2.24163921811783,291.64315213038077,235.0,205.5,VIRGIN WEST COAST,ANYTIME S,0.0,0.704628236592814,0.874468085106383,1.2410346899165139,0.8057792486584492
Burnley Barracks,BUB,1.0,53.7908801067712,-2.25808600820696,53.47826324565094,-2.24163921811783,34.810691856313284,115.0,14.6,NORTHERN,ANYTIME DAY S,0.0,0.41941137108862536,0.12695652173913044,0.30270166831576767,3.3035827174788985
Burnley Central,BNC,1.0,53.7935141377532,-2.24497131410056,53.47826324565094,-2.24163921811783,35.08755030514848,74.0,14.6,NORTHERN,ANYTIME DAY S,0.0,0.4161020040734421,0.19729729729729728,0.4741560852047092,2.109010157632515
Burnley Manchester Road,BYM,0.0,53.784967519749,-2.24886752625716,53.47826324565094,-2.24163921811783,34.1389592841054,46.0,14.6,NORTHERN,ANYTIME DAY S,0.0,0.4276638862508485,0.3173913043478261,0.7421512887848999,1.3474341621602077
Burnside (Strathclyde),BUI,1.0,55.8169313339993,-4.20239033426663,53.47826324565094,-2.24163921811783,289.44414121298456,237.0,77.9,VIRGIN WEST COAST,ANYTIME S,275.0,0.2691365583478094,0.3286919831223629,1.2212832962573188,0.8188108386191377
Burntisland,BTS,1.0,56.0570842114504,-3.23319831966981,53.47826324565094,-2.24163921811783,294.072400251,258.0,71.0,VIRGIN WEST COAST,ANYTIME S,317.0,0.24143714248395728,0.2751937984496124,1.1398155048488372,0.8773349684628308
Burscough Bridge,BCB,0.0,53.6052595050232,-2.84088028461687,53.47826324565094,-2.24163921811783,42.16535023136949,56.0,10.5,NORTHERN,ANYTIME DAY S,327.0,0.24901963205296423,0.1875,0.7529526827030265,1.3281047042824758
Burscough Junction,BCJ,1.0,53.5975223038556,-2.84060569626726,53.47826324565094,-2.24163921811783,41.870723496106265,74.0,19.5,TRANSPENNINE EXPRESS,ANYTIME DAY S,0.0,0.46571920358179114,0.2635135135135135,0.5658205877852198,1.7673446700026947
Bursledon,BUO,1.0,50.8836886125224,-1.30503236047306,53.47826324565094,-2.24163921811783,295.7158196201681,312.0,131.1,CROSSCOUNTRY,ANYTIME S,700.0,0.44333103372146704,0.4201923076923077,0.9478071141672054,1.0550669910076103
Burton Joyce,BUJ,1.0,52.9834418843688,-1.04087761567102,53.47826324565094,-2.24163921811783,97.27201153409372,157.0,45.3,EAST MIDLANDS TRAINS,ANYTIME S,0.0,0.4657043612604064,0.28853503184713375,0.6195669524464569,1.6140305677237043
Burton-on-Trent,BUT,1.0,52.8058165084357,-1.64245997205794,53.47826324565094,-2.24163921811783,84.89934733700565,91.0,43.6,CROSSCOUNTRY,ANYTIME S,0.0,0.5135492953430018,0.47912087912087914,0.932959860846216,1.0718574742250724
Bury St Edmunds,BSE,1.0,52.2537604920335,0.713306656862091,53.47826324565094,-2.24163921811783,241.15340645932517,307.0,88.2,EAST MIDLANDS TRAINS,ANYTIME S,700.0,0.3657422936502309,0.28729641693811075,0.7855159819521993,1.2730485731362913
Busby,BUS,1.0,55.7803445376612,-4.26220173231044,53.47826324565094,-2.24163921811783,287.5423297398251,260.0,77.9,VIRGIN WEST COAST,ANYTIME S,275.0,0.2709166336326401,0.2996153846153846,1.1059320374608659,0.9042146950511737
Bush Hill Park,BHK,2.0,51.6415169536941,-0.0692211146516689,53.47826324565094,-2.24163921811783,251.92810650664214,195.0,192.5,VIRGIN WEST COAST,ANYTIME S,0.0,0.7641068821946816,0.9871794871794872,1.29193900772637,0.77403034819721
Bushey,BSH,1.0,51.6457502336329,-0.385321269560704,53.47826324565094,-2.24163921811783,239.62619550041822,173.0,175.0,VIRGIN WEST COAST,ANYTIME S,700.0,0.7303041290395756,1.0115606936416186,1.3851225173434578,0.7219577961362662
Butlers Lane,BUL,1.0,52.5924709448511,-1.83802031828625,53.47826324565094,-2.24163921811783,102.22742038442485,111.0,45.35,CROSSCOUNTRY,ANYTIME S,0.0,0.44361874563069215,0.40855855855855855,0.9209677512110347,1.0858143498347703
Buxted,BXD,2.0,50.9900108378352,0.131438921683175,53.47826324565094,-2.24163921811783,320.80539422731465,268.0,198.0,VIRGIN WEST COAST,ANYTIME S,0.0,0.6171966044302303,0.7388059701492538,1.1970350530869949,0.8353974241782914
Buxton,BUX,0.0,53.2607227045765,-1.91286358993768,53.47826324565094,-2.24163921811783,32.635486731235986,56.0,12.2,NORTHERN,ANYTIME DAY S,325.0,0.37382620030983543,0.21785714285714283,0.5827765487720712,1.715923542405802
Byfleet & New Haw,BFN,2.0,51.3497957278428,-0.481389767596653,53.47826324565094,-2.24163921811783,265.38732829115156,222.0,111.05,CROSSCOUNTRY,ANYTIME S,825.0,0.4184449977889264,0.5002252252252252,1.195438415725908,0.8365131878355845
Bynea,BYE,1.0,51.6720366859549,-4.09888164715589,53.47826324565094,-2.24163921811783,237.15610392831388,323.0,52.1,TRANSPORT FOR WALES RAIL,ANYTIME DAY S,1000.0,0.21968652350499263,0.16130030959752323,0.7342294239266683,1.3619721130923728
Cadoxton,CAD,1.0,51.4122831697514,-3.24889594393883,53.47826324565094,-2.24163921811783,239.87175548900717,234.0,78.0,TRANSPORT FOR WALES RAIL,ANYTIME DAY S,1000.0,0.32517375728954706,0.3333333333333333,1.0250929721752444,0.9755212718686412
Caergwrle,CGW,1.0,53.1078664074892,-3.03291327418616,53.47826324565094,-2.24163921811783,66.95642598439757,177.0,19.8,TRANSPORT FOR WALES RAIL,ANYTIME DAY S,1000.0,0.295714708616823,0.11186440677966102,0.3782848925672179,2.6435102739988716
Caerphilly,CPH,1.0,51.57158067131,-3.21848255919666,53.47826324565094,-2.24163921811783,222.28238790685614,245.0,81.6,TRANSPORT FOR WALES RAIL,ANYTIME DAY S,1000.0,0.3671006091323491,0.3330612244897959,0.9072750526810455,1.1022015837919796
Caersws,CWS,1.0,52.5161279090032,-3.43249879239218,53.47826324565094,-2.24163921811783,133.6278335805079,162.0,34.7,TRANSPORT FOR WALES RAIL,ANYTIME DAY S,1000.0,0.2596764391835627,0.21419753086419754,0.8248631702500488,1.2123222809146155
Caldercruix,CAC,1.0,55.8879475461776,-3.88771190821316,53.47826324565094,-2.24163921811783,288.4654370868905,249.0,77.9,LONDON NORTH EASTERN RAILWAY,ANYTIME S,95.0,0.270049683548519,0.31285140562249,1.1584957312726527,0.8631883338072045
Caldicot,CDT,1.0,51.5847930591881,-2.76057390572724,53.47826324565094,-2.24163921811783,213.6214689841439,199.0,71.6,TRANSPORT FOR WALES RAIL,ANYTIME DAY S,1000.0,0.33517230426551614,0.35979899497487433,1.0734747185132858,0.9315543093413089
Caledonian Rd & Barnsbury,CIR,2.0,51.5430392840645,-0.116729249835755,53.47826324565094,-2.24163921811783,259.17872049400836,184.0,177.5,VIRGIN WEST COAST,ANYTIME S,0.0,0.6848556072106368,0.9646739130434783,1.408580002684828,0.7099348266296178
Calstock,CSK,2.0,50.4978023671618,-4.20898850028348,53.47826324565094,-2.24163921811783,358.0733031562744,423.0,90.4,CROSSCOUNTRY,ANYTIME S,817.0,0.2524622729568493,0.21371158392434988,0.8465089909131782,1.181322361291452
Cam & Dursley,CDU,1.0,51.71762106741,-2.35908298700462,53.47826324565094,-2.24163921811783,196.0833778151716,225.0,66.8,CROSSCOUNTRY,ANYTIME S,0.0,0.3406714059310308,0.29688888888888887,0.8714816791785404,1.147471052911406
Camberley,CAM,2.0,51.3363271281171,-0.744271720142327,53.47826324565094,-2.24163921811783,259.1984650773437,277.0,115.9,VIRGIN WEST COAST,ANYTIME S,0.0,0.44714770963406725,0.4184115523465704,0.9357345309651398,1.0686791679778829
Camborne,CBN,0.0,50.2104431448962,-5.2974123155278,53.47826324565094,-2.24163921811783,420.084150237262,423.0,97.5,CROSSCOUNTRY,ANYTIME S,817.0,0.23209635484921856,0.23049645390070922,0.9931067381495555,1.0069411087304558
Cambridge,CBG,1.0,52.1940653655991,0.137456461171047,53.47826324565094,-2.24163921811783,214.75513420580157,265.0,216.0,VIRGIN WEST COAST,ANYTIME S,0.0,1.0057966753568064,0.8150943396226416,0.8103967328520814,1.233963513747934
Cambridge Heath,CBH,2.0,51.5319710950389,-0.0572790666047599,53.47826324565094,-2.24163921811783,262.47080442972117,199.0,189.5,VIRGIN WEST COAST,ANYTIME S,0.0,0.7219850619642546,0.9522613065326633,1.3189487659784984,0.7581795637513808
Cambuslang,CBL,1.0,55.8196110785266,-4.17300936139383,53.47826324565094,-2.24163921811783,288.8879960712942,207.0,76.3,VIRGIN WEST COAST,ANYTIME S,275.0,0.264116200872431,0.3685990338164251,1.3955941839192956,0.7165406760235022
Camden Road,CMD,2.0,51.541789311709,-0.138700901327927,53.47826324565094,-2.24163921811783,258.46895739886224,473.0,177.5,VIRGIN WEST COAST,ANYTIME S,0.0,0.686736240151605,0.3752642706131078,0.5464459987290956,1.8300069948828683
Camelon,CMO,1.0,56.0060960246981,-3.81760595611437,53.47826324565094,-2.24163921811783,299.1202836982933,229.0,71.0,VIRGIN WEST COAST,ANYTIME S,275.0,0.23736270614002866,0.31004366812227074,1.3062021122196215,0.7655783057192475
Canada Water,ZCW,2.0,51.4979884652777,-0.0497198367270248,53.47826324565094,-2.24163921811783,265.91719258010266,205.0,191.0,VIRGIN WEST COAST,ANYTIME S,0.0,0.7182687142068287,0.9317073170731708,1.2971570369761105,0.770916682787434
