Name,Code,Changes,lat,lon,terminal lat,terminal lon,linear distance,Journey time,fare,company,fare type,route code,cost per km,cost per min,speed (linear),minutes to travel 1km linear
Abbey Wood,ABW,1.0,51.4910605627019,0.121394025366647,52.9470746023914,-1.14638184532088,183.71854880315155,161.0,97.5,EAST MIDLANDS TRAINS,ANYTIME S,0.0,0.5307030816168055,0.6055900621118012,1.1411089987773388,0.8763404732339044
Aber,ABE,1.0,51.5749691125956,-3.22982905106563,52.9470746023914,-1.14638184532088,208.66038072962644,237.0,114.6,CROSSCOUNTRY,ANYTIME S,0.0,0.5492178227571336,0.4835443037974683,0.88042354738239,1.1358169632935486
Abercynon,ACY,1.0,51.6447124034837,-3.32698855170195,52.9470746023914,-1.14638184532088,207.66880215344685,259.0,114.6,CROSSCOUNTRY,ANYTIME S,0.0,0.5518402321949247,0.44247104247104246,0.8018100469245052,1.2471781861996991
Aberdare,ABA,1.0,51.7150618291708,-3.44308409477462,52.9470746023914,-1.14638184532088,208.08455782767177,286.0,114.6,CROSSCOUNTRY,ANYTIME S,0.0,0.5507376481771782,0.40069930069930065,0.7275683840128384,1.3744412511228008
Aberdeen,ABD,2.0,57.1437058328662,-2.09868538622245,52.9470746023914,-1.14638184532088,471.12306058023785,456.0,189.9,CROSSCOUNTRY,ANYTIME S,0.0,0.40307939875861326,0.4164473684210526,1.0331646065356093,0.967899978061757
Aberdour,AUR,2.0,56.0545955695197,-3.30056061487314,52.9470746023914,-1.14638184532088,372.95756852461994,340.0,156.7,CROSSCOUNTRY,ANYTIME S,79.0,0.4201550343109763,0.4608823529411764,1.0969340250724116,0.9116318549185192
Aberdovey,AVY,1.0,52.5439615025967,-4.05706796158074,52.9470746023914,-1.14638184532088,201.6007760862999,267.0,83.2,CROSSCOUNTRY,ANYTIME S,0.0,0.41269682396651247,0.31161048689138576,0.7550590864655427,1.3243996634502262
Abererch,ABH,1.0,52.8985884658899,-4.37417647351973,52.9470746023914,-1.14638184532088,217.14009478604325,386.0,91.65,CROSSCOUNTRY,ANYTIME S,0.0,0.4220777378323722,0.2374352331606218,0.5625391056633244,1.777654193161982
Abergavenny,AGV,1.0,51.8166930409601,-3.00964730040687,52.9470746023914,-1.14638184532088,178.64534634072373,248.0,110.55,CROSSCOUNTRY,ANYTIME S,0.0,0.6188238443622932,0.44576612903225804,0.7203441384706603,1.3882253586779623
Abergele & Pensarn,AGL,1.0,53.2945771647609,-3.58262268840784,52.9470746023914,-1.14638184532088,167.61837290617524,239.0,48.7,EAST MIDLANDS TRAINS,ANYTIME S,0.0,0.2905409422346555,0.20376569037656905,0.7013321042099382,1.4258580121988225
Aberystwyth,AYW,1.0,52.4140498933205,-4.08189442746786,52.9470746023914,-1.14638184532088,207.18756329841295,274.0,87.45,CROSSCOUNTRY,ANYTIME S,0.0,0.42208131901259666,0.31916058394160585,0.7561589901401933,1.322473200794185
Accrington,ACR,1.0,53.7529733751372,-2.36954810226505,52.9470746023914,-1.14638184532088,121.15434003327654,229.0,50.2,EAST MIDLANDS TRAINS,ANYTIME S,0.0,0.4143475172759965,0.21921397379912666,0.5290582534204216,1.890151025023968
Achanalt,AAT,3.0,57.6096018732679,-4.91385256332031,52.9470746023914,-1.14638184532088,571.4156827178714,680.0,208.7,CROSSCOUNTRY,ANYTIME S,0.0,0.36523323792469786,0.30691176470588233,0.840317180467458,1.190026841345446
Achnasheen,ACN,3.0,57.5792959197415,-5.07233352893289,52.9470746023914,-1.14638184532088,572.6918680577357,689.0,208.7,CROSSCOUNTRY,ANYTIME S,0.0,0.3644193529546677,0.3029027576197387,0.8311928418835062,1.2030902452600194
Achnashellach,ACH,3.0,57.4820809030767,-5.33305678830677,52.9470746023914,-1.14638184532088,570.6326412624167,709.0,213.65,CROSSCOUNTRY,ANYTIME S,0.0,0.3744090059891068,0.30133991537376587,0.8048415250527738,1.2424806236661676
Acklington,ACK,2.0,55.3070993237817,-1.65183479633575,52.9470746023914,-1.14638184532088,264.756281424132,227.0,117.0,CROSSCOUNTRY,ANYTIME S,0.0,0.4419158607707189,0.5154185022026432,1.1663272309433128,0.8573923110679761
Acle,ACL,1.0,52.6346777628319,1.54391497575916,52.9470746023914,-1.14638184532088,184.7783300516123,186.0,68.0,EAST MIDLANDS TRAINS,ANYTIME S,700.0,0.3680085212427574,0.3655913978494624,0.9934318819979155,1.006611543399307
Acocks Green,ACG,2.0,52.4493240670217,-1.81897562150643,52.9470746023914,-1.14638184532088,71.66242626590069,110.0,34.2,CROSSCOUNTRY,ANYTIME S,0.0,0.47723753969900784,0.3109090909090909,0.651476602417279,1.5349745428915456
Acton Bridge (Cheshire),ACB,2.0,53.2665097605329,-2.60312690733168,52.9470746023914,-1.14638184532088,103.83300800723924,153.0,30.1,EAST MIDLANDS TRAINS,ANYTIME S,313.0,0.28988854871565917,0.19673202614379087,0.6786471111584265,1.4735198655646462
Acton Central,ACC,2.0,51.5087150057177,-0.262970693276422,52.9470746023914,-1.14638184532088,171.04968608846792,174.0,96.6,EAST MIDLANDS TRAINS,ANYTIME S,0.0,0.5647481863839136,0.5551724137931034,0.9830441729222295,1.0172482860331364
Acton Main Line,AML,2.0,51.5171788796431,-0.266756440210259,52.9470746023914,-1.14638184532088,170.07536511878357,180.0,96.6,EAST MIDLANDS TRAINS,ANYTIME S,200.0,0.5679834932738959,0.5366666666666666,0.9448631395487976,1.0583543352929738
Adderley Park,ADD,1.0,52.4830872932844,-1.85594463679675,52.9470746023914,-1.14638184532088,70.46395496095842,99.0,34.2,CROSSCOUNTRY,ANYTIME S,0.0,0.48535453366120324,0.34545454545454546,0.7117571208177618,1.4049736500719041
Addiewell,ADW,2.0,55.8434130805542,-3.60652712168835,52.9470746023914,-1.14638184532088,359.77029244510396,347.0,150.8,CROSSCOUNTRY,ANYTIME S,0.0,0.41915634271834723,0.4345821325648415,1.0368019955190315,0.9645043164672844
Addlestone,ASN,2.0,51.3730447500684,-0.48445679693337,52.9470746023914,-1.14638184532088,180.90356570730225,208.0,100.7,EAST MIDLANDS TRAINS,ANYTIME S,200.0,0.5566501666580207,0.4841346153846154,0.8697286812851069,1.1497838596312642
Adisham,ADM,2.0,51.2411978022143,1.19908904695378,52.9470746023914,-1.14638184532088,248.70353271540912,256.0,137.4,EAST MIDLANDS TRAINS,ANYTIME S,200.0,0.5524650112518767,0.53671875,0.9714981746695669,1.0293380122305709
Adlington (Cheshire),ADC,1.0,53.3195557900317,-2.13356274381038,52.9470746023914,-1.14638184532088,77.99824325213214,126.0,42.9,EAST MIDLANDS TRAINS,ANYTIME S,0.0,0.550012387603708,0.3404761904761905,0.6190336766042234,1.615420998556345
Adlington (Lancs),ADL,1.0,53.6132468473224,-2.6030711963325,52.9470746023914,-1.14638184532088,122.21475459869963,205.0,58.2,EAST MIDLANDS TRAINS,ANYTIME S,0.0,0.4762109140676477,0.2839024390243903,0.5961695346278031,1.6773752127812334
Adwick,AWK,1.0,53.5723210050351,-1.180356329611,52.9470746023914,-1.14638184532088,69.62131551473897,127.0,33.6,LONDON NORTH EASTERN RAILWAY,ANYTIME S,0.0,0.48261081755754554,0.26456692913385826,0.5481993347617241,1.8241539830300084
Aigburth,AIG,1.0,53.3645680055959,-2.92715540113816,52.9470746023914,-1.14638184532088,127.8611593692197,177.0,55.8,EAST MIDLANDS TRAINS,ANYTIME S,0.0,0.4364108715678739,0.31525423728813556,0.7223794314645181,1.3843140549733635
Ainsdale,ANS,3.0,53.6020355257546,-3.04265252059266,52.9470746023914,-1.14638184532088,145.99210896206927,236.0,62.3,EAST MIDLANDS TRAINS,ANYTIME S,0.0,0.42673539304912966,0.2639830508474576,0.6186106311952088,1.6165257264782442
Aintree,AIN,1.0,53.4739127558616,-2.95628079876913,52.9470746023914,-1.14638184532088,134.3795624006851,201.0,55.8,EAST MIDLANDS TRAINS,ANYTIME S,0.0,0.4152417153556344,0.27761194029850744,0.6685550368193288,1.4957631682165327
Airbles,AIR,2.0,55.7828378389089,-3.99419330717581,52.9470746023914,-1.14638184532088,365.8557829239286,322.0,123.5,VIRGIN WEST COAST,ANYTIME S,0.0,0.3375647065436137,0.38354037267080743,1.136198083614685,0.8801282227290982
Airdrie,ADR,2.0,55.8639835131324,-3.98291292517007,52.9470746023914,-1.14638184532088,373.2230856728461,353.0,159.05,CROSSCOUNTRY,ANYTIME S,0.0,0.426152631242692,0.45056657223796037,1.0572891945406404,0.945815019356619
Albany Park,AYP,2.0,51.4354507399114,0.12573706592842,52.9470746023914,-1.14638184532088,189.3575513019764,191.0,97.5,EAST MIDLANDS TRAINS,ANYTIME S,0.0,0.5148989270806141,0.5104712041884817,0.9914007921569445,1.0086737956143312
Albrighton,ALB,1.0,52.6379442676754,-2.26890024505565,52.9470746023914,-1.14638184532088,83.17011048100804,127.0,32.2,CROSSCOUNTRY,ANYTIME S,268.0,0.387158317017661,0.2535433070866142,0.6548827596929767,1.5269908776783525
Alderley Edge,ALD,1.0,53.3037821045932,-2.23679936267512,52.9470746023914,-1.14638184532088,83.09024400725515,134.0,42.9,EAST MIDLANDS TRAINS,ANYTIME S,0.0,0.5163061020287065,0.3201492537313433,0.620076447815337,1.6127043746351206
Aldermaston,AMT,2.0,51.4019618556841,-1.1374239270022,52.9470746023914,-1.14638184532088,171.92679206399777,226.0,93.3,CROSSCOUNTRY,ANYTIME S,267.0,0.5426728369669699,0.41283185840707964,0.760738017982291,1.31451298129191
Aldershot,AHT,2.0,51.2464179114788,-0.759859888333875,52.9470746023914,-1.14638184532088,191.07476065477252,233.0,116.3,EAST MIDLANDS TRAINS,ANYTIME S,0.0,0.6086622827707053,0.49914163090128755,0.8200633504496675,1.2194179869782833
Aldrington,AGT,2.0,50.8363824121951,-0.183821512855377,52.9470746023914,-1.14638184532088,244.01064342987303,266.0,127.0,EAST MIDLANDS TRAINS,ANYTIME S,0.0,0.5204691000968527,0.4774436090225564,0.9173332459769663,1.090116382880022
Alexandra Palace,AAP,2.0,51.5979224924556,-0.120235220128854,52.9470746023914,-1.14638184532088,165.65607059775124,154.0,95.4,EAST MIDLANDS TRAINS,ANYTIME S,0.0,0.5758919649353016,0.6194805194805195,1.0756887701152678,0.9296369245286839
Alexandra Parade,AXP,3.0,55.8631759802332,-4.21064896878422,52.9470746023914,-1.14638184532088,380.65005097122383,363.0,123.5,VIRGIN WEST COAST,ANYTIME S,0.0,0.32444498479611733,0.3402203856749311,1.048622729948275,0.9536318176598428
Alexandria,ALX,3.0,55.9850887680667,-4.57748537031666,52.9470746023914,-1.14638184532088,404.68074692655404,412.0,125.5,VIRGIN WEST COAST,ANYTIME S,0.0,0.31012100514576035,0.30461165048543687,0.982234822637267,1.0180864870123765
Alfreton,ALF,0.0,53.1004322999438,-1.36969621564025,52.9470746023914,-1.14638184532088,22.711339320250772,24.0,9.1,EAST MIDLANDS TRAINS (ADVANCE),ANYTIME DAY S,0.0,0.4006809053258212,0.37916666666666665,0.9463058050104488,1.056740849210957
Allens West,ALW,2.0,54.5246233650745,-1.36111683481751,52.9470746023914,-1.14638184532088,176.1519114858126,184.0,89.3,CROSSCOUNTRY,ANYTIME S,79.0,0.5069487991743551,0.48532608695652174,0.9573473450315902,1.0445529568654126
Alloa,ALO,3.0,56.1177936041036,-3.79005640302655,52.9470746023914,-1.14638184532088,392.1815994800349,377.0,166.2,CROSSCOUNTRY,ANYTIME S,0.0,0.4237832683133337,0.44084880636604773,1.0402694946420024,0.9612893631415572
Alness,ASS,3.0,57.6943991747966,-4.24971726526612,52.9470746023914,-1.14638184532088,563.8909920060663,690.0,202.9,CROSSCOUNTRY,ANYTIME S,0.0,0.35982131808521106,0.29405797101449277,0.8172333217479222,1.223640756425804
Alnmouth,ALM,1.0,55.3927786386397,-1.63663783937358,52.9470746023914,-1.14638184532088,274.10119183661254,230.0,117.0,CROSSCOUNTRY,ANYTIME S,0.0,0.4268496580260836,0.508695652173913,1.191744312333098,0.8391061653504207
Alresford (Essex),ALR,3.0,51.8539974379073,0.997436403040026,52.9470746023914,-1.14638184532088,189.94796630924054,274.0,110.5,EAST MIDLANDS TRAINS,ANYTIME S,0.0,0.581738263099395,0.4032846715328467,0.6932407529534327,1.4425003084998573
Alsager,ASG,1.0,53.0930054110113,-2.29905784069112,52.9470746023914,-1.14638184532088,79.03713287394338,108.0,24.4,EAST MIDLANDS TRAINS,ANYTIME S,0.0,0.3087156519064988,0.22592592592592592,0.7318253043883646,1.3664463281107326
Althorne (Essex),ALN,2.0,51.6478675266105,0.75248341471277,52.9470746023914,-1.14638184532088,194.10280396045977,227.0,123.1,EAST MIDLANDS TRAINS,ANYTIME S,0.0,0.6342000089039229,0.5422907488986783,0.8550784315438756,1.1694833632915558
Althorpe,ALP,1.0,53.5855003548442,-0.733182290833722,52.9470746023914,-1.14638184532088,76.21241838777469,152.0,26.7,EAST MIDLANDS TRAINS,ANYTIME S,0.0,0.3503366060915208,0.1756578947368421,0.5013974893932546,1.9944256226933021
Altnabreac,ABC,4.0,58.3881525009701,-3.7062809681672,52.9470746023914,-1.14638184532088,626.7187360707239,745.0,217.65,CROSSCOUNTRY,ANYTIME S,0.0,0.3472849740612169,0.2921476510067114,0.8412332027794952,1.188731016198514
Alton,AON,2.0,51.1519686627366,-0.966913302570746,52.9470746023914,-1.14638184532088,200.1172486081164,235.0,125.7,EAST MIDLANDS TRAINS,ANYTIME S,0.0,0.6281317621258852,0.5348936170212766,0.8515627600345379,1.1743115680157759
Altrincham,ALT,1.0,53.3877187203289,-2.34688910433965,52.9470746023914,-1.14638184532088,94.07666723495687,150.0,47.1,EAST MIDLANDS TRAINS,ANYTIME S,0.0,0.5006554907219188,0.314,0.6271777815663792,1.5944442379678945
Alvechurch,ALV,1.0,52.3460721156993,-1.96766073187852,52.9470746023914,-1.14638184532088,86.96329060907301,124.0,31.0,CROSSCOUNTRY,ANYTIME S,0.0,0.3564722514854529,0.25,0.7013168597505888,1.4258890059418117
Ambergate,AMB,1.0,53.0605170840145,-1.48069758186533,52.9470746023914,-1.14638184532088,25.750138116852366,69.0,8.3,EAST MIDLANDS TRAINS,ANYTIME DAY S,0.0,0.32232836819496535,0.12028985507246377,0.373190407490614,2.679597277765374
Amberley,AMY,2.0,50.8966791881016,-0.541992407726222,52.9470746023914,-1.14638184532088,231.89486418004233,232.0,125.7,EAST MIDLANDS TRAINS,ANYTIME S,0.0,0.542055989227976,0.5418103448275862,0.9995468283622514,1.0004533770953894
Amersham,AMR,2.0,51.6742050968552,-0.607596139216709,52.9470746023914,-1.14638184532088,146.32421437301917,226.0,66.2,CROSSCOUNTRY,ANYTIME S,316.0,0.45241999271042505,0.2929203539823009,0.6474522759868105,1.5445153829691247
Ammanford,AMF,1.0,51.7959795450084,-3.99673575596767,52.9470746023914,-1.14638184532088,232.55330261989394,353.0,112.95,CROSSCOUNTRY,ANYTIME S,0.0,0.4856951018434499,0.319971671388102,0.6587912255521075,1.517931571055669
Ancaster,ANC,0.0,52.9876865844111,-0.535623734022494,52.9470746023914,-1.14638184532088,41.283508200265366,68.0,13.0,EAST MIDLANDS TRAINS,ANYTIME DAY S,1000.0,0.3148957190589834,0.19117647058823528,0.6071104147097848,1.6471468381546823
Anderston,AND,2.0,55.8599021238713,-4.27098003165416,52.9470746023914,-1.14638184532088,382.40427693495633,345.0,123.5,VIRGIN WEST COAST,ANYTIME S,0.0,0.32295663895256665,0.35797101449275365,1.1084181940143663,0.9021865622561578
Andover,ADV,2.0,51.2115476149434,-1.49223307188506,52.9470746023914,-1.14638184532088,194.55956820045168,259.0,108.2,EAST MIDLANDS TRAINS,ANYTIME S,200.0,0.5561278789872891,0.4177606177606178,0.751195244017188,1.331211836023178
Anerley,ANZ,2.0,51.4121513855632,-0.0658859220340606,52.9470746023914,-1.14638184532088,186.09245670555893,156.0,97.5,EAST MIDLANDS TRAINS,ANYTIME S,200.0,0.5239331122070543,0.625,1.1929003634971727,0.8382929795312869
Angel Road,AGR,2.0,51.61240330726,-0.0487914234374522,52.9470746023914,-1.14638184532088,166.33022304174344,189.0,96.6,EAST MIDLANDS TRAINS,ANYTIME S,0.0,0.5807723829947403,0.5111111111111111,0.8800540901679547,1.1362937928157963
Angmering,ANG,1.0,50.8165743892467,-0.489394019247872,52.9470746023914,-1.14638184532088,241.32556211014446,236.0,137.4,EAST MIDLANDS TRAINS,ANYTIME S,0.0,0.5693553505007011,0.5822033898305085,1.02256594114468,0.9779320430725287
Annan,ANN,2.0,54.9838388790739,-3.2625810423293,52.9470746023914,-1.14638184532088,265.8337530771148,315.0,92.5,VIRGIN WEST COAST,ANYTIME S,0.0,0.3479618330226372,0.29365079365079366,0.8439166764352851,1.184951107050062
Anniesland,ANL,2.0,55.8893555064876,-4.32195784208586,52.9470746023914,-1.14638184532088,386.898625974506,360.0,125.0,VIRGIN WEST COAST,ANYTIME S,0.0,0.32308204684148106,0.3472222222222222,1.074718405484739,0.9304762949034654
Ansdell & Fairhaven,AFV,2.0,53.7414654744213,-2.99303444657805,52.9470746023914,-1.14638184532088,151.46164645011177,240.0,67.0,EAST MIDLANDS TRAINS,ANYTIME S,0.0,0.44235621076566317,0.2791666666666667,0.6310901935421324,1.5845595609516292
Apperley Bridge,APY,1.0,53.8417501065548,-1.70582867126391,52.9470746023914,-1.14638184532088,106.2986846470823,163.0,54.0,NORTHERN,ANYTIME S,79.0,0.5080025230724452,0.3312883435582822,0.6521391696140019,1.5334150233483068
Appleby,APP,1.0,54.5803488158896,-2.48669258391647,52.9470746023914,-1.14638184532088,202.12477776173716,254.0,87.9,LONDON NORTH EASTERN RAILWAY,ANYTIME DAY S,0.0,0.434879884462338,0.3460629921259843,0.7957668415816423,1.2566494954884397
Appledore (Kent),APD,2.0,51.0332342031393,0.816341504124954,52.9470746023914,-1.14638184532088,252.0187837698455,208.0,137.4,EAST MIDLANDS TRAINS,ANYTIME S,200.0,0.5451974568906723,0.6605769230769231,1.2116287681242572,0.8253353059189217
Appleford,APF,2.0,51.6396415502262,-1.24214153179695,52.9470746023914,-1.14638184532088,145.62847399456712,209.0,66.7,CROSSCOUNTRY,ANYTIME S,316.0,0.4580148247827437,0.3191387559808613,0.6967869569118044,1.4351588962457784
Appley Bridge,APB,1.0,53.5786734960166,-2.71925251339081,52.9470746023914,-1.14638184532088,126.31476373433802,168.0,51.2,EAST MIDLANDS TRAINS,ANYTIME S,0.0,0.40533662484365274,0.3047619047619048,0.7518735936567739,1.3300108002682356
Apsley,APS,2.0,51.7325208234117,-0.462934812195194,52.9470746023914,-1.14638184532088,142.94865289290942,186.0,100.7,EAST MIDLANDS TRAINS,ANYTIME S,700.0,0.7044487510871461,0.5413978494623656,0.7685411445855346,1.301166511441998
Arbroath,ARB,2.0,56.5595762979872,-2.58893177406225,52.9470746023914,-1.14638184532088,412.701582047442,408.0,176.8,CROSSCOUNTRY,ANYTIME S,0.0,0.42839671009469504,0.43333333333333335,1.0115234854103972,0.9886077925262192
Ardgay,ARD,3.0,57.8814576101148,-4.36209023833324,52.9470746023914,-1.14638184532088,585.7193802342929,732.0,216.55,CROSSCOUNTRY,ANYTIME S,0.0,0.36971629641719916,0.29583333333333334,0.8001630877517663,1.2497452273257437
Ardlui,AUI,3.0,56.3019723653141,-4.72165858161935,52.9470746023914,-1.14638184532088,438.95248127980835,482.0,128.0,VIRGIN WEST COAST,ANYTIME S,0.0,0.29160331803297623,0.26556016597510373,0.9106897951863244,1.098068744467926
Ardrossan Harbour,ADS,2.0,55.6398782290401,-4.82111163323781,52.9470746023914,-1.14638184532088,383.4189527591454,411.0,130.5,VIRGIN WEST COAST,ANYTIME S,0.0,0.34035876176934055,0.3175182481751825,0.9328928290976773,1.0719344910896473
Ardrossan South Beach,ASB,2.0,55.641422142645,-4.80121264089138,52.9470746023914,-1.14638184532088,382.7448813617706,377.0,130.5,VIRGIN WEST COAST,ANYTIME S,0.0,0.34095818482455775,0.34615384615384615,1.0152384121001872,0.9849903117153891
Ardrossan Town,ADN,2.0,55.6397124556587,-4.81267645169651,52.9470746023914,-1.14638184532088,383.06288671891,409.0,130.5,VIRGIN WEST COAST,ANYTIME S,0.0,0.3406751333124067,0.31907090464547677,0.9365840751073594,1.0677098047875426
Ardwick,ADK,1.0,53.471345820655,-2.21388417456067,52.9470746023914,-1.14638184532088,92.14567205981835,133.0,45.3,EAST MIDLANDS TRAINS,ANYTIME S,0.0,0.4916128884554939,0.34060150375939846,0.6928246019535215,1.4433667586000152
Argyle Street,AGS,2.0,55.8573090626122,-4.25069486323156,52.9470746023914,-1.14638184532088,381.4664673644167,338.0,123.5,VIRGIN WEST COAST,ANYTIME S,0.0,0.3237506060579104,0.36538461538461536,1.1285990158710553,0.8860542902637547
Arisaig,ARG,4.0,56.9125537431151,-5.83907949880085,52.9470746023914,-1.14638184532088,533.9305604247404,644.0,156.0,VIRGIN WEST COAST,ANYTIME S,0.0,0.29217282463828703,0.2422360248447205,0.8290847211564292,1.2061493529939542
Arlesey,ARL,1.0,52.0260300130868,-0.266319838272065,52.9470746023914,-1.14638184532088,118.65027454724347,126.0,41.4,EAST MIDLANDS TRAINS,ANYTIME S,700.0,0.34892460348682625,0.32857142857142857,0.9416688456130434,1.0619444453946885
Armadale (West Lothian),ARM,2.0,55.8857140292087,-3.69541334262219,52.9470746023914,-1.14638184532088,366.5236739237121,359.0,159.05,CROSSCOUNTRY,ANYTIME S,0.0,0.43394195604703156,0.44303621169916435,1.0209573089796995,0.9794728841300492
Armathwaite,AWT,1.0,54.8094679848183,-2.77207147292765,52.9470746023914,-1.14638184532088,233.22281365912488,293.0,113.45,CROSSCOUNTRY,ANYTIME S,0.0,0.48644469303855026,0.3872013651877133,0.7959822991779006,1.2563093438545192
Arnside,ARN,1.0,54.2027315043991,-2.82824189170434,52.9470746023914,-1.14638184532088,178.71388420889465,262.0,65.0,EAST MIDLANDS TRAINS,ANYTIME S,0.0,0.36370984989628985,0.2480916030534351,0.6821140618660101,1.4660304718896606
Arram,ARR,1.0,53.8843427696163,-0.426570132093475,52.9470746023914,-1.14638184532088,114.76660593334915,177.0,78.4,LONDON NORTH EASTERN RAILWAY,ANYTIME S,0.0,0.6831255430306173,0.4429378531073447,0.6483989035782438,1.5422604734237149
Arrochar & Tarbet,ART,3.0,56.2039766194239,-4.72277124702392,52.9470746023914,-1.14638184532088,429.9023317544852,468.0,128.0,VIRGIN WEST COAST,ANYTIME S,0.0,0.2977420463797346,0.27350427350427353,0.9185947259711222,1.0886193570759048
Arundel,ARU,2.0,50.84821399905,-0.546174298416944,52.9470746023914,-1.14638184532088,237.1545911420953,236.0,137.4,EAST MIDLANDS TRAINS,ANYTIME S,0.0,0.5793689227701875,0.5822033898305085,1.0048923353478616,0.9951314830696087
Ascot (Berks),ACT,2.0,51.406243053303,-0.675833255037063,52.9470746023914,-1.14638184532088,174.44382096518538,227.0,88.05,EAST MIDLANDS TRAINS,ANYTIME S,200.0,0.504747026938676,0.38788546255506606,0.7684749822254863,1.3012785362303174
Ascott-under-Wychwood,AUW,2.0,51.8673416456497,-1.56405280921503,52.9470746023914,-1.14638184532088,123.46316648439706,226.0,79.6,CROSSCOUNTRY,ANYTIME S,0.0,0.6447267008177667,0.35221238938053095,0.5462971968336153,1.8305054570956696
Ash,ASH,2.0,51.2495967734882,-0.712805474371656,52.9470746023914,-1.14638184532088,191.1986665702858,259.0,116.3,EAST MIDLANDS TRAINS,ANYTIME S,0.0,0.608267840389187,0.44903474903474905,0.7382187898466633,1.3546119575305198
Ash Vale,AHV,2.0,51.2722464128127,-0.72164859629209,52.9470746023914,-1.14638184532088,188.61429090782391,210.0,116.3,EAST MIDLANDS TRAINS,ANYTIME S,0.0,0.6166022703806467,0.5538095238095238,0.8981632900372567,1.1133832913150112
Ashburys,ABY,1.0,53.471639721401,-2.19443661452133,52.9470746023914,-1.14638184532088,91.16451773307446,156.0,45.3,EAST MIDLANDS TRAINS,ANYTIME S,0.0,0.49690385170068385,0.29038461538461535,0.5843879341863748,1.7111920720818254
Ashchurch for Tewkesbury,ASC,0.0,51.9989057939667,-2.10876020926952,52.9470746023914,-1.14638184532088,124.12892665788252,119.0,68.55,CROSSCOUNTRY,ANYTIME S,268.0,0.5522483908117068,0.5760504201680672,1.0431002240158194,0.9586806492573758
Ashfield,ASF,3.0,55.8889269328418,-4.24921509407071,52.9470746023914,-1.14638184532088,384.3678235208312,371.0,125.0,VIRGIN WEST COAST,ANYTIME S,0.0,0.3252093238580505,0.33692722371967654,1.036031869328386,0.9652212732106938
Ashford (Surrey),AFS,2.0,51.4365062586203,-0.468070995385795,52.9470746023914,-1.14638184532088,174.363326401556,178.0,98.0,EAST MIDLANDS TRAINS,ANYTIME S,200.0,0.5620447947540731,0.550561797752809,0.9795692494469439,1.0208568721043367
Ashford International,AFK,1.0,51.1437026741936,0.876197214386404,52.9470746023914,-1.14638184532088,243.9446147993149,173.0,127.0,EAST MIDLANDS TRAINS,ANYTIME S,200.0,0.5206099757704373,0.7341040462427746,1.4100844786087567,0.7091773685691785
Ashford International (Eurostar),ASI,-999.0,nan,nan,52.9470746023914,-1.14638184532088,-999.0,-999.0,-999.0,N/A,no route found,-998.0,-999.0,-999.0,-999.0,-999.0
Ashley,ASY,1.0,53.3557258053839,-2.34146074338483,52.9470746023914,-1.14638184532088,91.9809911252601,158.0,47.1,EAST MIDLANDS TRAINS,ANYTIME S,0.0,0.5120623231365166,0.29810126582278484,0.5821581716788614,1.717746221986616
Ashtead,AHD,2.0,51.317872587997,-0.307571763628547,52.9470746023914,-1.14638184532088,190.15924726911194,176.0,98.0,EAST MIDLANDS TRAINS,ANYTIME S,0.0,0.5153575301090203,0.5568181818181818,1.0804502685744997,0.9255400540733426
Ashton-under-Lyne,AHN,2.0,53.4912746360398,-2.09431253377749,52.9470746023914,-1.14638184532088,87.61867159817574,173.0,41.8,EAST MIDLANDS TRAINS,ANYTIME S,0.0,0.4770672647457747,0.24161849710982658,0.5064663098160447,1.9744649952396898
Ashurst (Kent),AHS,2.0,51.1286608253579,0.152652111896866,52.9470746023914,-1.14638184532088,221.08755111505067,193.0,100.7,EAST MIDLANDS TRAINS,ANYTIME S,200.0,0.4554756678615397,0.5217616580310881,1.1455313529277238,0.8729573376095051
Ashurst New Forest,ANF,2.0,50.8898511647037,-1.52663085660955,52.9470746023914,-1.14638184532088,230.3878801287431,284.0,104.05,EAST MIDLANDS TRAINS,ANYTIME S,200.0,0.45162966012732875,0.3663732394366197,0.8112249300307856,1.2327037335527282
Ashwell & Morden,AWM,2.0,52.0307706434447,-0.109788918120069,52.9470746023914,-1.14638184532088,123.91025039870993,206.0,107.0,LONDON NORTH EASTERN RAILWAY,ANYTIME S,0.0,0.8635282364106498,0.5194174757281553,0.6015060698966501,1.6624936140242417
Askam,ASK,2.0,54.1889331625586,-3.20451175494515,52.9470746023914,-1.14638184532088,194.14058105680627,294.0,98.8,CROSSCOUNTRY,ANYTIME S,0.0,0.5089095719307173,0.3360544217687075,0.6603421124381166,1.5143665399557782
Aslockton,ALK,0.0,52.9515495737311,-0.898097621841918,52.9470746023914,-1.14638184532088,16.696049713484193,20.0,6.2,EAST MIDLANDS TRAINS,ANYTIME DAY S,1000.0,0.3713453245765499,0.31,0.8348024856742097,1.1978881437953222
Aspatria,ASP,2.0,54.7589599137074,-3.33187421074512,52.9470746023914,-1.14638184532088,247.67029867864125,312.0,126.55,CROSSCOUNTRY,ANYTIME S,0.0,0.510961551204014,0.40560897435897436,0.7938150598674399,1.2597392649202084
Aspley Guise,APG,1.0,52.0212361960308,-0.632334507265971,52.9470746023914,-1.14638184532088,108.7810384541166,137.0,49.55,CROSSCOUNTRY,ANYTIME S,0.0,0.45550217854281644,0.3616788321167883,0.7940221784972015,1.2594106651940637
Aston,AST,1.0,52.5042320347358,-1.8719337575538,52.9470746023914,-1.14638184532088,69.50798770612596,115.0,34.2,CROSSCOUNTRY,ANYTIME S,0.0,0.49202978144892906,0.2973913043478261,0.6044172844010953,1.654486107211311
Atherstone,ATH,1.0,52.5789720633612,-1.55281147568713,52.9470746023914,-1.14638184532088,49.30190273029372,108.0,21.7,CROSSCOUNTRY,ANYTIME S,0.0,0.44014528442664674,0.20092592592592592,0.45649909935457145,2.190584825717873
Atherton,ATN,2.0,53.5291462480773,-2.47897234425216,52.9470746023914,-1.14638184532088,110.05432316497789,173.0,51.2,EAST MIDLANDS TRAINS,ANYTIME S,0.0,0.4652247956061499,0.29595375722543354,0.6361521570229935,1.5719509695285923
Attadale,ATT,3.0,57.3950433711996,-5.4555786528295,52.9470746023914,-1.14638184532088,565.9523383958572,725.0,222.3,CROSSCOUNTRY,ANYTIME S,0.0,0.39278925965760664,0.3066206896551724,0.7806239150287685,1.2810266003228286
Attenborough,ATB,0.0,52.9062133028873,-1.23141560765685,52.9470746023914,-1.14638184532088,7.306150637020414,10.0,2.4,EAST MIDLANDS TRAINS,ANYTIME DAY S,0.0,0.3284903527500721,0.24,0.7306150637020414,1.3687098031253007
Attleborough,ATL,0.0,52.5145445883409,1.02234755537498,52.9470746023914,-1.14638184532088,154.2031672806949,150.0,47.6,EAST MIDLANDS TRAINS,ANYTIME S,700.0,0.3086836725821206,0.31733333333333336,1.0280211152046328,0.9727426656999598
Auchinleck,AUK,2.0,55.4702784722357,-4.29535018687193,52.9470746023914,-1.14638184532088,347.9091730978997,380.0,131.0,VIRGIN WEST COAST,ANYTIME S,0.0,0.37653505607090537,0.3447368421052632,0.9155504555207887,1.0922390939461377
Audley End,AUD,1.0,52.0044405435161,0.207160027997398,52.9470746023914,-1.14638184532088,139.49756386392664,155.0,125.7,EAST MIDLANDS TRAINS,ANYTIME S,0.0,0.9010910048767194,0.8109677419354839,0.8999842829930751,1.1111305151622237
Aughton Park,AUG,1.0,53.5542504500956,-2.89522128047861,52.9470746023914,-1.14638184532088,134.87324479004766,215.0,61.7,EAST MIDLANDS TRAINS,ANYTIME S,0.0,0.4574665649665816,0.2869767441860465,0.6273174176281286,1.5940893268689633
Aviemore,AVM,2.0,57.1885162452285,-3.82886797624022,52.9470746023914,-1.14638184532088,502.2153376691381,509.0,189.3,CROSSCOUNTRY,ANYTIME S,0.0,0.37692994578495287,0.3719056974459725,0.9866706044580316,1.0135094685923982
Avoncliff,AVF,1.0,51.3396528744674,-2.28132558221387,52.9470746023914,-1.14638184532088,194.99846049440407,248.0,93.3,EAST MIDLANDS TRAINS,ANYTIME S,200.0,0.4784653158975963,0.37620967741935485,0.7862841148967906,1.2718049125681017
Avonmouth,AVN,2.0,51.5003648679963,-2.69946651797304,52.9470746023914,-1.14638184532088,192.80409577245553,234.0,85.05,EAST MIDLANDS TRAINS,ANYTIME S,200.0,0.4411213343744249,0.36346153846153845,0.823949127232716,1.2136671633582061
Axminster,AXM,2.0,50.7792744117621,-3.00472359764506,52.9470746023914,-1.14638184532088,273.04394672854,356.0,141.9,EAST MIDLANDS TRAINS,ANYTIME S,200.0,0.519696560572635,0.3985955056179775,0.766977378450955,1.3038194190546726
Aylesbury,AYS,2.0,51.8138902206829,-0.815095998270687,52.9470746023914,-1.14638184532088,128.0962082818061,238.0,58.45,EAST MIDLANDS TRAINS,ANYTIME S,200.0,0.45629765926726373,0.24558823529411766,0.538219362528597,1.8579784928247862
Aylesbury Vale Parkway,AVP,2.0,51.8311587338339,-0.860182437861177,52.9470746023914,-1.14638184532088,125.69237414821154,222.0,58.45,EAST MIDLANDS TRAINS,ANYTIME S,200.0,0.46502423393704095,0.2632882882882883,0.5661818655324844,1.7662169364246894
Aylesford,AYL,2.0,51.3013153585378,0.466170568242092,52.9470746023914,-1.14638184532088,213.83545467669768,209.0,116.3,EAST MIDLANDS TRAINS,ANYTIME S,200.0,0.5438761321214782,0.5564593301435407,1.0231361467784579,0.9773870302097073
Aylesham,AYH,2.0,51.2272505439136,1.2094526827124,52.9470746023914,-1.14638184532088,250.36283724039234,238.0,137.4,EAST MIDLANDS TRAINS,ANYTIME S,200.0,0.5488034946179806,0.577310924369748,1.0519446942873627,0.9506203181883506
Ayr,AYR,2.0,55.4581477383334,-4.62587677242484,52.9470746023914,-1.14638184532088,360.0181523465992,397.0,131.0,VIRGIN WEST COAST,ANYTIME S,0.0,0.36387054137726577,0.32997481108312343,0.9068467313516353,1.1027221750135459
Bache,BAC,2.0,53.2087886904783,-2.89167051075084,52.9470746023914,-1.14638184532088,120.53114344673375,207.0,44.8,EAST MIDLANDS TRAINS,ANYTIME S,0.0,0.37168816887395106,0.21642512077294684,0.5822760552982307,1.7173984588595508
Baglan,BAJ,1.0,51.615545271975,-3.81113654529303,52.9470746023914,-1.14638184532088,234.54815957035154,276.0,110.55,CROSSCOUNTRY,ANYTIME S,0.0,0.4713317734085271,0.40054347826086956,0.8498121723563462,1.1767306147512753
Bagshot,BAG,2.0,51.3643669407293,-0.688661997063008,52.9470746023914,-1.14638184532088,178.87173430404434,204.0,116.3,EAST MIDLANDS TRAINS,ANYTIME S,0.0,0.6501865733705833,0.5700980392156862,0.8768222269806095,1.1404820375545914
Baildon,BLD,2.0,53.8502255005868,-1.75363638811678,52.9470746023914,-1.14638184532088,108.32650971090372,176.0,55.4,LONDON NORTH EASTERN RAILWAY,ANYTIME S,0.0,0.5114168281415944,0.31477272727272726,0.6154915324483166,1.624717721171852
Baillieston,BIO,2.0,55.844505909339,-4.11369931815988,52.9470746023914,-1.14638184532088,375.6400087031058,341.0,123.5,VIRGIN WEST COAST,ANYTIME S,0.0,0.32877222111239635,0.3621700879765396,1.1015836032349144,0.9077840275249163
Balcombe,BAB,1.0,51.0555201604538,-0.136933757536862,52.9470746023914,-1.14638184532088,221.58556794829423,220.0,116.3,EAST MIDLANDS TRAINS,ANYTIME S,0.0,0.5248536765135262,0.5286363636363636,1.007207127037701,0.9928444439636781
Baldock,BDK,1.0,51.9928698318742,-0.187563753520231,52.9470746023914,-1.14638184532088,124.5759092933557,181.0,104.0,LONDON NORTH EASTERN RAILWAY,ANYTIME S,0.0,0.8348323571542003,0.574585635359116,0.6882646922284845,1.452929390816445
Balham,BAL,2.0,51.4432234163815,-0.152424495700288,52.9470746023914,-1.14638184532088,180.6065289832464,156.0,96.6,EAST MIDLANDS TRAINS,ANYTIME S,0.0,0.5348643847142476,0.6192307692307691,1.1577341601490154,0.8637561492279774
Balloch,BHC,3.0,56.0029392993731,-4.58348654319574,52.9470746023914,-1.14638184532088,406.5280692731048,414.0,125.5,VIRGIN WEST COAST,ANYTIME S,0.0,0.30871177044281617,0.3031400966183575,0.9819518581475961,1.0183798642496087
Balmossie,BSI,2.0,56.4745685552318,-2.83895622541232,52.9470746023914,-1.14638184532088,407.51320982763156,573.0,170.8,CROSSCOUNTRY,ANYTIME S,0.0,0.4191275175404605,0.2980802792321117,0.7111923382681179,1.406089388470046
Bamber Bridge,BMB,1.0,53.7268691714662,-2.6607753764786,52.9470746023914,-1.14638184532088,133.06707082503434,255.0,58.2,EAST MIDLANDS TRAINS,ANYTIME S,0.0,0.437373421081203,0.22823529411764706,0.5218316502942523,1.916326844943415
Bamford,BAM,1.0,53.3390008432273,-1.68908191470249,52.9470746023914,-1.14638184532088,56.75541837549028,105.0,26.1,EAST MIDLANDS TRAINS,ANYTIME S,0.0,0.45986798700564663,0.24857142857142858,0.5405277940522883,1.8500436258847852
Banavie,BNV,4.0,56.8433146084024,-5.09542698683765,52.9470746023914,-1.14638184532088,502.12773953728924,586.0,148.0,VIRGIN WEST COAST,ANYTIME S,0.0,0.2947457157742012,0.2525597269624573,0.8568732756609031,1.1670337124573102
Banbury,BAN,1.0,52.0603086671337,-1.32813289497966,52.9470746023914,-1.14638184532088,99.44527796081611,162.0,54.95,EAST MIDLANDS TRAINS,ANYTIME S,200.0,0.5525652009505334,0.33919753086419757,0.6138597404988649,1.6290366251862858
Bangor (Gwynedd),BNG,1.0,53.2222875881889,-4.1358808597691,52.9470746023914,-1.14638184532088,202.62616010867984,282.0,56.9,EAST MIDLANDS TRAINS,ANYTIME S,0.0,0.2808127043886205,0.20177304964539006,0.718532482654893,1.3917255296588924
Bank Hall,BAH,2.0,53.4374965462522,-2.98751189569183,52.9470746023914,-1.14638184532088,134.61366406540495,209.0,55.8,EAST MIDLANDS TRAINS,ANYTIME S,0.0,0.41451958378377074,0.2669856459330143,0.6440845170593538,1.5525912725951272
Banstead,BAD,2.0,51.3293474848423,-0.213158931277083,52.9470746023914,-1.14638184532088,191.00367587105097,225.0,97.5,EAST MIDLANDS TRAINS,ANYTIME S,0.0,0.5104613801559689,0.43333333333333335,0.8489052260935599,1.177987800359928
Barassie,BSS,2.0,55.5610644543682,-4.65113966824502,52.9470746023914,-1.14638184532088,369.8175318651634,390.0,130.5,VIRGIN WEST COAST,ANYTIME S,0.0,0.3528767263732123,0.3346153846153846,0.9482500817055471,1.054574124793508
Barbican,ZBB,1.0,nan,nan,52.9470746023914,-1.14638184532088,-999.0,133.0,95.0,LONDON NORTH EASTERN RAILWAY,ANYTIME S,0.0,-999.0,0.7142857142857143,-999.0,-999.0
Bardon Mill,BLL,2.0,54.9744957852522,-2.34650475516335,52.9470746023914,-1.14638184532088,239.00500999478723,246.0,117.0,CROSSCOUNTRY,ANYTIME S,0.0,0.48952948727958384,0.47560975609756095,0.9715650812796229,1.0292671271006635
Bare Lane,BAR,1.0,54.0745443408907,-2.83533086719705,52.9470746023914,-1.14638184532088,168.21881129593243,265.0,56.9,EAST MIDLANDS TRAINS,ANYTIME S,0.0,0.3382499231902244,0.21471698113207546,0.634787967154462,1.5753291677576358
Bargeddie,BGI,2.0,55.8512961462984,-4.07380825280165,52.9470746023914,-1.14638184532088,374.96284112370836,338.0,123.5,VIRGIN WEST COAST,ANYTIME S,0.0,0.32936597031825526,0.36538461538461536,1.1093575181174804,0.9014226556078566
Bargoed,BGD,1.0,51.6923127611933,-3.22968013064506,52.9470746023914,-1.14638184532088,199.16740484995606,259.0,114.6,CROSSCOUNTRY,ANYTIME S,0.0,0.5753953569176371,0.44247104247104246,0.7689861191117995,1.3004135902414313
Barking,BKG,2.0,51.5394928787692,0.0809024258638578,52.9470746023914,-1.14638184532088,177.64101871059628,185.0,96.6,EAST MIDLANDS TRAINS,ANYTIME S,0.0,0.543793323755792,0.5221621621621622,0.96022172275998,1.041426137627552
Barlaston,BRT,3.0,nan,nan,52.9470746023914,-1.14638184532088,-999.0,131.0,17.4,WEST MIDLANDS TRAINS,ANYTIME S,0.0,-999.0,0.13282442748091602,-999.0,-999.0
Barming,BMG,2.0,51.2848926922128,0.478958086821072,52.9470746023914,-1.14638184532088,215.8626237788302,216.0,116.3,EAST MIDLANDS TRAINS,ANYTIME S,0.0,0.5387685832965662,0.5384259259259259,0.9993639989760658,1.0006364057786612
Barmouth,BRM,1.0,52.7228954666472,-4.05659664341287,52.9470746023914,-1.14638184532088,197.69408465592122,304.0,87.45,CROSSCOUNTRY,ANYTIME S,0.0,0.44235010952504367,0.28766447368421055,0.6503094889997408,1.5377293687319984
Barnehurst,BNH,2.0,51.4649571594916,0.159646215915891,52.9470746023914,-1.14638184532088,187.5265947351285,195.0,97.5,EAST MIDLANDS TRAINS,ANYTIME S,0.0,0.5199262543945494,0.5,0.9616748447955308,1.0398525087890989
Barnes,BNS,2.0,51.4670847781107,-0.242164290131055,52.9470746023914,-1.14638184532088,175.89522239586879,155.0,96.6,EAST MIDLANDS TRAINS,ANYTIME S,0.0,0.5491905845094108,0.6232258064516129,1.13480788642496,0.8812064244198622
Barnes Bridge,BNI,2.0,51.4720072305495,-0.252630234454485,52.9470746023914,-1.14638184532088,175.13064258096,158.0,96.6,EAST MIDLANDS TRAINS,ANYTIME S,0.0,0.5515882233764055,0.6113924050632911,1.1084217884870886,0.9021836365783859
Barnetby,BTB,1.0,53.575120046432,-0.409679706265516,52.9470746023914,-1.14638184532088,85.45227369213018,159.0,27.5,TRANSPENNINE EXPRESS,ANYTIME S,0.0,0.32181706596921883,0.17295597484276728,0.537435683598303,1.8606877632402108
Barnham,BAA,2.0,50.8309058508596,-0.639679954401345,52.9470746023914,-1.14638184532088,238.0245312630389,232.0,137.4,EAST MIDLANDS TRAINS,ANYTIME S,0.0,0.5772514256026847,0.5922413793103448,1.0259678071682712,0.974689452254897
Barnhill,BNL,3.0,55.8774948886876,-4.22300584363342,52.9470746023914,-1.14638184532088,382.40934841490827,366.0,123.5,VIRGIN WEST COAST,ANYTIME S,0.0,0.32295235592934407,0.337431693989071,1.0448342852866346,0.9570895730375703
Barnsley,BNY,0.0,53.5543015489003,-1.47716484028851,52.9470746023914,-1.14638184532088,71.09400775220196,78.0,24.9,LONDON NORTH EASTERN RAILWAY,ANYTIME S,0.0,0.3502404884359439,0.3192307692307692,0.9114616378487431,1.0971388794378967
Barnstaple,BNP,2.0,51.0739744679973,-4.06311775092404,52.9470746023914,-1.14638184532088,288.9946078382181,349.0,137.2,CROSSCOUNTRY,ANYTIME S,700.0,0.4747493423019361,0.3931232091690544,0.828064778906069,1.2076349888001146
Barnt Green,BTG,1.0,52.3610898378667,-1.99246673824797,52.9470746023914,-1.14638184532088,86.7769246457413,117.0,31.0,CROSSCOUNTRY,ANYTIME S,0.0,0.3572378270669836,0.26495726495726496,0.7416831166302675,1.348284702156035
Barrhead,BRR,2.0,55.8037583421428,-4.39728431394783,52.9470746023914,-1.14638184532088,381.66962136484824,360.0,125.5,VIRGIN WEST COAST,ANYTIME S,0.0,0.3288184151288037,0.3486111111111111,1.060193392680134,0.9432241390148951
Barrhill,BRL,3.0,55.0970106102442,-4.78178229089313,52.9470746023914,-1.14638184532088,337.607532572252,474.0,136.0,VIRGIN WEST COAST,ANYTIME S,0.0,0.40283461380084695,0.2869198312236287,0.7122521784224726,1.4039971098647166
Barrow Haven,BAV,2.0,53.697419946542,-0.392955239385703,52.9470746023914,-1.14638184532088,97.43651676153766,212.0,23.7,TRANSPENNINE EXPRESS,ANYTIME S,0.0,0.24323529604411515,0.11179245283018868,0.4596062111393286,2.17577564393892
Barrow-in-Furness,BIF,1.0,54.1190037011827,-3.22612090695349,52.9470746023914,-1.14638184532088,189.79907308857912,302.0,98.8,CROSSCOUNTRY,ANYTIME S,0.0,0.5205504873771964,0.3271523178807947,0.6284737519489375,1.591156348055803
Barrow-Upon-Soar,BWS,0.0,52.7493358553102,-1.14484305880024,52.9470746023914,-1.14638184532088,22.005286122619637,30.0,8.7,EAST MIDLANDS TRAINS,ANYTIME DAY S,1000.0,0.39535954913383786,0.29,0.7335095374206546,1.3633087901166825
Barry,BRY,1.0,51.3967862682376,-3.28498495899336,52.9470746023914,-1.14638184532088,226.1736277499398,244.0,112.95,CROSSCOUNTRY,ANYTIME S,0.0,0.49939509359985523,0.4629098360655738,0.9269410973358189,1.0788172008708692
Barry Docks,BYD,1.0,51.4024452836283,-3.26070393235989,52.9470746023914,-1.14638184532088,224.6152255425996,241.0,112.95,CROSSCOUNTRY,ANYTIME S,0.0,0.5028599451668888,0.4686721991701245,0.9320133839941892,1.072945965340595
Barry Island,BYI,1.0,51.3924170726249,-3.27336400852697,52.9470746023914,-1.14638184532088,226.03668894057884,253.0,112.95,CROSSCOUNTRY,ANYTIME S,0.0,0.49969763992469657,0.4464426877470356,0.8934256479864776,1.1192873209468635
Barry Links,BYL,2.0,56.4931516826701,-2.74544214683501,52.9470746023914,-1.14638184532088,407.94052225444693,580.0,176.8,CROSSCOUNTRY,ANYTIME S,0.0,0.43339651335182533,0.3048275862068966,0.7033457280249085,1.4217758922175265
Barton-on-Humber,BAU,2.0,53.6889177395454,-0.44343673614012,52.9470746023914,-1.14638184532088,94.92494214078724,217.0,23.7,TRANSPENNINE EXPRESS,ANYTIME S,0.0,0.24967094491192332,0.10921658986175115,0.4374421296810472,2.2860166686028425
Basildon,BSO,2.0,51.5681040297501,0.456788850539816,52.9470746023914,-1.14638184532088,188.477542249905,185.0,100.7,EAST MIDLANDS TRAINS,ANYTIME S,0.0,0.5342811604922164,0.5443243243243243,1.0187975256751622,0.9815493017980143
Basingstoke,BSK,1.0,51.2683569850094,-1.08726383162934,52.9470746023914,-1.14638184532088,186.83375844865824,234.0,97.45,EAST MIDLANDS TRAINS,ANYTIME S,200.0,0.5215866811713215,0.4164529914529915,0.7984348651652061,1.2524503170250305
Bat & Ball,BBL,2.0,51.2897587469008,0.194227480292899,52.9470746023914,-1.14638184532088,205.9978611809133,203.0,100.7,EAST MIDLANDS TRAINS,ANYTIME S,200.0,0.4888400268950479,0.4960591133004926,1.0147677890685385,0.9854471247238801
Bath Spa,BTH,1.0,51.3776883852266,-2.3570184714201,52.9470746023914,-1.14638184532088,193.27327741591876,244.0,85.05,EAST MIDLANDS TRAINS,ANYTIME S,200.0,0.44005048777113015,0.3485655737704918,0.7921035959668802,1.2624611289377514
Bathgate,BHG,2.0,55.8971563834902,-3.63609679157923,52.9470746023914,-1.14638184532088,365.9366349096817,337.0,159.05,CROSSCOUNTRY,ANYTIME S,0.0,0.43463808984103436,0.4719584569732938,1.0858653854886697,0.9209244657430278
Batley,BTL,1.0,53.7099423400798,-1.6229526318262,52.9470746023914,-1.14638184532088,90.64411931824864,161.0,38.2,LONDON NORTH EASTERN RAILWAY,ANYTIME S,0.0,0.4214283318907982,0.23726708074534164,0.5630069522872586,1.776177000901008
Battersby,BTT,2.0,54.457680170473,-1.09297186288525,52.9470746023914,-1.14638184532088,168.16652071471847,287.0,89.3,CROSSCOUNTRY,ANYTIME S,79.0,0.5310212735595009,0.3111498257839721,0.5859460652080783,1.706641719054611
Battersea Park,BAK,2.0,51.4769582891996,-0.147533519657093,52.9470746023914,-1.14638184532088,177.25349642507888,154.0,96.6,EAST MIDLANDS TRAINS,ANYTIME S,200.0,0.544982197520886,0.6272727272727272,1.1509967300329798,0.86881219894634
Battle,BAT,2.0,50.9129130238687,0.494702777064857,52.9470746023914,-1.14638184532088,252.90428631260525,263.0,127.0,EAST MIDLANDS TRAINS,ANYTIME S,200.0,0.5021662615991419,0.4828897338403042,0.9616132559414649,1.0399191086659394
Battlesbridge,BLB,2.0,51.624822766888,0.56528550890708,52.9470746023914,-1.14638184532088,187.84615593524362,212.0,123.1,EAST MIDLANDS TRAINS,ANYTIME S,0.0,0.6553234980354689,0.5806603773584905,0.886066773279451,1.1285831160318391
Bayford,BAY,2.0,51.7577148923117,-0.0956100209046352,52.9470746023914,-1.14638184532088,150.46617706659856,146.0,100.7,LONDON NORTH EASTERN RAILWAY,ANYTIME S,0.0,0.6692533960999666,0.6897260273972603,1.030590253880812,0.9703177341667838
Beaconsfield,BCF,2.0,51.6112905925788,-0.643822282354315,52.9470746023914,-1.14638184532088,152.54135558629957,190.0,72.05,EAST MIDLANDS TRAINS,ANYTIME S,200.0,0.47233092772168295,0.37921052631578944,0.8028492399278925,1.2455638621390668
Bearley,BER,3.0,52.2444115945748,-1.75025547969474,52.9470746023914,-1.14638184532088,88.25080686679708,197.0,33.45,CROSSCOUNTRY,ANYTIME S,0.0,0.37903336170612417,0.16979695431472083,0.44797363891775166,2.2322742079553497
Bearsden,BRN,2.0,55.9171345827093,-4.3320211452141,52.9470746023914,-1.14638184532088,389.82711776170936,377.0,125.5,VIRGIN WEST COAST,ANYTIME S,0.0,0.32193758279462414,0.3328912466843501,1.034024185044322,0.9670953682356438
Bearsted,BSD,2.0,51.2758187894535,0.577580355704965,52.9470746023914,-1.14638184532088,220.27943871726598,227.0,125.7,EAST MIDLANDS TRAINS,ANYTIME S,200.0,0.5706388246310135,0.5537444933920705,0.970394003159762,1.0305092537091491
Beasdale,BSL,4.0,56.8995610683265,-5.76380325043513,52.9470746023914,-1.14638184532088,530.0628252620369,639.0,156.0,VIRGIN WEST COAST,ANYTIME S,0.0,0.2943047362789143,0.24413145539906103,0.8295192883599951,1.2055174774501682
Beaulieu Road,BEU,2.0,50.8550493435382,-1.50474962699015,52.9470746023914,-1.14638184532088,234.07253337224645,305.0,104.05,EAST MIDLANDS TRAINS,ANYTIME S,200.0,0.4445203309460016,0.34114754098360656,0.7674509290893327,1.3030149057042815
Beauly,BEL,3.0,57.4782879378611,-4.46986686037102,52.9470746023914,-1.14638184532088,546.8514649322434,620.0,199.9,CROSSCOUNTRY,ANYTIME S,0.0,0.3655471600954168,0.3224193548387097,0.8820184918261991,1.1337630778347094
Bebington,BEB,2.0,53.3576570664328,-3.00363517233964,52.9470746023914,-1.14638184532088,132.38208556220923,230.0,54.0,EAST MIDLANDS TRAINS,ANYTIME S,0.0,0.4079101773526919,0.23478260869565218,0.5755742850530836,1.7373951998355397
Beccles,BCC,2.0,52.4585181871493,1.5694932615698,52.9470746023914,-1.14638184532088,191.45310340057773,250.0,150.6,EAST MIDLANDS TRAINS,ANYTIME S,0.0,0.786615611473789,0.6023999999999999,0.7658124136023109,1.305802807891416
Beckenham Hill,BEC,1.0,51.4245808668055,-0.0159511139458484,52.9470746023914,-1.14638184532088,186.21138778353975,184.0,97.5,EAST MIDLANDS TRAINS,ANYTIME S,200.0,0.5235984821365397,0.529891304347826,1.0120184118670639,0.9881243150063929
Beckenham Junction,BKJ,2.0,51.4111718661491,-0.0260225635677561,52.9470746023914,-1.14638184532088,187.2914920706352,167.0,97.5,EAST MIDLANDS TRAINS,ANYTIME S,200.0,0.520578905758457,0.5838323353293413,1.1215059405427257,0.8916582283247417
Bedford,BDM,0.0,52.1361864656103,-0.479442379912954,52.9470746023914,-1.14638184532088,100.94250182442896,79.0,62.8,EAST MIDLANDS TRAINS,ANYTIME S,700.0,0.6221363535176603,0.7949367088607595,1.2777531876509995,0.7826237568136172
Bedford St Johns,BSJ,1.0,52.1294772366621,-0.467501028060375,52.9470746023914,-1.14638184532088,101.97528275445318,113.0,62.8,EAST MIDLANDS TRAINS,ANYTIME S,700.0,0.6158355074260147,0.5557522123893806,0.9024361305703821,1.1081116614512685
Bedhampton,BDH,2.0,50.8539566355958,-0.99582843515536,52.9470746023914,-1.14638184532088,233.12195745044582,272.0,137.4,EAST MIDLANDS TRAINS,ANYTIME S,200.0,0.5893910702478843,0.5051470588235294,0.8570660200384037,1.1667712598793634
Bedminster,BMT,1.0,51.4400904239394,-2.59414932604792,52.9470746023914,-1.14638184532088,194.71816415366501,232.0,84.55,EAST MIDLANDS TRAINS,ANYTIME S,200.0,0.43421732311155103,0.3644396551724138,0.8393024316968319,1.1914656293539898
Bedworth,BEH,2.0,52.4792974206142,-1.46739223305473,52.9470746023914,-1.14638184532088,56.39425237465792,126.0,34.2,CROSSCOUNTRY,ANYTIME S,0.0,0.6064447804501542,0.27142857142857146,0.4475734315449041,2.2342702437637256
Bedwyn,BDW,2.0,51.3796409426581,-1.59878627020561,52.9470746023914,-1.14638184532088,177.13409027004977,259.0,93.3,CROSSCOUNTRY,ANYTIME S,267.0,0.5267196159573772,0.3602316602316602,0.6839154064480686,1.4621691375451307
Beeston,BEE,0.0,52.9207551214346,-1.20765801407939,52.9470746023914,-1.14638184532088,5.055175526900559,8.0,2.3,EAST MIDLANDS TRAINS,ANYTIME DAY S,0.0,0.45497925596466504,0.2875,0.6318969408625699,1.5825365424857916
Bekesbourne,BKS,2.0,51.2613539349877,1.13670763163281,52.9470746023914,-1.14638184532088,244.21523487844323,256.0,137.4,EAST MIDLANDS TRAINS,ANYTIME S,200.0,0.5626184626376405,0.53671875,0.9539657612439189,1.0482556509114698
Belle Vue,BLV,1.0,53.4623764935822,-2.18050724055323,52.9470746023914,-1.14638184532088,89.7955497042544,157.0,45.3,EAST MIDLANDS TRAINS,ANYTIME S,0.0,0.5044793439006447,0.28853503184713375,0.5719461764602191,1.7484162691479301
Bellgrove,BLG,2.0,55.8567093051092,-4.22437490020632,52.9470746023914,-1.14638184532088,380.511482384547,396.0,123.5,VIRGIN WEST COAST,ANYTIME S,0.0,0.324563135982294,0.31186868686868685,0.960887581779159,1.040704468412862
Bellingham,BGM,1.0,51.4329113825773,-0.0193308081217253,52.9470746023914,-1.14638184532088,185.26940627837595,182.0,97.5,EAST MIDLANDS TRAINS,ANYTIME S,200.0,0.5262606598603856,0.5357142857142857,1.0179637707603075,0.9823532317393865
Bellshill,BLH,2.0,55.8170682424416,-4.02449996284266,52.9470746023914,-1.14638184532088,370.09817791770854,386.0,123.5,VIRGIN WEST COAST,ANYTIME S,0.0,0.3336952391791031,0.31994818652849744,0.9588035697349963,1.0429664965435934
Belmont,BLM,2.0,51.3438134158344,-0.198855124360003,52.9470746023914,-1.14638184532088,189.8165269563215,222.0,97.5,EAST MIDLANDS TRAINS,ANYTIME S,0.0,0.513653903395017,0.4391891891891892,0.8550294007041509,1.1695504261917309
Belper,BLP,1.0,53.0237591485711,-1.48251049959613,52.9470746023914,-1.14638184532088,24.133535276769017,63.0,9.3,EAST MIDLANDS TRAINS,ANYTIME DAY S,0.0,0.38535589143262394,0.14761904761904762,0.3830719885201431,2.610475393575839
Beltring,BEG,2.0,51.2047063375307,0.403495486821792,52.9470746023914,-1.14638184532088,221.07041205934664,241.0,116.3,EAST MIDLANDS TRAINS,ANYTIME S,200.0,0.5260767323705857,0.4825726141078838,0.9173046143541355,1.0901504084377571
Belvedere,BVD,2.0,51.4921162437256,0.152286098901381,52.9470746023914,-1.14638184532088,184.61972421592438,168.0,97.5,EAST MIDLANDS TRAINS,ANYTIME S,0.0,0.5281125860959884,0.5803571428571429,1.0989269298566928,0.9099786098884723
Bempton,BEM,1.0,54.1276580609781,-0.18045684367924,52.9470746023914,-1.14638184532088,146.1672163119543,212.0,94.2,LONDON NORTH EASTERN RAILWAY,ANYTIME S,0.0,0.6444673598965971,0.44433962264150945,0.6894680014714825,1.4503936337375645
Ben Rhydding,BEY,1.0,53.9257153348267,-1.79743026313235,52.9470746023914,-1.14638184532088,117.19536618657541,163.0,55.4,LONDON NORTH EASTERN RAILWAY,ANYTIME S,0.0,0.4727149357748754,0.3398773006134969,0.7189899766047572,1.3908399734892543
Benfleet,BEF,2.0,51.5439424321207,0.561713345502072,52.9470746023914,-1.14638184532088,194.8911146602555,191.0,100.7,EAST MIDLANDS TRAINS,ANYTIME S,0.0,0.5166987739566555,0.5272251308900524,1.020372328064165,0.980034417335861
Bentham,BEN,1.0,54.1155197017626,-2.51067651046258,52.9470746023914,-1.14638184532088,158.40908120847297,252.0,65.0,EAST MIDLANDS TRAINS,ANYTIME S,0.0,0.41033001078048853,0.25793650793650796,0.6286074651129879,1.590817887948971
Bentley (Hants),BTY,2.0,51.1812327932647,-0.868126900052275,52.9470746023914,-1.14638184532088,197.40671650730178,251.0,125.7,EAST MIDLANDS TRAINS,ANYTIME S,0.0,0.6367564499526568,0.500796812749004,0.7864809422601664,1.271486626397111
Bentley (South Yorks),BYK,1.0,53.543936635355,-1.15094859528964,52.9470746023914,-1.14638184532088,66.4260027331027,123.0,33.6,LONDON NORTH EASTERN RAILWAY,ANYTIME S,0.0,0.5058260111631825,0.2731707317073171,0.540048802708152,1.8516845051509359
Bere Alston,BAS,2.0,50.4855988011236,-4.20035543651004,52.9470746023914,-1.14638184532088,345.69573560439886,337.0,160.3,CROSSCOUNTRY,ANYTIME S,700.0,0.4637025669979374,0.4756676557863502,1.0258033697459907,0.9748456960592944
Bere Ferrers,BFE,2.0,50.4512820780774,-4.18143518031599,52.9470746023914,-1.14638184532088,347.98505202967846,332.0,160.3,CROSSCOUNTRY,ANYTIME S,700.0,0.46065197072410047,0.4828313253012049,1.0481477470773448,0.954063969310052
Berkhamsted,BKM,2.0,51.7631330812332,-0.562012981628892,52.9470746023914,-1.14638184532088,137.62571269138246,191.0,100.7,EAST MIDLANDS TRAINS,ANYTIME S,700.0,0.7316946668666037,0.5272251308900524,0.7205534695883898,1.3878220593001123
Berkswell,BKW,1.0,52.3958819317755,-1.64284047482006,52.9470746023914,-1.14638184532088,69.92837671177563,150.0,34.2,CROSSCOUNTRY,ANYTIME S,0.0,0.48907184190707625,0.228,0.4661891780785042,2.1450519381889306
Bermuda Park,BEP,2.0,52.5014343619449,-1.47217775464212,52.9470746023914,-1.14638184532088,54.25695608116711,120.0,21.7,CROSSCOUNTRY,ANYTIME S,0.0,0.3999487174978507,0.18083333333333332,0.4521413006763926,2.21169797694664
Berney Arms,BYA,-999.0,52.5897827472666,1.63037533346209,52.9470746023914,-1.14638184532088,191.57750282382116,-999.0,68.0,EAST MIDLANDS TRAINS,ANYTIME S,700.0,0.35494773132383023,-999.0,-999.0,-999.0
Berry Brow,BBW,1.0,53.6210419716152,-1.79343228301033,52.9470746023914,-1.14638184532088,86.53488156230914,152.0,38.2,LONDON NORTH EASTERN RAILWAY,ANYTIME S,0.0,0.44144048400290725,0.2513157894736842,0.5693084313309812,1.7565171091215157
Berrylands,BRS,2.0,51.3990439366779,-0.280713667843256,52.9470746023914,-1.14638184532088,182.143362117078,185.0,96.6,EAST MIDLANDS TRAINS,ANYTIME S,0.0,0.530351470826082,0.5221621621621622,0.9845587141463675,1.0156834586213788
Berwick (Sussex),BRK,2.0,50.8403762860459,0.166017608785235,52.9470746023914,-1.14638184532088,251.19974570269608,303.0,137.4,EAST MIDLANDS TRAINS,ANYTIME S,0.0,0.5469750760122896,0.4534653465346535,0.8290420650253996,1.2062114121668395
Berwick-upon-Tweed,BWK,1.0,55.7743389009866,-2.01097357377303,52.9470746023914,-1.14638184532088,319.68005277626145,248.0,138.3,CROSSCOUNTRY,ANYTIME S,79.0,0.43262004869848353,0.5576612903225807,1.289032470872022,0.7757756477022697
Bescar Lane,BES,2.0,53.623855333027,-2.9146110021991,52.9470746023914,-1.14638184532088,139.92403076342336,214.0,62.3,EAST MIDLANDS TRAINS,ANYTIME S,0.0,0.44524160474860647,0.2911214953271028,0.6538506110440344,1.529401338943849
Bescot Stadium,BSC,1.0,52.5630947071172,-1.9911057185482,52.9470746023914,-1.14638184532088,71.2634193508626,132.0,34.2,CROSSCOUNTRY,ANYTIME S,0.0,0.47990961297573537,0.2590909090909091,0.5398743890216864,1.8522827167484521
Betchworth,BTO,2.0,51.2481879331766,-0.266973015200458,52.9470746023914,-1.14638184532088,198.40348782069213,221.0,100.7,EAST MIDLANDS TRAINS,ANYTIME S,0.0,0.507551561245778,0.45565610859728506,0.897753338555168,1.1138917083944087
Bethnal Green,BET,2.0,51.5239156627757,-0.0595680464428894,52.9470746023914,-1.14638184532088,174.89435331873514,154.0,95.4,EAST MIDLANDS TRAINS,ANYTIME S,0.0,0.5454721561315297,0.6194805194805195,1.1356776189528257,0.8805315727909387
Betws-y-Coed,BYC,2.0,53.0920709395504,-3.80086212197837,52.9470746023914,-1.14638184532088,178.85276507865558,325.0,61.7,EAST MIDLANDS TRAINS,ANYTIME S,0.0,0.3449764948999568,0.18984615384615386,0.5503162002420172,1.8171371287274873
Beverley,BEV,1.0,53.8422725915824,-0.422980126740875,52.9470746023914,-1.14638184532088,110.64188276605782,169.0,78.4,LONDON NORTH EASTERN RAILWAY,ANYTIME S,0.0,0.7085924248574987,0.46390532544378704,0.6546856968405788,1.527450507664761
Bexhill,BEX,2.0,50.84103990242,0.477016592346932,52.9470746023914,-1.14638184532088,259.5962829448813,241.0,137.4,EAST MIDLANDS TRAINS,ANYTIME S,200.0,0.5292833874249787,0.5701244813278008,1.0771629997712917,0.9283646023975245
Bexley,BXY,2.0,51.4402175270263,0.147902494716889,52.9470746023914,-1.14638184532088,189.58706690436648,178.0,97.5,EAST MIDLANDS TRAINS,ANYTIME S,0.0,0.5142755863678296,0.547752808988764,1.065095881485205,0.9388826089587041
Bexleyheath,BXH,2.0,51.4634982236074,0.133734871030645,52.9470746023914,-1.14638184532088,186.83411846398678,192.0,97.5,EAST MIDLANDS TRAINS,ANYTIME S,0.0,0.5218532931863492,0.5078125,0.9730943669999311,1.0276495619669646
Bicester North,BCS,2.0,51.9034829537461,-1.15038352192815,52.9470746023914,-1.14638184532088,116.12640886794148,200.0,54.2,EAST MIDLANDS TRAINS,ANYTIME S,200.0,0.4667327658572138,0.271,0.5806320443397074,1.722261128624405
Bicester Village,BIT,2.0,51.8930236127002,-1.14876425178293,52.9470746023914,-1.14638184532088,117.28996480609312,212.0,66.7,CROSSCOUNTRY,ANYTIME S,316.0,0.568676102088275,0.314622641509434,0.5532545509721374,1.8074862615099596
Bickley,BKL,1.0,51.4001024308637,0.0452405405139698,52.9470746023914,-1.14638184532088,190.4541527830574,194.0,97.5,EAST MIDLANDS TRAINS,ANYTIME S,200.0,0.511934229709658,0.5025773195876289,0.9817224370260691,1.0186178519351143
Bidston,BID,1.0,53.4091398593576,-3.07856110228132,52.9470746023914,-1.14638184532088,139.0393710624322,186.0,56.9,EAST MIDLANDS TRAINS,ANYTIME S,0.0,0.4092366037419031,0.30591397849462365,0.747523500335657,1.3377505851668539
Biggleswade,BIW,1.0,52.0846785950736,-0.261187193156868,52.9470746023914,-1.14638184532088,113.22487655620134,111.0,41.4,EAST MIDLANDS TRAINS,ANYTIME S,700.0,0.3656440285845692,0.37297297297297294,1.0200439329387507,0.9803499317122507
Bilbrook,BBK,1.0,52.6237197237583,-2.18608801838282,52.9470746023914,-1.14638184532088,78.8383333074456,125.0,32.2,CROSSCOUNTRY,ANYTIME S,268.0,0.4084307550545211,0.2576,0.6307066664595647,1.585523117447675
Billericay,BIC,2.0,51.6288812691945,0.418629610467223,52.9470746023914,-1.14638184532088,181.42644216119723,205.0,100.7,EAST MIDLANDS TRAINS,ANYTIME S,0.0,0.5550458841635011,0.49121951219512194,0.8850070349326694,1.1299345208889544
Billingham (Cleveland),BIL,2.0,54.605606575355,-1.27971968622732,52.9470746023914,-1.14638184532088,184.80503676389282,262.0,89.3,CROSSCOUNTRY,ANYTIME S,79.0,0.48321193817942204,0.34083969465648856,0.7053627357400489,1.4177102777492563
Billingshurst,BIG,2.0,51.0152034952011,-0.450302232654151,52.9470746023914,-1.14638184532088,220.20662478168634,218.0,125.7,EAST MIDLANDS TRAINS,ANYTIME S,0.0,0.5708275131350814,0.576605504587156,1.0101221320260843,0.989979298834111
Bingham,BIN,0.0,52.9541905628363,-0.95154335353279,52.9470746023914,-1.14638184532088,13.11974869265262,18.0,5.8,EAST MIDLANDS TRAINS,ANYTIME DAY S,1000.0,0.44208163859481103,0.3222222222222222,0.7288749273695899,1.3719774990873446
Bingley,BIY,1.0,53.8486154371384,-1.8373224993653,52.9470746023914,-1.14638184532088,110.36002566096232,166.0,55.4,LONDON NORTH EASTERN RAILWAY,ANYTIME S,0.0,0.5019933591733176,0.3337349397590361,0.6648194316925441,1.5041678271258252
Birchgrove,BCG,1.0,51.5215597229164,-3.20185379786194,52.9470746023914,-1.14638184532088,211.83159197885067,228.0,112.95,CROSSCOUNTRY,ANYTIME S,0.0,0.5332065861605617,0.4953947368421053,0.9290859297318012,1.0763267077875882
Birchington-on-sea,BCH,1.0,51.3774886896266,1.3014083545974,52.9470746023914,-1.14638184532088,241.96167978125578,230.0,141.9,EAST MIDLANDS TRAINS,ANYTIME S,200.0,0.5864565005842411,0.6169565217391305,1.0520073033967643,0.9505637430188546
Birchwood,BWD,1.0,53.4127205850305,-2.5253082468513,52.9470746023914,-1.14638184532088,105.75578843639877,144.0,47.6,EAST MIDLANDS TRAINS,ANYTIME S,0.0,0.4500935665438919,0.33055555555555555,0.7344151974749915,1.361627596267236
Birkbeck,BIK,2.0,51.4038899816034,-0.0557387405611835,52.9470746023914,-1.14638184532088,187.2144720351404,177.0,97.5,EAST MIDLANDS TRAINS,ANYTIME S,200.0,0.5207930719250119,0.5508474576271186,1.0577088815544655,0.94543973057156
Birkdale,BDL,2.0,53.6340528065899,-3.01445011129132,52.9470746023914,-1.14638184532088,146.15677372896405,492.0,62.3,EAST MIDLANDS TRAINS,ANYTIME S,0.0,0.4262546196834525,0.1266260162601626,0.29706661327025213,3.366248360903028
Birkenhead Central,BKC,1.0,53.3883166263867,-3.02082115838918,52.9470746023914,-1.14638184532088,134.6262289050652,188.0,56.9,EAST MIDLANDS TRAINS,ANYTIME S,0.0,0.42265166649007413,0.3026595744680851,0.7160969622609852,1.3964589332185227
Birkenhead Hamilton Square,BKQ,1.0,53.3946967251861,-3.01368016573114,52.9470746023914,-1.14638184532088,134.43454910600036,176.0,56.9,EAST MIDLANDS TRAINS,ANYTIME S,0.0,0.4232542927274959,0.32329545454545455,0.763832665375002,1.3091872674875094
Birkenhead North,BKN,1.0,53.4044379353974,-3.05753365912751,52.9470746023914,-1.14638184532088,137.54628906281366,183.0,56.9,EAST MIDLANDS TRAINS,ANYTIME S,0.0,0.41367891774975707,0.3109289617486339,0.7516190659170146,1.3304611941688145
Birkenhead Park,BKP,1.0,53.3974085855031,-3.03910128885113,52.9470746023914,-1.14638184532088,136.121879183374,181.0,56.9,EAST MIDLANDS TRAINS,ANYTIME S,0.0,0.41800774674399144,0.3143646408839779,0.7520545811236133,1.3296907233859834
Birmingham International,BHI,1.0,52.4508081112451,-1.72585685988124,52.9470746023914,-1.14638184532088,67.70782155557787,113.0,34.8,CROSSCOUNTRY,ANYTIME S,0.0,0.5139731156678031,0.3079646017699115,0.5991842615537865,1.6689356916799356
Birmingham Moor Street,BMO,1.0,52.479080623723,-1.89247273057604,52.9470746023914,-1.14638184532088,72.48763015346564,103.0,34.2,CROSSCOUNTRY,ANYTIME S,0.0,0.471804636564807,0.33203883495145636,0.7037633995482101,1.4209320925782198
Birmingham New Street,BHM,0.0,52.4778198092097,-1.9002055706822,52.9470746023914,-1.14638184532088,72.95296218051388,83.0,34.2,CROSSCOUNTRY,ANYTIME S,0.0,0.4687952206159355,0.4120481927710844,0.8789513515724564,1.1377193950620657
Birmingham Snow Hill,BSW,1.0,52.4833566780576,-1.89908868312646,52.9470746023914,-1.14638184532088,72.45796883407048,105.0,34.2,CROSSCOUNTRY,ANYTIME S,0.0,0.47199777402425347,0.32571428571428573,0.6900758936578142,1.44911597288148
Bishop Auckland,BIA,2.0,54.6571963763698,-1.67771509725951,52.9470746023914,-1.14638184532088,193.52975716551194,196.0,85.05,CROSSCOUNTRY,ANYTIME S,79.0,0.4394673007689609,0.43392857142857144,0.9873967202322038,1.012764149920239
Bishopbriggs,BBG,3.0,55.9038831792009,-4.22491571705821,52.9470746023914,-1.14638184532088,384.94806806242184,367.0,123.5,VIRGIN WEST COAST,ANYTIME S,0.0,0.3208224959320322,0.33651226158038144,1.048904817608779,0.9533753522838528
Bishops Stortford,BIS,1.0,51.8666894209812,0.16489410333554,52.9470746023914,-1.14638184532088,149.71451501893816,172.0,100.4,EAST MIDLANDS TRAINS,ANYTIME S,0.0,0.6706096599070565,0.5837209302325582,0.8704332268542916,1.1488532022312121
Bishopstone (Sussex),BIP,2.0,50.7801416620368,0.082756921439231,52.9470746023914,-1.14638184532088,255.52839855906802,270.0,133.7,EAST MIDLANDS TRAINS,ANYTIME S,0.0,0.5232295148168976,0.4951851851851851,0.9464014761446964,1.0566340239383871
Bishopton (Strathclyde),BPT,2.0,55.9022694882255,-4.5004875625329,52.9470746023914,-1.14638184532088,394.3632515165638,360.0,125.5,VIRGIN WEST COAST,ANYTIME S,0.0,0.318234519868109,0.3486111111111111,1.0954534764348995,0.9128639613746553
Bitterne,BTE,2.0,50.9182213632939,-1.37699961416727,52.9470746023914,-1.14638184532088,226.29873649075927,284.0,104.05,EAST MIDLANDS TRAINS,ANYTIME S,200.0,0.4597904593437657,0.3663732394366197,0.7968265369392932,1.2549782840329597
Blackburn,BBN,1.0,53.7465184457461,-2.47912240276289,52.9470746023914,-1.14638184532088,125.6701671980655,237.0,50.2,EAST MIDLANDS TRAINS,ANYTIME S,0.0,0.39945836883371916,0.21181434599156118,0.5302538700340317,1.8858891118245307
Blackheath,BKH,2.0,51.4657945200002,0.00887187089452019,52.9470746023914,-1.14638184532088,182.76148767069884,177.0,96.6,EAST MIDLANDS TRAINS,ANYTIME S,200.0,0.5285577461158265,0.5457627118644067,1.0325507778005585,0.9684753733178189
Blackhorse Road,BHO,1.0,51.58660384873,-0.0412357433706351,52.9470746023914,-1.14638184532088,169.13697738857894,156.0,94.7,EAST MIDLANDS TRAINS,ANYTIME S,0.0,0.5599012200769923,0.6070512820512821,1.0842113935165316,0.9223293593665343
Blackpool North,BPN,1.0,53.8219180942013,-3.04927516714828,52.9470746023914,-1.14638184532088,159.71464182715377,236.0,67.0,EAST MIDLANDS TRAINS,ANYTIME S,0.0,0.41949817019599667,0.2838983050847458,0.6767569568947194,1.477635345765003
Blackpool Pleasure Beach,BPB,2.0,53.7879555202556,-3.05387646984086,52.9470746023914,-1.14638184532088,157.72617669889883,250.0,67.0,EAST MIDLANDS TRAINS,ANYTIME S,0.0,0.4247868134653629,0.268,0.6309047067955953,1.5850254233782197
Blackpool South,BPS,2.0,53.7987040263195,-3.04893832565541,52.9470746023914,-1.14638184532088,158.16276213143956,252.0,67.0,EAST MIDLANDS TRAINS,ANYTIME S,0.0,0.42361425089630345,0.26587301587301587,0.6276300084580935,1.5932953914308727
Blackridge,BKR,2.0,55.8842557507999,-3.75079743413867,52.9470746023914,-1.14638184532088,368.0153535381387,362.0,159.05,CROSSCOUNTRY,ANYTIME S,0.0,0.43218305560047,0.4393646408839779,1.01661699872414,0.9836546125581271
Blackrod,BLK,1.0,53.5915244932358,-2.56952431744104,52.9470746023914,-1.14638184532088,118.99012149318831,201.0,47.1,EAST MIDLANDS TRAINS,ANYTIME S,0.0,0.39583117832765874,0.23432835820895523,0.5919906541949668,1.6892158565575246
Blackwater,BAW,2.0,51.3315811457068,-0.776741026218888,52.9470746023914,-1.14638184532088,181.52795433708297,246.0,116.3,EAST MIDLANDS TRAINS,ANYTIME S,0.0,0.6406726744908949,0.47276422764227644,0.737918513565378,1.3551631807803968
Blaenau Ffestiniog,BFF,2.0,52.9945530771849,-3.93859577234881,52.9470746023914,-1.14638184532088,187.65042366705535,352.0,62.8,EAST MIDLANDS TRAINS,ANYTIME S,0.0,0.3346648452626191,0.1784090909090909,0.53309779450868,1.8758284320452536
Blair Atholl,BLA,2.0,56.7655504660718,-3.85022876626298,52.9470746023914,-1.14638184532088,459.086377368418,462.0,175.55,CROSSCOUNTRY,ANYTIME S,0.0,0.3823899132147863,0.379978354978355,0.9936934575073983,1.0063465673895258
Blairhill,BAI,2.0,55.8664556230225,-4.0432911996593,52.9470746023914,-1.14638184532088,375.4054405351435,361.0,159.05,CROSSCOUNTRY,ANYTIME S,0.0,0.4236752663287803,0.4405817174515236,1.0399042674103698,0.961626979847153
Blake Street,BKT,1.0,52.6048860712992,-1.84491459685048,52.9470746023914,-1.14638184532088,60.59833437367451,140.0,34.2,CROSSCOUNTRY,ANYTIME S,0.0,0.5643719477355366,0.2442857142857143,0.43284524552624654,2.3102945228940093
Blakedown,BKD,2.0,52.4064026596129,-2.17686566095142,52.9470746023914,-1.14638184532088,92.07422034527188,142.0,34.6,CROSSCOUNTRY,ANYTIME S,268.0,0.37578379561893027,0.24366197183098592,0.6484100024314922,1.5422340745054364
Blantyre,BLT,2.0,55.7973304780703,-4.08697164977011,52.9470746023914,-1.14638184532088,370.3019991496077,329.0,123.5,VIRGIN WEST COAST,ANYTIME S,0.0,0.3335115670010307,0.37537993920972645,1.1255379913361936,0.8884640124966728
Blaydon,BLO,2.0,54.9657896857216,-1.71258088882198,52.9470746023914,-1.14638184532088,227.7426004587366,240.0,111.5,CROSSCOUNTRY,ANYTIME S,0.0,0.4895878055989883,0.46458333333333335,0.9489275019114025,1.0538212855942348
Bleasby,BSB,0.0,53.0413649497003,-0.943687538181265,52.9470746023914,-1.14638184532088,17.185554831983744,24.0,5.5,EAST MIDLANDS TRAINS,ANYTIME DAY S,1000.0,0.32003621959088824,0.22916666666666666,0.7160647846659893,1.3965216854875124
Bletchley,BLY,1.0,51.9953339717924,-0.736320506839459,52.9470746023914,-1.14638184532088,109.51023910341128,173.0,49.55,CROSSCOUNTRY,ANYTIME S,0.0,0.45246910613727714,0.2864161849710983,0.633007162447464,1.5797609558375167
Bloxwich,BLX,1.0,52.6182018754768,-2.01147807238452,52.9470746023914,-1.14638184532088,68.89494574952069,124.0,31.0,CROSSCOUNTRY,ANYTIME S,0.0,0.4499604385016251,0.25,0.555604401205812,1.7998417540065004
Bloxwich North,BWN,1.0,52.6254378492086,-2.01768461058018,52.9470746023914,-1.14638184532088,68.82380557078356,126.0,31.0,CROSSCOUNTRY,ANYTIME S,0.0,0.4504255430647071,0.24603174603174602,0.5462206791332028,1.8307618847146159
Blundellsands & Crosby,BLN,2.0,53.4876867000616,-3.03986028592851,52.9470746023914,-1.14638184532088,140.0578380098287,249.0,55.8,EAST MIDLANDS TRAINS,ANYTIME S,0.0,0.3984068352967448,0.22409638554216865,0.5624812771479065,1.7778369532059044
Blythe Bridge,BYB,1.0,52.9681439666743,-2.06696136521393,52.9470746023914,-1.14638184532088,61.90966335056778,79.0,15.1,EAST MIDLANDS TRAINS,ANYTIME DAY S,0.0,0.2439037653055097,0.1911392405063291,0.7836666246907315,1.2760528118632626
Bodmin Parkway,BOD,1.0,50.4458686645733,-4.66292953056928,52.9470746023914,-1.14638184532088,369.45226824272004,351.0,168.45,CROSSCOUNTRY,ANYTIME S,700.0,0.45594523157544387,0.4799145299145299,1.0525705647940742,0.9500550684653061
Bodorgan,BOR,2.0,53.2043074000119,-4.41800424551237,52.9470746023914,-1.14638184532088,221.10415318255556,366.0,56.9,EAST MIDLANDS TRAINS,ANYTIME S,0.0,0.25734478154745594,0.15546448087431694,0.604109708149059,1.6553284718166763
Bognor Regis,BOG,2.0,50.7865584395345,-0.676178286011514,52.9470746023914,-1.14638184532088,242.55994550426803,262.0,137.4,EAST MIDLANDS TRAINS,ANYTIME S,0.0,0.5664579109067385,0.5244274809160305,0.9258013187185803,1.0801453614087735
Bogston,BGS,2.0,55.9370473872407,-4.71140217696609,52.9470746023914,-1.14638184532088,405.1836348652072,396.0,129.5,VIRGIN WEST COAST,ANYTIME S,0.0,0.3196081698686594,0.32702020202020204,1.0231909971343616,0.9773346352740473
Bolton,BON,1.0,53.5741455351566,-2.42582497565139,52.9470746023914,-1.14638184532088,110.26965959752759,142.0,47.1,EAST MIDLANDS TRAINS,ANYTIME S,0.0,0.42713471839769834,0.3316901408450704,0.776546898574138,1.2877522295641861
Bolton-Upon-Dearne,BTD,1.0,53.5189470302023,-1.31154616002462,52.9470746023914,-1.14638184532088,64.59253335341242,88.0,14.6,EAST MIDLANDS TRAINS,ANYTIME DAY S,0.0,0.2260323173905778,0.1659090909090909,0.734006060834232,1.3623865705733458
Bookham,BKA,2.0,51.2887375770933,-0.384020684769355,52.9470746023914,-1.14638184532088,191.76621468728115,219.0,98.0,EAST MIDLANDS TRAINS,ANYTIME S,0.0,0.5110389239304302,0.4474885844748858,0.8756448159236582,1.1420155544975938
Bootle (Cumbria),BOC,2.0,54.2913058315169,-3.39386227213438,52.9470746023914,-1.14638184532088,210.9335403235016,326.0,82.6,EAST MIDLANDS TRAINS,ANYTIME S,0.0,0.391592536081835,0.25337423312883434,0.6470353997653423,1.5455104934948936
Bootle New Strand,BNW,2.0,53.4533917659639,-2.99474773972908,52.9470746023914,-1.14638184532088,135.75948321041423,221.0,55.8,EAST MIDLANDS TRAINS,ANYTIME S,0.0,0.411021010690762,0.2524886877828054,0.6142963041195214,1.6278789133092906
Bootle Oriel Road,BOT,2.0,53.4466239167649,-2.9957338918952,52.9470746023914,-1.14638184532088,135.51761333301664,215.0,55.8,EAST MIDLANDS TRAINS,ANYTIME S,0.0,0.4117545950494189,0.2595348837209302,0.630314480618682,1.5865096404233883
Bordesley,BBS,2.0,52.4718743800827,-1.87776885469942,52.9470746023914,-1.14638184532088,72.38649757228599,103.0,34.2,CROSSCOUNTRY,ANYTIME S,0.0,0.4724638039828835,0.33203883495145636,0.7027815298280193,1.4229173043928947
Borough Green & Wrotham,BRG,2.0,51.2932170234776,0.306244959659036,52.9470746023914,-1.14638184532088,209.18875592695105,203.0,112.7,EAST MIDLANDS TRAINS,ANYTIME S,200.0,0.5387478858536496,0.5551724137931034,1.0304864823987736,0.9704154465686857
Borth,BRH,1.0,52.4910318901744,-4.05017708151719,52.9470746023914,-1.14638184532088,202.6564628724183,261.0,83.2,CROSSCOUNTRY,ANYTIME S,0.0,0.41054698587322275,0.31877394636015327,0.7764615435724839,1.2878937898186433
Bosham,BOH,2.0,50.8427472866996,-0.847431235664145,52.9470746023914,-1.14638184532088,235.04073009443022,254.0,137.4,EAST MIDLANDS TRAINS,ANYTIME S,0.0,0.5845795320019557,0.5409448818897638,0.9253572050961819,1.0806637636717376
Boston,BSN,0.0,52.9780883520384,-0.03100323679323,52.9470746023914,-1.14638184532088,75.0268181853842,76.0,18.8,EAST MIDLANDS TRAINS,ANYTIME DAY S,0.0,0.250577066370414,0.2473684210526316,0.9871949761234763,1.0129711193697586
Botley,BOE,2.0,50.9164546156522,-1.25923650546392,52.9470746023914,-1.14638184532088,226.07224474110393,260.0,111.05,EAST MIDLANDS TRAINS,ANYTIME S,200.0,0.4912146563023406,0.4271153846153846,0.8695086336196305,1.1500748369077762
Bottesford,BTF,0.0,52.9446141670485,-0.794842711685305,52.9470746023914,-1.14638184532088,23.632445887658818,26.0,7.1,EAST MIDLANDS TRAINS,ANYTIME DAY S,1000.0,0.3004344126609305,0.27307692307692305,0.9089402264484161,1.1001823562231259
Bourne End,BNE,3.0,51.5771173647136,-0.710473547391366,52.9470746023914,-1.14638184532088,155.31570746615628,211.0,93.65,EAST MIDLANDS TRAINS,ANYTIME S,200.0,0.6029654149462417,0.4438388625592417,0.7360934003135369,1.358523252041185
Bournemouth,BMH,1.0,50.7272746595869,-1.86450316465566,52.9470746023914,-1.14638184532088,251.89179639328194,327.0,122.95,EAST MIDLANDS TRAINS,ANYTIME S,200.0,0.4881064082294946,0.37599388379204896,0.7703113039549906,1.2981764578368826
Bournville,BRV,1.0,52.4269645832552,-1.92642405915734,52.9470746023914,-1.14638184532088,78.30741025907561,95.0,34.2,CROSSCOUNTRY,ANYTIME S,0.0,0.4367402763908454,0.36000000000000004,0.8242885290429012,1.2131674344190149
Bow Brickhill,BWB,1.0,52.0043001848605,-0.696077833880482,52.9470746023914,-1.14638184532088,109.27876086424794,144.0,49.55,CROSSCOUNTRY,ANYTIME S,0.0,0.45342754262700435,0.3440972222222222,0.7588802837794996,1.3177309008736353
Bowes Park,BOP,2.0,51.6070103763875,-0.120581954633459,52.9470746023914,-1.14638184532088,164.72726833930832,166.0,95.4,EAST MIDLANDS TRAINS,ANYTIME S,0.0,0.5791390882746461,0.574698795180723,0.9923329418030622,1.0077262961592375
Bowling,BWG,3.0,55.9310849001239,-4.49384261915191,52.9470746023914,-1.14638184532088,396.76396205864717,388.0,125.5,VIRGIN WEST COAST,ANYTIME S,0.0,0.31630896956677074,0.3234536082474227,1.0225875310789876,0.9779113959514505
Box Hill & Westhumble,BXW,2.0,51.2540106794359,-0.328489952956063,52.9470746023914,-1.14638184532088,196.54246125254193,227.0,100.7,EAST MIDLANDS TRAINS,ANYTIME S,0.0,0.5123574791841456,0.44361233480176215,0.8658258204957794,1.1549667107726023
Bracknell,BCE,2.0,51.4130914141393,-0.751703650172948,52.9470746023914,-1.14638184532088,172.8084999340596,226.0,88.05,EAST MIDLANDS TRAINS,ANYTIME S,200.0,0.5095235479365783,0.3896017699115044,0.7646393802392017,1.3078060401325007
Bradford Forster Square,BDQ,1.0,53.7969256219995,-1.75296173787813,52.9470746023914,-1.14638184532088,102.83811464611551,149.0,54.0,NORTHERN,ANYTIME S,79.0,0.525097141131221,0.3624161073825503,0.6901886889001041,1.4488791486768875
Bradford Interchange,BDI,1.0,53.7910764525054,-1.74959589964649,52.9470746023914,-1.14638184532088,102.15252330066821,149.0,54.0,NORTHERN,ANYTIME S,79.0,0.5286213032747158,0.3624161073825503,0.6855874047024711,1.4586032257024566
Bradford-on-Avon,BOA,1.0,51.3449161602034,-2.25232693866303,52.9470746023914,-1.14638184532088,193.67550577000878,262.0,93.3,EAST MIDLANDS TRAINS,ANYTIME S,200.0,0.48173360709223856,0.3561068702290076,0.7392194876717892,1.3527781892622348
Brading,BDN,4.0,50.6783720718463,-1.13872244962043,52.9470746023914,-1.14638184532088,252.42492349513597,329.0,-999.0,N/A,no route found,-998.0,-999.0,-999.0,0.7672490075839999,1.3033578279220102
Braintree,BTR,2.0,51.8753890748181,0.556686982906197,52.9470746023914,-1.14638184532088,166.27747600815835,239.0,125.7,EAST MIDLANDS TRAINS,ANYTIME S,0.0,0.7559652877689373,0.5259414225941422,0.695721656937901,1.4373564341827847
Braintree Freeport,BTP,2.0,51.8694135093739,0.568434688069829,52.9470746023914,-1.14638184532088,167.31676260041957,237.0,125.7,EAST MIDLANDS TRAINS,ANYTIME S,0.0,0.7512696160646656,0.5303797468354431,0.7059779012675931,1.416474932436959
Bramhall,BML,1.0,53.360614520234,-2.16359288123925,52.9470746023914,-1.14638184532088,82.15005464756447,120.0,40.8,EAST MIDLANDS TRAINS,ANYTIME S,0.0,0.4966521346216731,0.33999999999999997,0.6845837887297039,1.460741572416686
Bramley (Hants),BMY,2.0,51.3302932744388,-1.06100278415591,52.9470746023914,-1.14638184532088,179.99411592770292,241.0,88.05,EAST MIDLANDS TRAINS,ANYTIME S,200.0,0.489182657700691,0.36535269709543566,0.746863551567232,1.3389326576475473
Bramley (W Yorks),BLE,1.0,53.8053497570895,-1.63720635437646,52.9470746023914,-1.14638184532088,100.95061671480768,143.0,48.6,LONDON NORTH EASTERN RAILWAY,ANYTIME S,0.0,0.4814235076671031,0.33986013986013985,0.7059483686350188,1.4165341892262497
Brampton (Cumbria),BMP,2.0,54.9323930102284,-2.70294760254176,52.9470746023914,-1.14638184532088,243.45622545425977,264.0,113.45,CROSSCOUNTRY,ANYTIME S,0.0,0.4659975311303544,0.4297348484848485,0.9221826721752264,1.084383853842341
Brampton (Suffolk),BRP,2.0,52.3954307722651,1.54381046672808,52.9470746023914,-1.14638184532088,192.0416247045117,259.0,150.6,EAST MIDLANDS TRAINS,ANYTIME S,0.0,0.7842049880161314,0.5814671814671815,0.7414734544575741,1.3486659488458037
Branchton,BCN,2.0,55.9406016000061,-4.80354935893801,52.9470746023914,-1.14638184532088,408.9351576652524,379.0,130.5,VIRGIN WEST COAST,ANYTIME S,0.0,0.3191214977579041,0.34432717678100266,1.0789845848687398,0.9267973000018823
Brandon,BND,1.0,52.4540047306678,0.624731734521936,52.9470746023914,-1.14638184532088,131.697838180806,134.0,47.6,EAST MIDLANDS TRAINS,ANYTIME S,700.0,0.36143341954216945,0.35522388059701493,0.9828196879164627,1.0174806348456031
Branksome,BSM,2.0,50.7269660330633,-1.91975842787338,52.9470746023914,-1.14638184532088,252.70081138036704,312.0,122.95,EAST MIDLANDS TRAINS,ANYTIME S,200.0,0.4865437484287884,0.3940705128205128,0.809938498013997,1.2346616470905405
Braystones (Cumbria),BYS,2.0,54.4393640536404,-3.54182643942065,52.9470746023914,-1.14638184532088,229.37530037156685,403.0,92.4,EAST MIDLANDS TRAINS,ANYTIME S,0.0,0.4028332599469974,0.22928039702233252,0.5691694798301907,1.7569459281238091
Bredbury,BDY,1.0,53.4231550957567,-2.11048830300964,52.9470746023914,-1.14638184532088,83.43144027565609,148.0,27.5,EAST MIDLANDS TRAINS,ANYTIME S,0.0,0.3296119533492465,0.1858108108108108,0.5637259478084871,1.7739116034795812
Breich,BRC,3.0,55.8273164832767,-3.66812586892786,52.9470746023914,-1.14638184532088,359.98021235323586,321.0,150.8,CROSSCOUNTRY,ANYTIME S,0.0,0.4189119146694244,0.46978193146417446,1.121433683343414,0.8917156804302734
Brentford,BFD,2.0,51.4875457097478,-0.3096509962364,52.9470746023914,-1.14638184532088,172.17494605103337,165.0,97.5,EAST MIDLANDS TRAINS,ANYTIME S,0.0,0.5662844811991438,0.5909090909090909,1.0434845215214144,0.9583275835677818
Brentwood,BRE,2.0,51.6136030493508,0.2995857793073,52.9470746023914,-1.14638184532088,178.190901726467,197.0,100.7,EAST MIDLANDS TRAINS,ANYTIME S,0.0,0.5651242517116847,0.5111675126903553,0.9045223437891725,1.105555884679264
Bricket Wood,BWO,2.0,51.7054267834401,-0.359115040469,52.9470746023914,-1.14638184532088,148.2196832070816,186.0,100.7,EAST MIDLANDS TRAINS,ANYTIME S,700.0,0.6793969452714954,0.5413978494623656,0.7968800172423742,1.254894059786476
Bridge of Allan,BEA,2.0,56.1566398048563,-3.95722936202684,52.9470746023914,-1.14638184532088,400.82299598520876,354.0,166.2,CROSSCOUNTRY,ANYTIME S,0.0,0.4146468682304174,0.4694915254237288,1.1322683502407027,0.88318286012977
Bridge of Orchy,BRO,4.0,56.5158728605762,-4.76299400728156,52.9470746023914,-1.14638184532088,460.4051649641888,476.0,135.0,VIRGIN WEST COAST,ANYTIME S,0.0,0.2932199946334237,0.28361344537815125,0.9672377415214051,1.0338719810778494
Bridgend,BGN,1.0,51.5069776497295,-3.57527638119945,52.9470746023914,-1.14638184532088,230.6752634615126,230.0,110.55,CROSSCOUNTRY,ANYTIME S,0.0,0.4792451446292372,0.4806521739130435,1.002935928093533,0.9970726663475763
Bridgeton,BDG,2.0,55.8489676845822,-4.22605724682491,52.9470746023914,-1.14638184532088,379.84583943321064,345.0,125.0,VIRGIN WEST COAST,ANYTIME S,0.0,0.3290808718255794,0.36231884057971014,1.101002433139741,0.9082632062385991
Bridgwater,BWT,2.0,51.1278595271724,-2.99040597303838,52.9470746023914,-1.14638184532088,238.69880309073986,245.0,100.35,EAST MIDLANDS TRAINS,ANYTIME S,200.0,0.4204042864925995,0.40959183673469385,0.9742808289417954,1.0263981085270242
Bridlington,BDT,1.0,54.0841300013586,-0.198720390714093,52.9470746023914,-1.14638184532088,141.29985434935048,200.0,94.2,LONDON NORTH EASTERN RAILWAY,ANYTIME S,0.0,0.6666673538608147,0.47100000000000003,0.7064992717467524,1.4154296260314534
Brierfield,BRF,2.0,53.8239823807197,-2.23649020577414,52.9470746023914,-1.14638184532088,121.59328580706621,255.0,67.5,EAST MIDLANDS TRAINS,ANYTIME S,0.0,0.555129335900201,0.2647058823529412,0.4768364149296714,2.097155268956315
Brigg,BGG,1.0,53.5491442686681,-0.486124757673641,52.9470746023914,-1.14638184532088,80.19964847711834,166.0,13.6,LONDON NORTH EASTERN RAILWAY,ANYTIME DAY S,0.0,0.1695768031187842,0.0819277108433735,0.4831304125127611,2.0698345086557484
Brighouse,BGH,1.0,53.6981985445311,-1.77943904000537,52.9470746023914,-1.14638184532088,93.63409569741874,208.0,38.2,LONDON NORTH EASTERN RAILWAY,ANYTIME S,0.0,0.4079710463957958,0.18365384615384617,0.4501639216222055,2.2214130274954322
Brighton (East Sussex),BTN,1.0,50.8290032740444,-0.141280362604851,52.9470746023914,-1.14638184532088,245.61075717132718,211.0,127.0,EAST MIDLANDS TRAINS,ANYTIME S,0.0,0.5170783293966658,0.6018957345971564,1.1640320245086597,0.8590828937220195
Brimsdown,BMD,2.0,51.6555817179022,-0.0308174334464399,52.9470746023914,-1.14638184532088,162.6087305643927,152.0,97.5,EAST MIDLANDS TRAINS,ANYTIME S,0.0,0.5995988017469346,0.6414473684210527,1.0697942800288993,0.9347591575952212
Brinnington,BNT,1.0,53.4321182782686,-2.13512015019042,52.9470746023914,-1.14638184532088,85.33192967084128,151.0,27.5,EAST MIDLANDS TRAINS,ANYTIME S,0.0,0.3222709260891941,0.18211920529801323,0.565112117025439,1.7695603577988477
Bristol Parkway,BPW,1.0,51.5138036668802,-2.54216343130652,52.9470746023914,-1.14638184532088,185.81257892054506,174.0,84.55,EAST MIDLANDS TRAINS,ANYTIME S,200.0,0.4550283973839804,0.48591954022988504,1.0678883846008338,0.9364274529250454
Bristol Temple Meads,BRI,1.0,51.449146420501,-2.58131562733598,52.9470746023914,-1.14638184532088,193.3997006467305,184.0,84.55,EAST MIDLANDS TRAINS,ANYTIME S,200.0,0.4371775122570716,0.45951086956521736,1.0510853296017963,0.9513975429367376
Brithdir,BHD,1.0,51.7103060616454,-3.22872077880337,52.9470746023914,-1.14638184532088,197.70183393338755,268.0,114.6,CROSSCOUNTRY,ANYTIME S,0.0,0.5796607837164152,0.42761194029850746,0.7376934101992073,1.3555767018848104
Briton Ferry,BNF,1.0,51.6379005035521,-3.81925304025098,52.9470746023914,-1.14638184532088,233.38214679089037,280.0,110.55,CROSSCOUNTRY,ANYTIME S,0.0,0.47368661879287804,0.39482142857142855,0.8335076671103228,1.199749011867986
Brixton,BRX,2.0,51.4632974069132,-0.114183479348404,52.9470746023914,-1.14638184532088,179.54445431007213,157.0,96.6,EAST MIDLANDS TRAINS,ANYTIME S,200.0,0.5380283137744395,0.6152866242038216,1.143595250382625,0.8744352511654969
Broad Green,BGE,1.0,53.4065063198581,-2.8934843782564,52.9470746023914,-1.14638184532088,127.51115103755814,196.0,55.8,EAST MIDLANDS TRAINS,ANYTIME S,0.0,0.4376087859450365,0.2846938775510204,0.6505670971303986,1.5371204667603433
Broadbottom,BDB,1.0,53.4409753914717,-2.01652101691897,52.9470746023914,-1.14638184532088,80.02052760695969,154.0,42.3,EAST MIDLANDS TRAINS,ANYTIME S,0.0,0.5286143601522693,0.2746753246753247,0.5196138156296084,1.9245061811690183
Broadstairs,BSR,1.0,51.3606706129939,1.43356042841681,52.9470746023914,-1.14638184532088,249.64667691441525,224.0,141.9,EAST MIDLANDS TRAINS,ANYTIME S,200.0,0.5684033200596004,0.6334821428571429,1.1144940933679253,0.8972681021377764
Brockenhurst,BCU,1.0,50.8168418133325,-1.57353117285741,52.9470746023914,-1.14638184532088,238.83729854850571,267.0,113.45,EAST MIDLANDS TRAINS,ANYTIME S,200.0,0.47500955960176094,0.4249063670411985,0.8945217174101338,1.1179158432231835
Brockholes,BHS,1.0,53.5969730380642,-1.76969142002127,52.9470746023914,-1.14638184532088,83.42922158312466,146.0,38.2,LONDON NORTH EASTERN RAILWAY,ANYTIME S,0.0,0.4578731441469756,0.2616438356164384,0.5714330245419497,1.7499863624465557
Brockley,BCY,2.0,51.4646472014469,-0.0375366925196268,52.9470746023914,-1.14638184532088,181.53000673646997,174.0,96.6,EAST MIDLANDS TRAINS,ANYTIME S,0.0,0.532143427616547,0.5551724137931034,1.0432759007843102,0.9585192174459543
Bromborough,BOM,2.0,53.3218495381578,-2.98689585549247,52.9470746023914,-1.14638184532088,130.0476657176069,222.0,54.0,EAST MIDLANDS TRAINS,ANYTIME S,0.0,0.41523236654826823,0.24324324324324326,0.5858002960252563,1.707066395809547
Bromborough Rake,BMR,2.0,53.3299093778849,-2.98946942122466,52.9470746023914,-1.14638184532088,130.4899278296027,224.0,54.0,EAST MIDLANDS TRAINS,ANYTIME S,0.0,0.4138250430371505,0.24107142857142858,0.5825443206678692,1.7166075859318837
Bromley Cross (Lancs),BMC,2.0,53.6140430093272,-2.41089911446368,52.9470746023914,-1.14638184532088,112.35274228576868,171.0,47.1,EAST MIDLANDS TRAINS,ANYTIME S,0.0,0.41921540179412237,0.2754385964912281,0.6570335806185303,1.5219922230742022
Bromley North,BMN,2.0,51.4083259856208,0.0169926357417391,52.9470746023914,-1.14638184532088,188.80223681168226,209.0,97.5,EAST MIDLANDS TRAINS,ANYTIME S,200.0,0.5164133733079116,0.4665071770334928,0.9033599847448912,1.1069784104754208
Bromley South,BMS,1.0,51.3999745779484,0.0173440284479178,52.9470746023914,-1.14638184532088,189.65839497266455,191.0,97.5,EAST MIDLANDS TRAINS,ANYTIME S,200.0,0.5140821739741743,0.5104712041884817,0.9929758899092385,1.007073797221203
Bromsgrove,BMV,1.0,52.3222879772082,-2.04734524157192,52.9470746023914,-1.14638184532088,92.48927183506048,112.0,39.75,CROSSCOUNTRY,ANYTIME S,268.0,0.4297795756343248,0.3549107142857143,0.8257970699558971,1.210951257133192
Brondesbury,BSY,3.0,51.5451643215911,-0.202308734122339,52.9470746023914,-1.14638184532088,168.7910331432397,143.0,96.6,EAST MIDLANDS TRAINS,ANYTIME S,0.0,0.5723052830538881,0.6755244755244755,1.1803568751275504,0.8472014024503726
Brondesbury Park,BSP,3.0,51.5406977630272,-0.210127665126915,52.9470746023914,-1.14638184532088,169.04892627334428,145.0,96.6,EAST MIDLANDS TRAINS,ANYTIME S,0.0,0.5714322008990597,0.666206896551724,1.1658546639540985,0.8577398460700172
Brookmans Park,BPK,2.0,51.7210604040222,-0.204548729285783,52.9470746023914,-1.14638184532088,150.77127832799243,183.0,97.5,EAST MIDLANDS TRAINS,ANYTIME S,0.0,0.646674891141372,0.5327868852459017,0.8238867668196308,1.2137590264499596
Brookwood,BKO,2.0,51.3037572593507,-0.635747900032551,52.9470746023914,-1.14638184532088,186.1642732425394,214.0,100.7,EAST MIDLANDS TRAINS,ANYTIME S,0.0,0.5409201145098639,0.47056074766355144,0.869926510479156,1.1495223883327792
Broome,BME,2.0,52.4227745962921,-2.88520796216339,52.9470746023914,-1.14638184532088,131.26206367663804,226.0,71.45,CROSSCOUNTRY,ANYTIME S,0.0,0.5443309208974187,0.3161504424778761,0.5808055914895488,1.721746509766503
Broomfleet,BMF,1.0,53.7402076992399,-0.671828400321333,52.9470746023914,-1.14638184532088,93.7574404422968,163.0,60.5,LONDON NORTH EASTERN RAILWAY,ANYTIME S,0.0,0.6452821206999017,0.37116564417177916,0.5751990211183853,1.7385286888278342
Brora,BRA,3.0,58.012954677959,-3.85228367382381,52.9470746023914,-1.14638184532088,589.2517636766928,701.0,216.55,CROSSCOUNTRY,ANYTIME S,0.0,0.3674999607108777,0.3089158345221113,0.8405873946885775,1.1896442967366672
Brough,BUH,1.0,53.726959736948,-0.578724236728498,52.9470746023914,-1.14638184532088,94.67398283103658,160.0,60.5,LONDON NORTH EASTERN RAILWAY,ANYTIME S,0.0,0.6390351202185458,0.378125,0.5917123926939787,1.690010235288716
Broughty Ferry,BYF,2.0,56.4671632427311,-2.87315275743822,52.9470746023914,-1.14638184532088,407.3169754130434,392.0,170.8,CROSSCOUNTRY,ANYTIME S,0.0,0.41932944195806904,0.4357142857142857,1.0390739168700087,0.9623954405595027
Broxbourne,BXB,2.0,51.7469087203036,-0.0110867237416249,52.9470746023914,-1.14638184532088,154.33348786000064,163.0,100.7,EAST MIDLANDS TRAINS,ANYTIME S,0.0,0.6524831479953801,0.6177914110429448,0.9468312138650347,1.0561544500818962
Bruce Grove,BCV,2.0,51.5939575362971,-0.0698670703254643,52.9470746023914,-1.14638184532088,167.5361681264682,141.0,96.6,EAST MIDLANDS TRAINS,ANYTIME S,0.0,0.576591914929554,0.6851063829787234,1.188199773946583,0.8416093168226408
Brundall,BDA,1.0,52.6194794445227,1.43929868679443,52.9470746023914,-1.14638184532088,178.2209219582599,178.0,56.9,EAST MIDLANDS TRAINS,ANYTIME S,700.0,0.31926666844045515,0.3196629213483146,1.0012411345969658,0.9987604039086295
Brundall Gardens,BGA,1.0,52.623439277351,1.41841612253682,52.9470746023914,-1.14638184532088,176.7442067821129,175.0,56.9,EAST MIDLANDS TRAINS,ANYTIME S,700.0,0.3219341727570471,0.3251428571428571,1.009966895897788,0.9901314627852944
Brunstane,BSU,2.0,55.9425140850115,-3.10098653970798,52.9470746023914,-1.14638184532088,356.6931057693146,310.0,155.65,CROSSCOUNTRY,ANYTIME S,0.0,0.4363695218170661,0.5020967741935484,1.1506229218364987,0.8690944539883745
Brunswick,BRW,1.0,53.3832435421687,-2.97607735757102,52.9470746023914,-1.14638184532088,131.642365625189,182.0,55.8,EAST MIDLANDS TRAINS,ANYTIME S,0.0,0.42387570091890686,0.30659340659340656,0.7233097012373022,1.3825336481584418
Bruton,BRU,1.0,51.1116412233567,-2.44707381432238,52.9470746023914,-1.14638184532088,222.87380148840558,276.0,98.8,CROSSCOUNTRY,ANYTIME S,700.0,0.44330019652462294,0.3579710144927536,0.8075137735087159,1.2383689700485419
Bryn,BYN,2.0,53.4998691660173,-2.6472139954436,52.9470746023914,-1.14638184532088,117.61008150251617,185.0,51.2,EAST MIDLANDS TRAINS,ANYTIME S,0.0,0.43533682951239705,0.27675675675675676,0.6357301702838711,1.5729944035115908
Buckenham (Norfolk),BUC,-999.0,52.5977342869752,1.47032522512213,52.9470746023914,-1.14638184532088,180.81791511969152,-999.0,66.2,EAST MIDLANDS TRAINS,ANYTIME S,700.0,0.36611416493868565,-999.0,-999.0,-999.0
Buckley,BCK,2.0,53.163039091322,-3.05592619131988,52.9470746023914,-1.14638184532088,130.2703736450401,275.0,34.3,EAST MIDLANDS TRAINS,ANYTIME S,0.0,0.26329854624859234,0.12472727272727271,0.47371044961832764,2.110994175462475
Bucknell,BUK,2.0,52.3573820377697,-2.94737831871819,52.9470746023914,-1.14638184532088,138.41976228427984,235.0,71.45,CROSSCOUNTRY,ANYTIME S,0.0,0.5161835190358111,0.3040425531914894,0.5890202650394887,1.697734457290631
Buckshaw Parkway,BSV,1.0,53.6733436562841,-2.6608302706882,52.9470746023914,-1.14638184532088,129.31329309707513,174.0,58.2,EAST MIDLANDS TRAINS,ANYTIME S,0.0,0.45006973843214576,0.33448275862068966,0.7431798453854893,1.3455693210857964
Bugle,BGL,3.0,50.4003548175137,-4.79210144517706,52.9470746023914,-1.14638184532088,379.2321162444218,466.0,185.7,CROSSCOUNTRY,ANYTIME S,700.0,0.4896737170865378,0.3984978540772532,0.813802824558845,1.228798880787973
Builth Road,BHR,2.0,52.1693260878635,-3.42703322967269,52.9470746023914,-1.14638184532088,177.22967067335526,276.0,104.05,CROSSCOUNTRY,ANYTIME S,0.0,0.5870913126717382,0.3769927536231884,0.6421364879469393,1.5573013195329144
Bulwell,BLW,0.0,52.9996957837852,-1.19623056375416,52.9470746023914,-1.14638184532088,6.7458732858951675,13.0,2.6,EAST MIDLANDS TRAINS,ANYTIME DAY S,1000.0,0.3854208180038448,0.2,0.5189133296842436,1.927104090019224
Bures,BUE,3.0,51.9711590332091,0.769143780923498,52.9470746023914,-1.14638184532088,169.53702017326847,227.0,110.5,EAST MIDLANDS TRAINS,ANYTIME S,0.0,0.6517750511780137,0.486784140969163,0.7468591197060285,1.3389406028724806
Burgess Hill,BUG,1.0,50.9536546008005,-0.127412852764647,52.9470746023914,-1.14638184532088,232.59548489031158,197.0,125.7,EAST MIDLANDS TRAINS,ANYTIME S,0.0,0.5404232161225235,0.6380710659898478,1.1806877405599572,0.8469639902636207
Burley Park,BUY,1.0,53.8120311080587,-1.57776768947798,52.9470746023914,-1.14638184532088,100.4527777041161,148.0,48.6,LONDON NORTH EASTERN RAILWAY,ANYTIME S,0.0,0.4838094188211641,0.3283783783783784,0.678734984487271,1.4733290943525161
Burley-in-Wharfedale,BUW,1.0,53.9081516997075,-1.75337211508043,52.9470746023914,-1.14638184532088,114.31819430940492,158.0,55.4,LONDON NORTH EASTERN RAILWAY,ANYTIME S,0.0,0.48461227309153065,0.35063291139240504,0.7235328753759804,1.3821072048458816
Burnage,BNA,1.0,53.4211687602571,-2.21567840315285,52.9470746023914,-1.14638184532088,88.84518052091026,140.0,45.3,EAST MIDLANDS TRAINS,ANYTIME S,0.0,0.5098757156482828,0.32357142857142857,0.6346084322922162,1.5757748386481147
Burneside (Cumbria),BUD,1.0,54.3549826054845,-2.76667730640148,52.9470746023914,-1.14638184532088,189.81229111060637,282.0,70.3,EAST MIDLANDS TRAINS,ANYTIME S,0.0,0.3703658998512123,0.24929078014184397,0.673093230888675,1.485678289588078
Burnham (Bucks),BNM,2.0,51.5235048795581,-0.646373823188634,52.9470746023914,-1.14638184532088,162.04336787758552,203.0,94.75,EAST MIDLANDS TRAINS,ANYTIME S,200.0,0.5847200119388916,0.4667487684729064,0.7982431915151996,1.2527510546025855
Burnham-on-Crouch,BUU,2.0,51.6336547723703,0.814027782561537,52.9470746023914,-1.14638184532088,198.10672481281094,232.0,123.1,EAST MIDLANDS TRAINS,ANYTIME S,0.0,0.6213822378635352,0.530603448275862,0.8539082966069437,1.171085939759059
Burnley Barracks,BUB,2.0,53.7908801067712,-2.25808600820696,52.9470746023914,-1.14638184532088,119.55810303086992,247.0,67.5,EAST MIDLANDS TRAINS,ANYTIME S,0.0,0.5645790480848587,0.2732793522267207,0.4840409029589875,2.065941109288298
Burnley Central,BNC,2.0,53.7935141377532,-2.24497131410056,52.9470746023914,-1.14638184532088,119.24991183696459,246.0,67.5,EAST MIDLANDS TRAINS,ANYTIME S,0.0,0.5660381543282335,0.27439024390243905,0.4847557391746528,2.0628946068851177
Burnley Manchester Road,BYM,1.0,53.784967519749,-2.24886752625716,52.9470746023914,-1.14638184532088,118.66467406275764,217.0,67.5,EAST MIDLANDS TRAINS,ANYTIME S,0.0,0.5688297762845713,0.31105990783410137,0.5468418159574084,1.8286823919074366
Burnside (Strathclyde),BUI,2.0,55.8169313339993,-4.20239033426663,52.9470746023914,-1.14638184532088,376.0475679050473,366.0,125.5,VIRGIN WEST COAST,ANYTIME S,0.0,0.33373437488017205,0.34289617486338797,1.027452371325266,0.9732811251485495
Burntisland,BTS,2.0,56.0570842114504,-3.23319831966981,52.9470746023914,-1.14638184532088,371.6061001119478,344.0,156.7,CROSSCOUNTRY,ANYTIME S,79.0,0.4216830669700887,0.4555232558139535,1.080250291023104,0.9257113914340175
Burscough Bridge,BCB,1.0,53.6052595050232,-2.84088028461687,52.9470746023914,-1.14638184532088,134.69005097236015,177.0,51.2,EAST MIDLANDS TRAINS,ANYTIME S,0.0,0.3801320114616839,0.28926553672316385,0.760960739956837,1.3141282427483993
Burscough Junction,BCJ,2.0,53.5975223038556,-2.84060569626726,52.9470746023914,-1.14638184532088,134.21692350444866,202.0,61.7,EAST MIDLANDS TRAINS,ANYTIME S,0.0,0.4597035782745753,0.30544554455445544,0.6644402153685577,1.5050263016444767
Bursledon,BUO,2.0,50.8836886125224,-1.30503236047306,52.9470746023914,-1.14638184532088,229.84333623234826,299.0,104.05,EAST MIDLANDS TRAINS,ANYTIME S,200.0,0.45269965927929284,0.34799331103678927,0.768706810141633,1.3008860944210336
Burton Joyce,BUJ,0.0,52.9834418843688,-1.04087761567102,52.9470746023914,-1.14638184532088,8.162879374383737,12.0,4.7,EAST MIDLANDS TRAINS,ANYTIME DAY S,1000.0,0.5757772208112325,0.39166666666666666,0.6802399478653114,1.4700694999435724
Burton-on-Trent,BUT,0.0,52.8058165084357,-1.64245997205794,52.9470746023914,-1.14638184532088,36.91454206546716,43.0,15.85,CROSSCOUNTRY,ANYTIME DAY S,0.0,0.42937008325581716,0.3686046511627907,0.8584777224527247,1.164852591798116
Bury St Edmunds,BSE,1.0,52.2537604920335,0.713306656862091,52.9470746023914,-1.14638184532088,147.74037629081542,186.0,49.5,EAST MIDLANDS TRAINS,ANYTIME S,700.0,0.3350472040396263,0.2661290322580645,0.7943030983377173,1.2589652515428382
Busby,BUS,2.0,55.7803445376612,-4.26220173231044,52.9470746023914,-1.14638184532088,374.7257902075591,380.0,125.5,VIRGIN WEST COAST,ANYTIME S,0.0,0.3349115627469517,0.33026315789473687,0.9861205005462081,1.014074851345352
Bush Hill Park,BHK,2.0,51.6415169536941,-0.0692211146516689,52.9470746023914,-1.14638184532088,162.79972728418534,150.0,97.5,EAST MIDLANDS TRAINS,ANYTIME S,0.0,0.5988953521390286,0.65,1.0853315152279022,0.9213774648292747
Bushey,BSH,2.0,51.6457502336329,-0.385321269560704,52.9470746023914,-1.14638184532088,153.82742150106915,175.0,98.0,EAST MIDLANDS TRAINS,ANYTIME S,700.0,0.6370775707198528,0.56,0.8790138371489666,1.1376385191425944
Butlers Lane,BUL,1.0,52.5924709448511,-1.83802031828625,52.9470746023914,-1.14638184532088,61.124904239646455,138.0,34.2,CROSSCOUNTRY,ANYTIME S,0.0,0.5595100790001305,0.24782608695652175,0.44293408869309026,2.257672248597018
Buxted,BXD,2.0,50.9900108378352,0.131438921683175,52.9470746023914,-1.14638184532088,234.78794443430715,212.0,103.7,EAST MIDLANDS TRAINS,ANYTIME S,200.0,0.4416751475458098,0.48915094339622645,1.1074903039354111,0.9029424424273064
Buxton,BUX,1.0,53.2607227045765,-1.91286358993768,52.9470746023914,-1.14638184532088,62.07805209763039,145.0,44.8,EAST MIDLANDS TRAINS,ANYTIME S,0.0,0.7216721286541476,0.3089655172413793,0.42812449722503715,2.335769166402933
Byfleet & New Haw,BFN,2.0,51.3497957278428,-0.481389767596653,52.9470746023914,-1.14638184532088,183.4637235578603,203.0,100.7,EAST MIDLANDS TRAINS,ANYTIME S,0.0,0.5488823514924546,0.4960591133004926,0.9037621850140902,1.106485773117858
Bynea,BYE,1.0,51.6720366859549,-4.09888164715589,52.9470746023914,-1.14638184532088,246.29958536978424,335.0,112.95,CROSSCOUNTRY,ANYTIME S,0.0,0.4585878609191381,0.3371641791044776,0.7352226428948784,1.3601322125534419
Cadoxton,CAD,1.0,51.4122831697514,-3.24889594393883,52.9470746023914,-1.14638184532088,223.24780754002947,238.0,112.95,CROSSCOUNTRY,ANYTIME S,0.0,0.5059400190514637,0.47457983193277314,0.9380159980673507,1.0660798984882545
Caergwrle,CGW,2.0,53.1078664074892,-3.03291327418616,52.9470746023914,-1.14638184532088,127.83078733965115,284.0,50.1,CROSSCOUNTRY,ANYTIME S,0.0,0.3919243637832132,0.17640845070422537,0.4501084061255322,2.221687012264123
Caerphilly,CPH,1.0,51.57158067131,-3.21848255919666,52.9470746023914,-1.14638184532088,208.41351533355154,234.0,114.6,CROSSCOUNTRY,ANYTIME S,0.0,0.5498683701802666,0.4897435897435897,0.8906560484339809,1.122767876284314
Caersws,CWS,1.0,52.5161279090032,-3.43249879239218,52.9470746023914,-1.14638184532088,161.6998928170293,210.0,79.6,CROSSCOUNTRY,ANYTIME S,0.0,0.49226996142830454,0.379047619047619,0.7699994896049015,1.2987021595470347
Caldercruix,CAC,2.0,55.8879475461776,-3.88771190821316,52.9470746023914,-1.14638184532088,372.53279442785544,369.0,159.05,CROSSCOUNTRY,ANYTIME S,0.0,0.42694227831477954,0.431029810298103,1.0095739686391747,0.9905168230000229
Caldicot,CDT,0.0,51.5847930591881,-2.76057390572724,52.9470746023914,-1.14638184532088,187.3985240424096,177.0,109.95,CROSSCOUNTRY,ANYTIME S,268.0,0.5867175345261393,0.6211864406779661,1.058748723403444,0.9445111742712747
Caledonian Rd & Barnsbury,CIR,2.0,51.5430392840645,-0.116729249835755,52.9470746023914,-1.14638184532088,171.3247445804956,157.0,94.7,EAST MIDLANDS TRAINS,ANYTIME S,0.0,0.5527514442346414,0.6031847133757962,1.0912404113407363,0.9163883499982968
Calstock,CSK,2.0,50.4978023671618,-4.20898850028348,52.9470746023914,-1.14638184532088,344.9696786371968,346.0,160.3,CROSSCOUNTRY,ANYTIME S,700.0,0.46467852082903455,0.4632947976878613,0.9970221925930544,1.0029867012279847
Cam & Dursley,CDU,1.0,51.71762106741,-2.35908298700462,52.9470746023914,-1.14638184532088,159.8375103810127,174.0,68.55,CROSSCOUNTRY,ANYTIME S,268.0,0.4288730463618579,0.3939655172413793,0.9186063815000729,1.0886055443758318
Camberley,CAM,3.0,51.3363271281171,-0.744271720142327,52.9470746023914,-1.14638184532088,181.3289338546349,231.0,116.3,EAST MIDLANDS TRAINS,ANYTIME S,0.0,0.6413758550702872,0.5034632034632035,0.7849737396304541,1.2739279666486358
Camborne,CBN,1.0,50.2104431448962,-5.2974123155278,52.9470746023914,-1.14638184532088,418.800428506482,403.0,179.3,CROSSCOUNTRY,ANYTIME S,700.0,0.42812754666803043,0.4449131513647643,1.039207018626506,0.9622721768389083
Cambridge,CBG,1.0,52.1940653655991,0.137456461171047,52.9470746023914,-1.14638184532088,120.82012262427831,129.0,110.5,LONDON NORTH EASTERN RAILWAY,ANYTIME S,0.0,0.914582749958205,0.8565891472868217,0.9365900978626226,1.0677029388652348
Cambridge Heath,CBH,2.0,51.5319710950389,-0.0572790666047599,52.9470746023914,-1.14638184532088,174.147184838175,154.0,95.4,EAST MIDLANDS TRAINS,ANYTIME S,0.0,0.5478124730448543,0.6194805194805195,1.130825875572565,0.8843094428606663
Cambuslang,CBL,2.0,55.8196110785266,-4.17300936139383,52.9470746023914,-1.14638184532088,375.29550421775525,327.0,125.0,VIRGIN WEST COAST,ANYTIME S,0.0,0.33307086974181305,0.382262996941896,1.1476926734487929,0.8713133952445828
Camden Road,CMD,2.0,51.541789311709,-0.138700901327927,52.9470746023914,-1.14638184532088,170.8420612220329,160.0,94.7,EAST MIDLANDS TRAINS,ANYTIME S,0.0,0.5543131435116804,0.591875,1.0677628826377057,0.9365375180767567
Camelon,CMO,2.0,56.0060960246981,-3.81760595611437,52.9470746023914,-1.14638184532088,381.94212940847814,339.0,156.7,CROSSCOUNTRY,ANYTIME S,79.0,0.41027157764105415,0.46224188790560466,1.1266729481076052,0.8875690160837101
Canada Water,ZCW,2.0,51.4979884652777,-0.0497198367270248,52.9470746023914,-1.14638184532088,177.8018217989961,175.0,96.6,EAST MIDLANDS TRAINS,ANYTIME S,0.0,0.5433015197628612,0.5519999999999999,1.0160104102799776,0.9842418836283717
Canley,CNL,1.0,52.3992417616656,-1.54757487164278,52.9470746023914,-1.14638184532088,66.73010005265861,157.0,34.2,CROSSCOUNTRY,ANYTIME S,0.0,0.5125123440997663,0.2178343949044586,0.42503248441183833,2.352761345721149
Cannock,CAO,1.0,52.6861624456421,-2.02214749992606,52.9470746023914,-1.14638184532088,65.79741347398269,134.0,31.0,CROSSCOUNTRY,ANYTIME S,0.0,0.47114314018221826,0.23134328358208955,0.49102547368643795,2.036554218852169
Canonbury,CNN,2.0,51.5487306960064,-0.0921909296515918,52.9470746023914,-1.14638184532088,171.4425094379167,154.0,95.4,EAST MIDLANDS TRAINS,ANYTIME S,0.0,0.5564547574156138,0.6194805194805195,1.1132630482981605,0.8982603002306553
