Name,Code,Changes,lat,lon,terminal lat,terminal lon,linear distance,Journey time,fare,company,fare type,route code,cost per km,cost per min,speed (linear),minutes to travel 1km linear
Abbey Wood,ABW,1.0,51.4910605627019,0.121394025366647,53.3782206064748,-1.46211098820667,235.98584889428273,207.0,106.1,EAST MIDLANDS TRAINS,ANYTIME S,129.0,0.4496032304357827,0.5125603864734299,1.140028255527936,0.8771712412837609
Aber,ABE,2.0,51.5749691125956,-3.22982905106563,53.3782206064748,-1.46211098820667,233.8430006104367,265.0,58.6,CROSSCOUNTRY,ANYTIME S,700.0,0.25059548435072815,0.2211320754716981,0.8824264173978743,1.133238965067286
Abercynon,ACY,2.0,51.6447124034837,-3.32698855170195,53.3782206064748,-1.46211098820667,230.72133770829564,284.0,58.6,CROSSCOUNTRY,ANYTIME S,700.0,0.2539860447328406,0.2063380281690141,0.8123990764376607,1.2309221280567701
Aberdare,ABA,2.0,51.7150618291708,-3.44308409477462,53.3782206064748,-1.46211098820667,228.69740619577863,318.0,58.6,CROSSCOUNTRY,ANYTIME S,700.0,0.2562337762144749,0.18427672955974844,0.7191742333200586,1.3904836320171161
Aberdeen,ABD,1.0,57.1437058328662,-2.09868538622245,53.3782206064748,-1.46211098820667,421.14873063623793,403.0,206.4,CROSSCOUNTRY,ANYTIME S,0.0,0.49008814460437133,0.5121588089330025,1.0450340710576624,0.9569066001722948
Aberdour,AUR,1.0,56.0545955695197,-3.30056061487314,53.3782206064748,-1.46211098820667,320.59369945763103,279.0,127.15,CROSSCOUNTRY,ANYTIME S,0.0,0.3966079190424136,0.45573476702508964,1.1490813600631937,0.8702603964831568
Aberdovey,AVY,1.0,52.5439615025967,-4.05706796158074,53.3782206064748,-1.46211098820667,197.53310953398838,319.0,74.7,TRANSPORT FOR WALES RAIL,ANYTIME DAY S,1000.0,0.37816445139869986,0.2341692789968652,0.6192260486958884,1.6149191431885574
Abererch,ABH,1.0,52.8985884658899,-4.37417647351973,53.3782206064748,-1.46211098820667,202.04361175427812,430.0,82.0,TRANSPORT FOR WALES RAIL,ANYTIME DAY S,1000.0,0.40585297049493924,0.19069767441860466,0.46986886454483284,2.128253381863706
Abergavenny,AGV,1.0,51.8166930409601,-3.00964730040687,53.3782206064748,-1.46211098820667,202.94186161277025,222.0,59.6,CROSSCOUNTRY,ANYTIME S,700.0,0.2936801679375628,0.2684684684684685,0.9141525297872534,1.0939093503714588
Abergele & Pensarn,AGL,1.0,53.2945771647609,-3.58262268840784,53.3782206064748,-1.46211098820667,141.55741498007973,187.0,39.7,TRANSPENNINE EXPRESS,ANYTIME DAY S,92.0,0.2804515751123788,0.21229946524064172,0.7569915239576456,1.3210187543076783
Aberystwyth,AYW,1.0,52.4140498933205,-4.08189442746786,53.3782206064748,-1.46211098820667,206.37032863043981,314.0,77.9,TRANSPORT FOR WALES RAIL,ANYTIME DAY S,1000.0,0.37747674540704146,0.24808917197452232,0.6572303459568147,1.521536560434031
Accrington,ACR,1.0,53.7529733751372,-2.36954810226505,53.3782206064748,-1.46211098820667,73.17342143496494,162.0,21.1,TRANSPENNINE EXPRESS,ANYTIME DAY S,325.0,0.2883560668097672,0.13024691358024693,0.451687786635586,2.2139186172124306
Achanalt,AAT,2.0,57.6096018732679,-4.91385256332031,53.3782206064748,-1.46211098820667,518.9938389580249,618.0,221.8,CROSSCOUNTRY,ANYTIME S,0.0,0.4273653815338234,0.35889967637540454,0.8397958559191341,1.1907655806487956
Achnasheen,ACN,2.0,57.5792959197415,-5.07233352893289,53.3782206064748,-1.46211098820667,520.2717363073866,627.0,221.8,CROSSCOUNTRY,ANYTIME S,0.0,0.42631568182853635,0.35374800637958537,0.8297794837438383,1.205139461255601
Achnashellach,ACH,2.0,57.4820809030767,-5.33305678830677,53.3782206064748,-1.46211098820667,518.26402826535,647.0,248.45,CROSSCOUNTRY,ANYTIME S,0.0,0.4793888567407849,0.38400309119010817,0.8010263188027048,1.248398431520579
Acklington,ACK,1.0,55.3070993237817,-1.65183479633575,53.3782206064748,-1.46211098820667,215.06010905246308,163.0,87.45,CROSSCOUNTRY,ANYTIME S,0.0,0.4066305015155875,0.5365030674846626,1.3193871721010004,0.7579276357580419
Acle,ACL,1.0,52.6346777628319,1.54391497575916,53.3782206064748,-1.46211098820667,218.07117317317076,250.0,90.7,EAST MIDLANDS TRAINS,ANYTIME S,700.0,0.415919255535783,0.3628,0.872284692692683,1.1464147065484647
Acocks Green,ACG,2.0,52.4493240670217,-1.81897562150643,53.3782206064748,-1.46211098820667,106.12252352231019,146.0,47.9,CROSSCOUNTRY,ANYTIME S,0.0,0.45136506756673533,0.32808219178082193,0.726866599467878,1.3757682643996527
Acton Bridge (Cheshire),ACB,2.0,53.2665097605329,-2.60312690733168,53.3782206064748,-1.46211098820667,77.04173427360003,127.0,26.1,TRANSPORT FOR WALES RAIL,ANYTIME DAY S,325.0,0.33877742039542474,0.20551181102362207,0.6066278289259844,1.6484571797018752
Acton Central,ACC,3.0,51.5087150057177,-0.262970693276422,53.3782206064748,-1.46211098820667,223.4311780145249,208.0,117.0,LONDON NORTH EASTERN RAILWAY,ANYTIME S,0.0,0.5236511799279598,0.5625,1.0741883558390621,0.9309354309830397
Acton Main Line,AML,2.0,51.5171788796431,-0.266756440210259,53.3782206064748,-1.46211098820667,222.4577742440056,203.0,117.0,LONDON NORTH EASTERN RAILWAY,ANYTIME S,0.0,0.5259425093036626,0.5763546798029556,1.095851104650274,0.9125327298174659
Adderley Park,ADD,1.0,52.4830872932844,-1.85594463679675,53.3782206064748,-1.46211098820667,103.07470063616444,135.0,47.9,CROSSCOUNTRY,ANYTIME S,0.0,0.46471151217871176,0.3548148148148148,0.7635163010086254,1.309729731610148
Addiewell,ADW,1.0,55.8434130805542,-3.60652712168835,53.3782206064748,-1.46211098820667,307.37536383423696,286.0,120.55,CROSSCOUNTRY,ANYTIME S,0.0,0.3921914837163425,0.4215034965034965,1.074739034385444,0.9304584350300619
Addlestone,ASN,2.0,51.3730447500684,-0.48445679693337,53.3782206064748,-1.46211098820667,232.84065406367648,277.0,126.0,CROSSCOUNTRY,ANYTIME S,0.0,0.541142613203371,0.4548736462093863,0.8405799785692292,1.189654792518522
Adisham,ADM,2.0,51.2411978022143,1.19908904695378,53.3782206064748,-1.46211098820667,299.1018053918374,289.0,141.5,LONDON NORTH EASTERN RAILWAY,ANYTIME S,0.0,0.47308306887224694,0.48961937716262977,1.0349543439163924,0.9662261972019742
Adlington (Cheshire),ADC,1.0,53.3195557900317,-2.13356274381038,53.3782206064748,-1.46211098820667,45.18914653688916,70.0,26.6,TRANSPENNINE EXPRESS,ANYTIME DAY S,325.0,0.5886369192276221,0.38,0.6455592362412738,1.5490445242832158
Adlington (Lancs),ADL,1.0,53.6132468473224,-2.6030711963325,53.3782206064748,-1.46211098820667,80.11023283993006,124.0,27.1,TRANSPENNINE EXPRESS,ANYTIME DAY S,325.0,0.3382838750968192,0.2185483870967742,0.6460502648381456,1.5478671775647812
Adwick,AWK,0.0,53.5723210050351,-1.180356329611,53.3782206064748,-1.46211098820667,28.577028334322268,52.0,5.3,SOUTH YORKSHIRE PTE,ANYTIME DAY S,53.0,0.18546365066358095,0.10192307692307692,0.5495582371985052,1.8196433650011716
Aigburth,AIG,1.0,53.3645680055959,-2.92715540113816,53.3782206064748,-1.46211098820667,97.52304000821132,120.0,29.6,TRANSPENNINE EXPRESS,ANYTIME DAY S,325.0,0.3035180199213203,0.24666666666666667,0.8126920000684277,1.2304784591404876
Ainsdale,ANS,2.0,53.6020355257546,-3.04265252059266,53.3782206064748,-1.46211098820667,107.82184848020248,204.0,28.0,TRANSPENNINE EXPRESS,ANYTIME DAY S,325.0,0.2596876272728822,0.13725490196078433,0.528538472942169,1.8920098558452845
Aintree,AIN,1.0,53.4739127558616,-2.95628079876913,53.3782206064748,-1.46211098820667,99.89156509651411,151.0,29.6,TRANSPENNINE EXPRESS,ANYTIME DAY S,325.0,0.2963213157327229,0.19602649006622516,0.661533543685524,1.5116391444473363
Airbles,AIR,1.0,55.7828378389089,-3.99419330717581,53.3782206064748,-1.46211098820667,313.72542284351226,314.0,120.55,CROSSCOUNTRY,ANYTIME S,0.0,0.3842532074939012,0.3839171974522293,0.9991255504570454,1.0008752148742013
Airdrie,ADR,1.0,55.8639835131324,-3.98291292517007,53.3782206064748,-1.46211098820667,321.01284373265065,291.0,120.55,CROSSCOUNTRY,ANYTIME S,0.0,0.37553014576699534,0.4142611683848797,1.103136920043473,0.9065057853023281
Albany Park,AYP,2.0,51.4354507399114,0.12573706592842,53.3782206064748,-1.46211098820667,241.66927734352814,218.0,106.1,EAST MIDLANDS TRAINS,ANYTIME S,129.0,0.43902974000779144,0.486697247706422,1.1085746667134317,0.9020592207511643
Albrighton,ALB,1.0,52.6379442676754,-2.26890024505565,53.3782206064748,-1.46211098820667,98.58720756315198,176.0,48.3,CROSSCOUNTRY,ANYTIME S,0.0,0.48992157495748606,0.27443181818181817,0.5601545884269998,1.7852214739651666
Alderley Edge,ALD,1.0,53.3037821045932,-2.23679936267512,53.3782206064748,-1.46211098820667,52.260261583049946,81.0,21.5,TRANSPORT FOR WALES RAIL,ANYTIME DAY S,325.0,0.41140245664161185,0.2654320987654321,0.6451884146055549,1.5499348366497936
Aldermaston,AMT,1.0,51.4019618556841,-1.1374239270022,53.3782206064748,-1.46211098820667,221.01513383317257,239.0,138.0,CROSSCOUNTRY,ANYTIME S,0.0,0.6243916314987084,0.5774058577405857,0.9247495139463288,1.0813739125231254
Aldershot,AHT,2.0,51.2464179114788,-0.759859888333875,53.3782206064748,-1.46211098820667,241.99572762272305,254.0,129.0,CROSSCOUNTRY,ANYTIME S,0.0,0.5330672622498278,0.5078740157480315,0.9527390851288309,1.0496053070655524
Aldrington,AGT,2.0,50.8363824121951,-0.183821512855377,53.3782206064748,-1.46211098820667,296.0653211399479,289.0,140.0,LONDON NORTH EASTERN RAILWAY,ANYTIME S,0.0,0.4728686205495274,0.4844290657439446,1.0244474779928994,0.9761359381343816
Alexandra Palace,AAP,2.0,51.5979224924556,-0.120235220128854,53.3782206064748,-1.46211098820667,218.05988179616085,206.0,108.0,LONDON NORTH EASTERN RAILWAY,ANYTIME S,0.0,0.4952767978703978,0.5242718446601942,1.058543115515344,0.9446946329750181
Alexandra Parade,AXP,2.0,55.8631759802332,-4.21064896878422,53.3782206064748,-1.46211098820667,328.6346193082689,325.0,120.55,CROSSCOUNTRY,ANYTIME S,0.0,0.366820757514048,0.3709230769230769,1.0111834440254428,0.9889402421573258
Alexandria,ALX,2.0,55.9850887680667,-4.57748537031666,53.3782206064748,-1.46211098820667,352.89149109122235,374.0,163.7,CROSSCOUNTRY,ANYTIME S,0.0,0.46388196976300455,0.4377005347593583,0.9435601366075463,1.0598158625006946
Alfreton,ALF,0.0,53.1004322999438,-1.36969621564025,53.3782206064748,-1.46211098820667,31.52497356401248,27.0,10.8,EAST MIDLANDS TRAINS,ANYTIME DAY S,0.0,0.3425855370844404,0.4,1.1675916134819437,0.856463842711101
Allens West,ALW,1.0,54.5246233650745,-1.36111683481751,53.3782206064748,-1.46211098820667,127.77142781751435,122.0,66.7,CROSSCOUNTRY,ANYTIME S,95.0,0.5220259422573116,0.5467213114754098,1.047306785389462,0.9548300593012296
Alloa,ALO,1.0,56.1177936041036,-3.79005640302655,53.3782206064748,-1.46211098820667,339.77092874229885,314.0,163.2,CROSSCOUNTRY,ANYTIME S,0.0,0.4803236127472811,0.5197452229299363,1.0820730214722893,0.9241520490358227
Alness,ASS,2.0,57.6943991747966,-4.24971726526612,53.3782206064748,-1.46211098820667,511.6421021179134,628.0,221.8,CROSSCOUNTRY,ANYTIME S,0.0,0.4335061541688448,0.3531847133757962,0.8147167231176965,1.2274204906133208
Alnmouth,ALM,0.0,55.3927786386397,-1.63663783937358,53.3782206064748,-1.46211098820667,224.5310356763281,170.0,87.45,CROSSCOUNTRY,ANYTIME S,0.0,0.3894784511040302,0.5144117647058823,1.3207707980960475,0.7571336385098356
Alresford (Essex),ALR,2.0,51.8539974379073,0.997436403040026,53.3782206064748,-1.46211098820667,237.7136048207409,242.0,140.0,LONDON NORTH EASTERN RAILWAY,ANYTIME S,0.0,0.5889439946256907,0.5785123966942148,0.9822876232262021,1.018031762138694
Alsager,ASG,1.0,53.0930054110113,-2.29905784069112,53.3782206064748,-1.46211098820667,64.26879240042066,154.0,30.7,TRANSPENNINE EXPRESS,ANYTIME DAY S,325.0,0.47768129528133246,0.19935064935064933,0.41732982078195235,2.39618630206271
Althorne (Essex),ALN,2.0,51.6478675266105,0.75248341471277,53.3782206064748,-1.46211098820667,244.2694171103621,250.0,127.0,EAST MIDLANDS TRAINS,ANYTIME S,129.0,0.5199177265102359,0.508,0.9770776684414484,1.0234600915555827
Althorpe,ALP,0.0,53.5855003548442,-0.733182290833722,53.3782206064748,-1.46211098820667,53.608834034084886,75.0,14.2,TRANSPENNINE EXPRESS,ANYTIME DAY S,0.0,0.264881716900829,0.18933333333333333,0.7147844537877984,1.3990231526452237
Altnabreac,ABC,2.0,58.3881525009701,-3.7062809681672,53.3782206064748,-1.46211098820667,575.1274208821216,711.0,248.45,CROSSCOUNTRY,ANYTIME S,0.0,0.43199122660319556,0.34943741209563994,0.8088993261351921,1.236247784724782
Alton,AON,2.0,51.1519686627366,-0.966913302570746,53.3782206064748,-1.46211098820667,250.0148926878006,274.0,115.4,EAST MIDLANDS TRAINS,ANYTIME S,129.0,0.46157250377921555,0.42116788321167886,0.9124631119992722,1.0959347143457976
Altrincham,ALT,1.0,53.3877187203289,-2.34688910433965,53.3782206064748,-1.46211098820667,58.88371048158594,69.0,22.0,TRANSPENNINE EXPRESS,ANYTIME DAY S,325.0,0.37361775981966727,0.3188405797101449,0.8533871084287817,1.1718011557980472
Alvechurch,ALV,1.0,52.3460721156993,-1.96766073187852,53.3782206064748,-1.46211098820667,119.80091413574993,164.0,52.05,CROSSCOUNTRY,ANYTIME S,0.0,0.43447080830302026,0.3173780487804878,0.730493378876524,1.3689378013774318
Ambergate,AMB,1.0,53.0605170840145,-1.48069758186533,53.3782206064748,-1.46211098820667,35.37914040295643,97.0,24.9,EAST MIDLANDS TRAINS,ANYTIME S,0.0,0.7038045502631616,0.256701030927835,0.36473340621604566,2.74172856929826
Amberley,AMY,2.0,50.8966791881016,-0.541992407726222,53.3782206064748,-1.46211098820667,283.2097721430087,301.0,128.8,EAST MIDLANDS TRAINS,ANYTIME S,129.0,0.4547865669513747,0.4279069767441861,0.9408962529668063,1.0628164336363648
Amersham,AMR,2.0,51.6742050968552,-0.607596139216709,53.3782206064748,-1.46211098820667,198.28524789055157,229.0,117.0,CROSSCOUNTRY,ANYTIME S,0.0,0.5900590247872652,0.5109170305676856,0.8658744449369065,1.154901851934049
Ammanford,AMF,2.0,51.7959795450084,-3.99673575596767,53.3782206064748,-1.46211098820667,245.96037481229985,351.0,69.8,CROSSCOUNTRY,ANYTIME S,700.0,0.28378554900669095,0.19886039886039886,0.7007418085820508,1.4270591361224718
Ancaster,ANC,1.0,52.9876865844111,-0.535623734022494,53.3782206064748,-1.46211098820667,75.66515170731742,138.0,29.1,EAST MIDLANDS TRAINS,ANYTIME S,0.0,0.38458919784582685,0.2108695652173913,0.5482982007776624,1.8238250619492817
Anderston,AND,1.0,55.8599021238713,-4.27098003165416,53.3782206064748,-1.46211098820667,330.4528312287611,311.0,120.55,CROSSCOUNTRY,ANYTIME S,0.0,0.3648024426110829,0.38762057877813505,1.062549296555502,0.9411328050771198
Andover,ADV,2.0,51.2115476149434,-1.49223307188506,53.3782206064748,-1.46211098820667,241.100775405386,284.0,146.5,CROSSCOUNTRY,ANYTIME S,0.0,0.607629733888974,0.5158450704225352,0.8489463922724859,1.177930678665315
Anerley,ANZ,2.0,51.4121513855632,-0.0658859220340606,53.3782206064748,-1.46211098820667,238.51548008295617,202.0,106.1,EAST MIDLANDS TRAINS,ANYTIME S,129.0,0.4448348592011646,0.5252475247524753,1.1807697033809712,0.8469051984791259
Angel Road,AGR,2.0,51.61240330726,-0.0487914234374522,53.3782206064748,-1.46211098820667,218.6759925938824,212.0,108.0,LONDON NORTH EASTERN RAILWAY,ANYTIME S,0.0,0.49388137544926536,0.5094339622641509,1.0314905311032188,0.9694708481041134
Angmering,ANG,1.0,50.8165743892467,-0.489394019247872,53.3782206064748,-1.46211098820667,292.7154528109768,300.0,141.5,LONDON NORTH EASTERN RAILWAY,ANYTIME S,0.0,0.4834046123672695,0.4716666666666667,0.9757181760365893,1.0248861039588752
Annan,ANN,2.0,54.9838388790739,-3.2625810423293,53.3782206064748,-1.46211098820667,213.89843415227824,349.0,70.6,NORTHERN,ANYTIME DAY S,0.0,0.33006319228002645,0.20229226361031516,0.6128894961383331,1.6316154972482897
Anniesland,ANL,1.0,55.8893555064876,-4.32195784208586,53.3782206064748,-1.46211098820667,334.963289367742,322.0,163.7,CROSSCOUNTRY,ANYTIME S,0.0,0.4887102712329789,0.5083850931677019,1.040258662632739,0.9612993728590056
Ansdell & Fairhaven,AFV,2.0,53.7414654744213,-2.99303444657805,53.3782206064748,-1.46211098820667,109.2034832266669,162.0,32.1,TRANSPENNINE EXPRESS,ANYTIME DAY S,325.0,0.29394666773927003,0.19814814814814816,0.6740955754732525,1.4834691642916429
Apperley Bridge,APY,1.0,53.8417501065548,-1.70582867126391,53.3782206064748,-1.46211098820667,54.05279115425478,129.0,18.6,LONDON NORTH EASTERN RAILWAY,ANYTIME DAY S,0.0,0.34410803961852204,0.14418604651162792,0.4190138849167037,2.3865557586445885
Appleby,APP,1.0,54.5803488158896,-2.48669258391647,53.3782206064748,-1.46211098820667,149.73500143587984,201.0,33.6,NORTHERN,ANYTIME DAY S,0.0,0.22439643154769218,0.16716417910447762,0.7449502558998997,1.342371510151373
Appledore (Kent),APD,2.0,51.0332342031393,0.816341504124954,53.3782206064748,-1.46211098820667,303.8477648389442,215.0,141.5,LONDON NORTH EASTERN RAILWAY,ANYTIME S,0.0,0.4656937334227312,0.6581395348837209,1.4132454178555545,0.7075911850592735
Appleford,APF,1.0,51.6396415502262,-1.24214153179695,53.3782206064748,-1.46211098820667,194.03918794711558,219.0,140.0,CROSSCOUNTRY,ANYTIME S,0.0,0.7215037409770871,0.639269406392694,0.8860236892562355,1.1286379948141576
Appley Bridge,APB,1.0,53.5786734960166,-2.71925251339081,53.3782206064748,-1.46211098820667,86.39383979106451,114.0,23.9,TRANSPENNINE EXPRESS,ANYTIME DAY S,325.0,0.2766400944534927,0.20964912280701753,0.7578406999216185,1.3195385258451116
Apsley,APS,1.0,51.7325208234117,-0.462934812195194,53.3782206064748,-1.46211098820667,195.26190118879492,255.0,126.0,LONDON NORTH EASTERN RAILWAY,ANYTIME S,0.0,0.6452871719105769,0.49411764705882355,0.7657329458384114,1.305938324104739
Arbroath,ARB,1.0,56.5595762979872,-2.58893177406225,53.3782206064748,-1.46211098820667,361.4220083203424,348.0,180.95,CROSSCOUNTRY,ANYTIME S,0.0,0.5006612653195622,0.519971264367816,1.0385689894262713,0.9628633342426509
Ardgay,ARD,2.0,57.8814576101148,-4.36209023833324,53.3782206064748,-1.46211098820667,533.4816476744152,670.0,248.45,CROSSCOUNTRY,ANYTIME S,0.0,0.4657142398113561,0.37082089552238806,0.7962412651856943,1.2559007473278674
Ardlui,AUI,2.0,56.3019723653141,-4.72165858161935,53.3782206064748,-1.46211098820667,386.9301391352436,444.0,180.95,CROSSCOUNTRY,ANYTIME S,0.0,0.4676554801453514,0.407545045045045,0.8714642773316298,1.1474939662035704
Ardrossan Harbour,ADS,1.0,55.6398782290401,-4.82111163323781,53.3782206064748,-1.46211098820667,332.6667462309905,377.0,167.4,CROSSCOUNTRY,ANYTIME S,0.0,0.5032062924731411,0.44403183023872683,0.8824051624164204,1.1332662620213512
Ardrossan South Beach,ASB,1.0,55.641422142645,-4.80121264089138,53.3782206064748,-1.46211098820667,331.95395378424837,372.0,167.4,CROSSCOUNTRY,ANYTIME S,0.0,0.5042868087325169,0.45,0.8923493381297,1.1206373527389264
Ardrossan Town,ADN,1.0,55.6397124556587,-4.81267645169651,53.3782206064748,-1.46211098820667,332.29643058521214,375.0,167.4,CROSSCOUNTRY,ANYTIME S,0.0,0.5037670723853079,0.4464,0.886123814893899,1.1285104668129657
Ardwick,ADK,1.0,53.471345820655,-2.21388417456067,53.3782206064748,-1.46211098820667,51.03835386860713,79.0,21.6,TRANSPENNINE EXPRESS,ANYTIME DAY S,0.0,0.4232111414801294,0.27341772151898736,0.6460551122608498,1.5478555637467695
Argyle Street,AGS,1.0,55.8573090626122,-4.25069486323156,53.3782206064748,-1.46211098820667,329.49748792932127,327.0,120.55,CROSSCOUNTRY,ANYTIME S,0.0,0.36586014891214746,0.3686544342507645,1.0076375777655084,0.992420312685792
Arisaig,ARG,2.0,56.9125537431151,-5.83907949880085,53.3782206064748,-1.46211098820667,482.1820644720051,634.0,221.8,CROSSCOUNTRY,ANYTIME S,0.0,0.45999222356574704,0.3498422712933754,0.7605395338675159,1.3148560403096645
Arlesey,ARL,2.0,52.0260300130868,-0.266319838272065,53.3782206064748,-1.46211098820667,170.80412542976117,142.0,82.0,LONDON NORTH EASTERN RAILWAY,ANYTIME DAY S,700.0,0.4800820811188217,0.5774647887323944,1.2028459537307126,0.831361652669179
Armadale (West Lothian),ARM,1.0,55.8857140292087,-3.69541334262219,53.3782206064748,-1.46211098820667,314.1444749426503,296.0,120.55,CROSSCOUNTRY,ANYTIME S,0.0,0.3837406340570128,0.40726351351351353,1.061298901833278,0.9422416232341418
Armathwaite,AWT,1.0,54.8094679848183,-2.77207147292765,53.3782206064748,-1.46211098820667,180.89225926767236,255.0,75.3,TRANSPENNINE EXPRESS,ANYTIME DAY S,0.0,0.416269885205956,0.2952941176470588,0.7093814088928327,1.4096788941237552
Arnside,ARN,1.0,54.2027315043991,-2.82824189170434,53.3782206064748,-1.46211098820667,128.5556325800087,166.0,39.9,TRANSPENNINE EXPRESS,ANYTIME DAY S,0.0,0.31037146486107936,0.2403614457831325,0.7744315215663174,1.2912697535573727
Arram,ARR,0.0,53.8843427696163,-0.426570132093475,53.3782206064748,-1.46211098820667,88.68922351151338,108.0,27.8,NORTHERN,ANYTIME DAY S,0.0,0.313454091706994,0.2574074074074074,0.8211965139954942,1.217735320300552
Arrochar & Tarbet,ART,2.0,56.2039766194239,-4.72277124702392,53.3782206064748,-1.46211098820667,377.9840147299663,430.0,180.95,CROSSCOUNTRY,ANYTIME S,0.0,0.4787239484962653,0.4208139534883721,0.8790325923952704,1.137614246219365
Arundel,ARU,2.0,50.84821399905,-0.546174298416944,53.3782206064748,-1.46211098820667,288.41367770510266,279.0,141.5,LONDON NORTH EASTERN RAILWAY,ANYTIME S,0.0,0.49061473480006373,0.507168458781362,1.0337407803050274,0.9673605018319278
Ascot (Berks),ACT,2.0,51.406243053303,-0.675833255037063,53.3782206064748,-1.46211098820667,225.86164891732852,248.0,127.0,CROSSCOUNTRY,ANYTIME S,0.0,0.5622911220597944,0.5120967741935484,0.9107324553118086,1.098017309219126
Ascott-under-Wychwood,AUW,1.0,51.8673416456497,-1.56405280921503,53.3782206064748,-1.46211098820667,168.27093270176255,274.0,88.55,CROSSCOUNTRY,ANYTIME S,700.0,0.5262346774825506,0.3231751824817518,0.6141274916122721,1.628326387693042
Ash,ASH,2.0,51.2495967734882,-0.712805474371656,53.3782206064748,-1.46211098820667,242.3046542836083,265.0,129.0,CROSSCOUNTRY,ANYTIME S,0.0,0.5323876273916326,0.4867924528301887,0.9143571859758803,1.0936645058820358
Ash Vale,AHV,2.0,51.2722464128127,-0.72164859629209,53.3782206064748,-1.46211098820667,239.71171809011517,249.0,129.0,CROSSCOUNTRY,ANYTIME S,0.0,0.5381464078093372,0.5180722891566265,0.9626976630125107,1.0387477173994184
Ashburys,ABY,1.0,53.471639721401,-2.19443661452133,53.3782206064748,-1.46211098820667,49.77985291807473,81.0,21.6,TRANSPENNINE EXPRESS,ANYTIME DAY S,0.0,0.43391048253091935,0.26666666666666666,0.61456608540833,1.6271643094909476
Ashchurch for Tewkesbury,ASC,1.0,51.9989057939667,-2.10876020926952,53.3782206064748,-1.46211098820667,159.5956374760415,200.0,84.55,CROSSCOUNTRY,ANYTIME S,700.0,0.529776385727916,0.42274999999999996,0.7979781873802075,1.253167086287205
Ashfield,ASF,2.0,55.8889269328418,-4.24921509407071,53.3782206064748,-1.46211098820667,332.3605235066923,333.0,163.7,CROSSCOUNTRY,ANYTIME S,0.0,0.49253743577252423,0.49159159159159155,0.9980796501702471,1.0019240446686046
Ashford (Surrey),AFS,2.0,51.4365062586203,-0.468070995385795,53.3782206064748,-1.46211098820667,226.4006060760673,224.0,121.5,CROSSCOUNTRY,ANYTIME S,0.0,0.536659340740359,0.5424107142857143,1.0107169914110148,0.9893966446571228
Ashford International,AFK,1.0,51.1437026741936,0.876197214386404,53.3782206064748,-1.46211098820667,295.4485042836448,222.0,140.0,LONDON NORTH EASTERN RAILWAY,ANYTIME S,0.0,0.4738558427955122,0.6306306306306306,1.3308491183947964,0.7513999792900264
Ashford International (Eurostar),ASI,-999.0,nan,nan,53.3782206064748,-1.46211098820667,-999.0,-999.0,-999.0,N/A,no route found,-998.0,-999.0,-999.0,-999.0,-999.0
Ashley,ASY,1.0,53.3557258053839,-2.34146074338483,53.3782206064748,-1.46211098820667,58.58845545522712,77.0,22.0,TRANSPENNINE EXPRESS,ANYTIME DAY S,325.0,0.3755005969872724,0.2857142857142857,0.7608890318860665,1.3142520894554535
Ashtead,AHD,1.0,51.317872587997,-0.307571763628547,53.3782206064748,-1.46211098820667,242.37806942719237,595.0,121.5,LONDON NORTH EASTERN RAILWAY,ANYTIME S,0.0,0.5012829761666916,0.2042016806722689,0.4073580998776342,2.454842558182564
Ashton-under-Lyne,AHN,2.0,53.4912746360398,-2.09431253377749,53.3782206064748,-1.46211098820667,43.860008440027315,107.0,21.7,TRANSPENNINE EXPRESS,ANYTIME DAY S,0.0,0.49475594674524154,0.202803738317757,0.4099066209348347,2.439580013905108
Ashurst (Kent),AHS,2.0,51.1286608253579,0.152652111896866,53.3782206064748,-1.46211098820667,273.50799540736756,269.0,126.0,LONDON NORTH EASTERN RAILWAY,ANYTIME S,0.0,0.46068123095390107,0.4684014869888476,1.0167583472392847,0.9835178660841221
Ashurst New Forest,ANF,1.0,50.8898511647037,-1.52663085660955,53.3782206064748,-1.46211098820667,276.91572053312154,338.0,148.0,CROSSCOUNTRY,ANYTIME S,0.0,0.5344586422001198,0.4378698224852071,0.8192772796837916,1.2205879801597332
Ashwell & Morden,AWM,2.0,52.0307706434447,-0.109788918120069,53.3782206064748,-1.46211098820667,175.60375197400137,237.0,97.0,EAST MIDLANDS TRAINS,ANYTIME S,129.0,0.5523799970649894,0.4092827004219409,0.740944101156124,1.349629477364974
Askam,ASK,2.0,54.1889331625586,-3.20451175494515,53.3782206064748,-1.46211098820667,146.05023587911194,272.0,51.2,TRANSPENNINE EXPRESS,ANYTIME DAY S,0.0,0.3505643088613636,0.18823529411764706,0.5369493966143821,1.862372890825994
Aslockton,ALK,1.0,52.9515495737311,-0.898097621841918,53.3782206064748,-1.46211098820667,60.64335442562038,143.0,29.1,EAST MIDLANDS TRAINS,ANYTIME S,0.0,0.4798547223454041,0.2034965034965035,0.4240794015777649,2.3580489792231196
Aspatria,ASP,2.0,54.7589599137074,-3.33187421074512,53.3782206064748,-1.46211098820667,196.46221904045822,257.0,75.5,TRANSPENNINE EXPRESS,ANYTIME DAY S,0.0,0.38429780732778956,0.29377431906614787,0.7644444320640398,1.3081395560694293
Aspley Guise,APG,1.0,52.0212361960308,-0.632334507265971,53.3782206064748,-1.46211098820667,161.0853290628557,193.0,138.0,CROSSCOUNTRY,ANYTIME S,0.0,0.8566888170564076,0.7150259067357513,0.8346390106883714,1.1981227658832367
Aston,AST,1.0,52.5042320347358,-1.8719337575538,53.3782206064748,-1.46211098820667,101.08852796979615,121.0,47.9,CROSSCOUNTRY,ANYTIME S,0.0,0.4738420962496541,0.3958677685950413,0.8354423799156706,1.1969706397955773
Atherstone,ATH,1.0,52.5789720633612,-1.55281147568713,53.3782206064748,-1.46211098820667,89.1534500048091,164.0,47.3,CROSSCOUNTRY,ANYTIME S,0.0,0.5305459294895324,0.28841463414634144,0.5436185975902994,1.839524998652924
Atherton,ATN,2.0,53.5291462480773,-2.47897234425216,53.3782206064748,-1.46211098820667,69.60786459128875,100.0,23.9,TRANSPENNINE EXPRESS,ANYTIME DAY S,325.0,0.34335200685054523,0.239,0.6960786459128875,1.436619275525294
Attadale,ATT,2.0,57.3950433711996,-5.4555786528295,53.3782206064748,-1.46211098820667,513.6448109869018,663.0,248.45,CROSSCOUNTRY,ANYTIME S,0.0,0.48370000958957526,0.37473604826546003,0.774728221699701,1.2907752318691423
Attenborough,ATB,1.0,52.9062133028873,-1.23141560765685,53.3782206064748,-1.46211098820667,54.75050628073599,102.0,14.6,EAST MIDLANDS TRAINS,ANYTIME DAY S,0.0,0.2666642007863409,0.14313725490196078,0.5367696694189803,1.862996471247039
Attleborough,ATL,1.0,52.5145445883409,1.02234755537498,53.3782206064748,-1.46211098820667,192.67319305184435,209.0,70.3,EAST MIDLANDS TRAINS,ANYTIME S,700.0,0.3648665332550114,0.33636363636363636,0.9218813064681548,1.0847383421094934
Auchinleck,AUK,1.0,55.4702784722357,-4.29535018687193,53.3782206064748,-1.46211098820667,296.6778488190302,437.0,138.3,CROSSCOUNTRY,ANYTIME S,0.0,0.46616220439282374,0.3164759725400458,0.6788966792197487,1.472978187416225
Audley End,AUD,1.0,52.0044405435161,0.207160027997398,53.3782206064748,-1.46211098820667,190.01454491957395,220.0,138.0,LONDON NORTH EASTERN RAILWAY,ANYTIME S,0.0,0.7262601926521479,0.6272727272727273,0.8637024769071543,1.157806104228062
Aughton Park,AUG,1.0,53.5542504500956,-2.89522128047861,53.3782206064748,-1.46211098820667,97.1690250400745,165.0,33.4,TRANSPENNINE EXPRESS,ANYTIME DAY S,325.0,0.34373093674887806,0.20242424242424242,0.5889031820610576,1.6980719929211043
Aviemore,AVM,1.0,57.1885162452285,-3.82886797624022,53.3782206064748,-1.46211098820667,449.99500995294756,448.0,206.4,CROSSCOUNTRY,ANYTIME S,0.0,0.45867175287472994,0.46071428571428574,1.0044531472164009,0.9955665953870108
Avoncliff,AVF,1.0,51.3396528744674,-2.28132558221387,53.3782206064748,-1.46211098820667,233.60042756137295,291.0,175.5,LONDON NORTH EASTERN RAILWAY,ANYTIME S,0.0,0.7512828714917122,0.6030927835051546,0.8027506101765394,1.245716898028993
Avonmouth,AVN,1.0,51.5003648679963,-2.69946651797304,53.3782206064748,-1.46211098820667,225.25640311453932,265.0,180.5,LONDON NORTH EASTERN RAILWAY,ANYTIME S,0.0,0.8013090749221393,0.6811320754716981,0.8500241626963748,1.1764371460075729
Axminster,AXM,1.0,50.7792744117621,-3.00472359764506,53.3782206064748,-1.46211098820667,307.89420987670314,347.0,169.5,CROSSCOUNTRY,ANYTIME S,0.0,0.5505137627234907,0.4884726224783862,0.88730319849194,1.1270104759000075
Aylesbury,AYS,1.0,51.8138902206829,-0.815095998270687,53.3782206064748,-1.46211098820667,179.5107686349612,543.0,129.0,LONDON NORTH EASTERN RAILWAY,ANYTIME S,0.0,0.7186198409206531,0.23756906077348067,0.33059073413436685,3.0248881675962376
Aylesbury Vale Parkway,AVP,2.0,51.8311587338339,-0.860182437861177,53.3782206064748,-1.46211098820667,176.91743777423088,263.0,129.0,LONDON NORTH EASTERN RAILWAY,ANYTIME S,0.0,0.7291536754258242,0.49049429657794674,0.6726898774685585,1.4865691212169905
Aylesford,AYL,2.0,51.3013153585378,0.466170568242092,53.3782206064748,-1.46211098820667,265.83789370573265,232.0,125.4,EAST MIDLANDS TRAINS,ANYTIME S,129.0,0.47171604563949276,0.5405172413793103,1.1458529901109167,0.8727123013426021
Aylesham,AYH,2.0,51.2272505439136,1.2094526827124,53.3782206064748,-1.46211098820667,300.78103009131553,291.0,141.5,LONDON NORTH EASTERN RAILWAY,ANYTIME S,0.0,0.47044190239338346,0.48625429553264604,1.0336117872553798,0.9674812268302091
Ayr,AYR,1.0,55.4581477383334,-4.62587677242484,53.3782206064748,-1.46211098820667,309.42729907204506,365.0,138.3,CROSSCOUNTRY,ANYTIME S,0.0,0.4469547464453003,0.37890410958904114,0.847746024854918,1.179598571601841
Bache,BAC,1.0,53.2087886904783,-2.89167051075084,53.3782206064748,-1.46211098820667,97.16987637420321,182.0,30.7,TRANSPORT FOR WALES RAIL,ANYTIME DAY S,325.0,0.31594153605561526,0.16868131868131866,0.5339004196384792,1.8730084547922468
Baglan,BAJ,1.0,51.615545271975,-3.81113654529303,53.3782206064748,-1.46211098820667,252.80313771006644,325.0,59.7,CROSSCOUNTRY,ANYTIME S,700.0,0.23615213221154094,0.1836923076923077,0.777855808338666,1.28558530935931
Bagshot,BAG,2.0,51.3643669407293,-0.688661997063008,53.3782206064748,-1.46211098820667,230.1949423054539,249.0,129.0,CROSSCOUNTRY,ANYTIME S,0.0,0.5603945886388124,0.5180722891566265,0.9244776799415819,1.0816918803958473
Baildon,BLD,2.0,53.8502255005868,-1.75363638811678,53.3782206064748,-1.46211098820667,55.96378183673596,143.0,21.55,CROSSCOUNTRY,ANYTIME DAY S,0.0,0.38507047402314876,0.1506993006993007,0.39135511773941234,2.5552240271605697
Baillieston,BIO,1.0,55.844505909339,-4.11369931815988,53.3782206064748,-1.46211098820667,323.5541465583265,307.0,120.55,CROSSCOUNTRY,ANYTIME S,0.0,0.3725806060045924,0.39267100977198693,1.0539223014929202,0.9488365495098289
Balcombe,BAB,1.0,51.0555201604538,-0.136933757536862,53.3782206064748,-1.46211098820667,273.8475466869481,243.0,125.4,EAST MIDLANDS TRAINS,ANYTIME S,129.0,0.4579190192393888,0.5160493827160494,1.1269446365718028,0.8873550372820692
Baldock,BDK,2.0,51.9928698318742,-0.187563753520231,53.3782206064748,-1.46211098820667,176.61339579709025,233.0,97.0,LONDON NORTH EASTERN RAILWAY,ANYTIME S,700.0,0.5492222125180275,0.41630901287553645,0.7579974068544646,1.3192657269762929
Balham,BAL,2.0,51.4432234163815,-0.152424495700288,53.3782206064748,-1.46211098820667,233.02190422523142,202.0,107.8,EAST MIDLANDS TRAINS,ANYTIME S,129.0,0.462617453747198,0.5336633663366337,1.153573783293225,0.8668712955188682
Balloch,BHC,2.0,56.0029392993731,-4.58348654319574,53.3782206064748,-1.46211098820667,354.7208436940689,376.0,163.7,CROSSCOUNTRY,ANYTIME S,0.0,0.4614896556267329,0.4353723404255319,0.9434064991863534,1.0599884576398997
Balmossie,BSI,1.0,56.4745685552318,-2.83895622541232,53.3782206064748,-1.46211098820667,355.79573948225885,509.0,175.55,CROSSCOUNTRY,ANYTIME S,0.0,0.4934010740416792,0.34489194499017684,0.6990093113600371,1.430596107588805
Bamber Bridge,BMB,1.0,53.7268691714662,-2.6607753764786,53.3782206064748,-1.46211098820667,88.41241508421064,188.0,27.1,TRANSPENNINE EXPRESS,ANYTIME DAY S,325.0,0.30651803792700294,0.14414893617021277,0.47027880363941826,2.1263981966891716
Bamford,BAM,0.0,53.3390008432273,-1.68908191470249,53.3782206064748,-1.46211098820667,15.729386915465472,22.0,4.9,NORTHERN,ANYTIME DAY S,1000.0,0.31151881674308707,0.22272727272727275,0.7149721325211579,1.398655911907738
Banavie,BNV,2.0,56.8433146084024,-5.09542698683765,53.3782206064748,-1.46211098820667,449.93260698316897,576.0,216.55,CROSSCOUNTRY,ANYTIME S,0.0,0.48129430194442585,0.37595486111111115,0.7811329982346683,1.2801917244053995
Banbury,BAN,0.0,52.0603086671337,-1.32813289497966,53.3782206064748,-1.46211098820667,146.93759229543608,170.0,72.55,CROSSCOUNTRY,ANYTIME S,700.0,0.4937470314208587,0.42676470588235293,0.8643387782084475,1.1569537607380562
Bangor (Gwynedd),BNG,1.0,53.2222875881889,-4.1358808597691,53.3782206064748,-1.46211098820667,179.0937221412915,231.0,51.0,TRANSPENNINE EXPRESS,ANYTIME DAY S,92.0,0.2847671006567435,0.22077922077922077,0.7752974984471493,1.289827455915838
Bank Hall,BAH,2.0,53.4374965462522,-2.98751189569183,53.3782206064748,-1.46211098820667,101.65582376750908,157.0,29.6,TRANSPENNINE EXPRESS,ANYTIME DAY S,325.0,0.2911785956080232,0.18853503184713377,0.6474893233599304,1.5444270104885014
Banstead,BAD,2.0,51.3293474848423,-0.213158931277083,53.3782206064748,-1.46211098820667,243.34042470374797,253.0,114.1,EAST MIDLANDS TRAINS,ANYTIME S,129.0,0.46889044489385495,0.45098814229249007,0.9618198604891224,1.0396957279416768
Barassie,BSS,1.0,55.5610644543682,-4.65113966824502,53.3782206064748,-1.46211098820667,318.97819380062003,352.0,167.4,CROSSCOUNTRY,ANYTIME S,0.0,0.5248007646084885,0.47556818181818183,0.9061880505699432,1.1035237105268096
Barbican,ZBB,1.0,nan,nan,53.3782206064748,-1.46211098820667,-999.0,194.0,110.5,LONDON NORTH EASTERN RAILWAY,ANYTIME S,0.0,-999.0,0.5695876288659794,-999.0,-999.0
Bardon Mill,BLL,1.0,54.9744957852522,-2.34650475516335,53.3782206064748,-1.46211098820667,186.823931060114,179.0,87.45,CROSSCOUNTRY,ANYTIME S,0.0,0.4680877845989729,0.48854748603351955,1.043709112067676,0.9581213658458106
Bare Lane,BAR,1.0,54.0745443408907,-2.83533086719705,53.3782206064748,-1.46211098820667,119.25163882662945,198.0,35.8,TRANSPENNINE EXPRESS,ANYTIME DAY S,0.0,0.30020551794719397,0.1808080808080808,0.6022810041748962,1.660354540601799
Bargeddie,BGI,1.0,55.8512961462984,-4.07380825280165,53.3782206064748,-1.46211098820667,322.83542753603757,304.0,120.55,CROSSCOUNTRY,ANYTIME S,0.0,0.3734100712554021,0.39654605263157894,1.0619586432106498,0.9416562560069867
Bargoed,BGD,2.0,51.6923127611933,-3.22968013064506,53.3782206064748,-1.46211098820667,222.65135667326234,287.0,58.6,CROSSCOUNTRY,ANYTIME S,700.0,0.2631917490895627,0.20418118466898955,0.7757886992099733,1.2890107847901793
Barking,BKG,2.0,51.5394928787692,0.0809024258638578,53.3782206064748,-1.46211098820667,229.90927049579054,210.0,117.0,LONDON NORTH EASTERN RAILWAY,ANYTIME S,0.0,0.5088963996436245,0.5571428571428572,1.094806049979955,0.9134037942321467
Barlaston,BRT,3.0,nan,nan,53.3782206064748,-1.46211098820667,-999.0,136.0,30.7,TRANSPENNINE EXPRESS,ANYTIME DAY S,0.0,-999.0,0.22573529411764706,-999.0,-999.0
Barming,BMG,2.0,51.2848926922128,0.478958086821072,53.3782206064748,-1.46211098820667,267.86861086139777,285.0,125.4,EAST MIDLANDS TRAINS,ANYTIME S,129.0,0.46813995711085854,0.44,0.9398898626715712,1.0639544479792238
Barmouth,BRM,1.0,52.7228954666472,-4.05659664341287,53.3782206064748,-1.46211098820667,188.635606726929,355.0,77.9,TRANSPORT FOR WALES RAIL,ANYTIME DAY S,1000.0,0.4129655124589967,0.21943661971830988,0.5313679062730394,1.8819352621687269
Barnehurst,BNH,2.0,51.4649571594916,0.159646215915891,53.3782206064748,-1.46211098820667,239.77334184455384,225.0,106.1,EAST MIDLANDS TRAINS,ANYTIME S,129.0,0.44250123547423015,0.4715555555555555,1.0656592970869059,0.9383862203741922
Barnes,BNS,2.0,51.4670847781107,-0.242164290131055,53.3782206064748,-1.46211098820667,228.27375949492992,201.0,117.0,LONDON NORTH EASTERN RAILWAY,ANYTIME S,0.0,0.5125424852110461,0.582089552238806,1.13569034574592,0.8805217053625662
Barnes Bridge,BNI,2.0,51.4720072305495,-0.252630234454485,53.3782206064748,-1.46211098820667,227.5037173559939,204.0,117.0,LONDON NORTH EASTERN RAILWAY,ANYTIME S,0.0,0.5142773109809033,0.5735294117647058,1.115214300764676,0.896688644787216
Barnetby,BTB,0.0,53.575120046432,-0.409679706265516,53.3782206064748,-1.46211098820667,73.23149674206067,77.0,24.0,TRANSPENNINE EXPRESS,ANYTIME DAY S,0.0,0.3277278366238218,0.3116883116883117,0.9510583992475412,1.0514601425014283
Barnham,BAA,2.0,50.8309058508596,-0.639679954401345,53.3782206064748,-1.46211098820667,288.97986488347243,278.0,141.5,LONDON NORTH EASTERN RAILWAY,ANYTIME S,0.0,0.48965349214575254,0.5089928057553957,1.039495916847023,0.962004740752786
Barnhill,BNL,2.0,55.8774948886876,-4.22300584363342,53.3782206064748,-1.46211098820667,330.3897264970827,328.0,120.55,CROSSCOUNTRY,ANYTIME S,0.0,0.364872120202153,0.367530487804878,1.007285751515496,0.9927669467134482
Barnsley,BNY,0.0,53.5543015489003,-1.47716484028851,53.3782206064748,-1.46211098820667,19.622418319690734,30.0,4.5,SOUTH YORKSHIRE PTE,ANYTIME DAY S,679.0,0.2293295314922694,0.15,0.6540806106563578,1.5288635432817959
Barnstaple,BNP,1.0,51.0739744679973,-4.06311775092404,53.3782206064748,-1.46211098820667,311.927446593595,367.0,210.5,LONDON NORTH EASTERN RAILWAY,ANYTIME S,0.0,0.6748364156433367,0.5735694822888283,0.8499385465765531,1.176555651026625
Barnt Green,BTG,1.0,52.3610898378667,-1.99246673824797,53.3782206064748,-1.46211098820667,118.68982638084665,157.0,52.05,CROSSCOUNTRY,ANYTIME S,0.0,0.43853800773946927,0.33152866242038215,0.7559861552920168,1.3227755468798594
Barrhead,BRR,1.0,55.8037583421428,-4.39728431394783,53.3782206064748,-1.46211098820667,329.93803389599674,356.0,163.7,CROSSCOUNTRY,ANYTIME S,0.0,0.496153771867361,0.45983146067415726,0.9267922300449346,1.0789904873841205
Barrhill,BRL,1.0,55.0970106102442,-4.78178229089313,53.3782206064748,-1.46211098820667,288.82485261269994,500.0,174.95,CROSSCOUNTRY,ANYTIME S,0.0,0.6057304224944916,0.3499,0.5776497052253999,1.7311529651171522
Barrow Haven,BAV,1.0,53.697419946542,-0.392955239385703,53.3782206064748,-1.46211098820667,79.28797472488,133.0,24.3,TRANSPENNINE EXPRESS,ANYTIME DAY S,0.0,0.306477748792527,0.18270676691729323,0.5961501859013534,1.6774296538850242
Barrow-in-Furness,BIF,1.0,54.1190037011827,-3.22612090695349,53.3782206064748,-1.46211098820667,142.61288280102124,206.0,51.2,TRANSPENNINE EXPRESS,ANYTIME DAY S,0.0,0.35901384920067936,0.24854368932038837,0.692295547577773,1.4444697838933584
Barrow-Upon-Soar,BWS,1.0,52.7493358553102,-1.14484305880024,53.3782206064748,-1.46211098820667,73.14727312525129,87.0,36.8,EAST MIDLANDS TRAINS,ANYTIME S,0.0,0.5030946257830657,0.42298850574712643,0.8407732543132332,1.189381316389313
Barry,BRY,2.0,51.3967862682376,-3.28498495899336,53.3782206064748,-1.46211098820667,252.9931048280328,269.0,58.6,CROSSCOUNTRY,ANYTIME S,700.0,0.2316268660358638,0.21784386617100374,0.9404948134871108,1.0632700847038798
Barry Docks,BYD,2.0,51.4024452836283,-3.26070393235989,53.3782206064748,-1.46211098820667,251.63286286149827,266.0,58.6,CROSSCOUNTRY,ANYTIME S,700.0,0.23287896236452288,0.22030075187969925,0.9459882062462341,1.057095631210974
Barry Island,BYI,2.0,51.3924170726249,-3.27336400852697,53.3782206064748,-1.46211098820667,253.0334767708256,295.0,58.6,CROSSCOUNTRY,ANYTIME S,700.0,0.2315899095560169,0.19864406779661017,0.8577405992231376,1.165853640256399
Barry Links,BYL,1.0,56.4931516826701,-2.74544214683501,53.3782206064748,-1.46211098820667,356.3670523475171,516.0,180.95,CROSSCOUNTRY,ANYTIME S,0.0,0.5077629898948786,0.3506782945736434,0.690633822378909,1.447945304148977
Barton-on-Humber,BAU,1.0,53.6889177395454,-0.44343673614012,53.3782206064748,-1.46211098820667,75.88078846945353,194.0,24.3,TRANSPENNINE EXPRESS,ANYTIME DAY S,0.0,0.3202391605324736,0.12525773195876289,0.3911380848940904,2.556641857748966
Basildon,BSO,2.0,51.5681040297501,0.456788850539816,53.3782206064748,-1.46211098820667,239.92453254406558,231.0,121.5,LONDON NORTH EASTERN RAILWAY,ANYTIME S,0.0,0.5064092392372789,0.525974025974026,1.0386343400176,0.9628027511424807
Basingstoke,BSK,1.0,51.2683569850094,-1.08726383162934,53.3782206064748,-1.46211098820667,236.157924026161,232.0,138.0,CROSSCOUNTRY,ANYTIME S,0.0,0.5843547302893495,0.5948275862068966,1.0179220863196594,0.9823934596168774
Bat & Ball,BBL,2.0,51.2897587469008,0.194227480292899,53.3782206064748,-1.46211098820667,258.34870138799715,233.0,126.0,LONDON NORTH EASTERN RAILWAY,ANYTIME S,0.0,0.48771292181093173,0.5407725321888412,1.1087927098197303,0.9018818316027547
Bath Spa,BTH,0.0,51.3776883852266,-2.3570184714201,53.3782206064748,-1.46211098820667,230.79417481089214,221.0,175.5,LONDON NORTH EASTERN RAILWAY,ANYTIME S,0.0,0.7604178057951462,0.7941176470588235,1.04431753308096,0.957563162853147
Bathgate,BHG,1.0,55.8971563834902,-3.63609679157923,53.3782206064748,-1.46211098820667,313.536270681666,275.0,162.65,CROSSCOUNTRY,ANYTIME S,0.0,0.5187597583092353,0.5914545454545455,1.1401318933878763,0.8770915065173052
Batley,BTL,1.0,53.7099423400798,-1.6229526318262,53.3782206064748,-1.46211098820667,38.42821467540874,131.0,19.2,LONDON NORTH EASTERN RAILWAY,ANYTIME DAY S,0.0,0.4996328911498093,0.1465648854961832,0.29334515019395985,3.4089535802408863
Battersby,BTT,2.0,54.457680170473,-1.09297186288525,53.3782206064748,-1.46211098820667,122.57075502124118,192.0,66.7,CROSSCOUNTRY,ANYTIME S,95.0,0.5441754845064067,0.34739583333333335,0.6383893490689645,1.5664421742913055
Battersea Park,BAK,2.0,51.4769582891996,-0.147533519657093,53.3782206064748,-1.46211098820667,229.6747049126967,200.0,117.0,LONDON NORTH EASTERN RAILWAY,ANYTIME S,0.0,0.5094161328931442,0.585,1.1483735245634836,0.8707968083643491
Battle,BAT,2.0,50.9129130238687,0.494702777064857,53.3782206064748,-1.46211098820667,305.2452630243328,289.0,140.0,LONDON NORTH EASTERN RAILWAY,ANYTIME S,0.0,0.45864757609306395,0.4844290657439446,1.0562119827831584,0.946779639220682
Battlesbridge,BLB,2.0,51.624822766888,0.56528550890708,53.3782206064748,-1.46211098820667,238.7747431830679,235.0,127.0,EAST MIDLANDS TRAINS,ANYTIME S,129.0,0.5318820504504929,0.5404255319148936,1.016062736949225,0.984191195715479
Bayford,BAY,2.0,51.7577148923117,-0.0956100209046352,53.3782206064748,-1.46211098820667,202.72928849123463,183.0,121.5,LONDON NORTH EASTERN RAILWAY,ANYTIME S,0.0,0.5993213950694316,0.6639344262295082,1.107810319624233,0.9026816073885267
Beaconsfield,BCF,2.0,51.6112905925788,-0.643822282354315,53.3782206064748,-1.46211098820667,204.31826552531373,213.0,121.5,CROSSCOUNTRY,ANYTIME S,0.0,0.5946604905225515,0.5704225352112676,0.9592406832174354,1.042491230298794
Bearley,BER,1.0,52.2444115945748,-1.75025547969474,53.3782206064748,-1.46211098820667,127.66023809166913,210.0,53.6,CROSSCOUNTRY,ANYTIME S,0.0,0.4198644840495393,0.25523809523809526,0.607905895674615,1.6449914487015531
Bearsden,BRN,1.0,55.9171345827093,-4.3320211452141,53.3782206064748,-1.46211098820667,337.86825023394033,339.0,163.7,CROSSCOUNTRY,ANYTIME S,0.0,0.4845083842197482,0.4828908554572271,0.9966615051148683,1.0033496777672244
Bearsted,BSD,2.0,51.2758187894535,0.577580355704965,53.3782206064748,-1.46211098820667,272.12441106719865,267.0,128.8,EAST MIDLANDS TRAINS,ANYTIME S,129.0,0.4733129214497189,0.4823970037453184,1.019192550813478,0.9811688666698365
Beasdale,BSL,2.0,56.8995610683265,-5.76380325043513,53.3782206064748,-1.46211098820667,478.26821129263766,629.0,221.8,CROSSCOUNTRY,ANYTIME S,0.0,0.46375651729085415,0.35262321144674086,0.7603628160455289,1.3151616292874087
Beaulieu Road,BEU,1.0,50.8550493435382,-1.50474962699015,53.3782206064748,-1.46211098820667,280.7672456576912,400.0,148.0,CROSSCOUNTRY,ANYTIME S,0.0,0.5271270145964256,0.37,0.701918114144228,1.4246676070173665
Beauly,BEL,2.0,57.4782879378611,-4.46986686037102,53.3782206064748,-1.46211098820667,494.4721451365552,513.0,221.8,CROSSCOUNTRY,ANYTIME S,0.0,0.448559139643239,0.43235867446393766,0.9638833238529341,1.0374699668033436
Bebington,BEB,1.0,53.3576570664328,-3.00363517233964,53.3782206064748,-1.46211098820667,102.63521098663257,144.0,30.4,TRANSPENNINE EXPRESS,ANYTIME DAY S,92.0,0.2961946461430216,0.2111111111111111,0.712744520740504,1.4030272712037866
Beccles,BCC,3.0,52.4585181871493,1.5694932615698,53.3782206064748,-1.46211098820667,228.13533300359188,360.0,148.0,LONDON NORTH EASTERN RAILWAY,ANYTIME S,0.0,0.6487377384794218,0.4111111111111111,0.6337092583433108,1.5780107152202152
Beckenham Hill,BEC,1.0,51.4245808668055,-0.0159511139458484,53.3782206064748,-1.46211098820667,238.62330443179746,208.0,106.1,EAST MIDLANDS TRAINS,ANYTIME S,129.0,0.44463385607974076,0.5100961538461538,1.1472274251528725,0.8716667489593409
Beckenham Junction,BKJ,2.0,51.4111718661491,-0.0260225635677561,53.3782206064748,-1.46211098820667,239.70891827694314,228.0,106.1,EAST MIDLANDS TRAINS,ANYTIME S,129.0,0.4426201609963438,0.4653508771929824,1.0513549047234347,0.9511535976170254
Bedford,BDM,0.0,52.1361864656103,-0.479442379912954,53.3782206064748,-1.46211098820667,153.30962367484682,135.0,140.0,EAST MIDLANDS TRAINS,ANYTIME S,0.0,0.91318468237144,1.037037037037037,1.1356268420359024,0.8805709437153172
Bedford St Johns,BSJ,1.0,52.1294772366621,-0.467501028060375,53.3782206064748,-1.46211098820667,154.3341723270166,169.0,140.0,EAST MIDLANDS TRAINS,ANYTIME S,0.0,0.9071224984662235,0.8284023668639053,0.9132199545977314,1.095026444577084
Bedhampton,BDH,1.0,50.8539566355958,-0.99582843515536,53.3782206064748,-1.46211098820667,282.682152269268,335.0,141.5,CROSSCOUNTRY,ANYTIME S,0.0,0.5005621998562351,0.4223880597014925,0.8438273202067701,1.185076586232076
Bedminster,BMT,1.0,51.4400904239394,-2.59414932604792,53.3782206064748,-1.46211098820667,229.0033630956643,241.0,180.5,CROSSCOUNTRY,ANYTIME S,0.0,0.7881980315048805,0.7489626556016598,0.9502214236334618,1.0523862913721673
Bedworth,BEH,2.0,52.4792974206142,-1.46739223305473,53.3782206064748,-1.46211098820667,100.03722676418961,175.0,48.3,CROSSCOUNTRY,ANYTIME S,0.0,0.4828202616397397,0.27599999999999997,0.5716412957953693,1.749348774057028
Bedwyn,BDW,1.0,51.3796409426581,-1.59878627020561,53.3782206064748,-1.46211098820667,222.58552745217906,285.0,138.0,CROSSCOUNTRY,ANYTIME S,0.0,0.6199864006416514,0.4842105263157895,0.7810018507094002,1.2804066969773236
Beeston,BEE,0.0,52.9207551214346,-1.20765801407939,53.3782206064748,-1.46211098820667,53.681789655988126,64.0,14.6,EAST MIDLANDS TRAINS,ANYTIME DAY S,0.0,0.2719730488413661,0.228125,0.8387779633748145,1.192210625058043
Bekesbourne,BKS,2.0,51.2613539349877,1.13670763163281,53.3782206064748,-1.46211098820667,294.72301772678935,316.0,141.5,LONDON NORTH EASTERN RAILWAY,ANYTIME S,0.0,0.4801118049462009,0.4477848101265823,0.932667777616422,1.0721931474416926
Belle Vue,BLV,0.0,53.4623764935822,-2.18050724055323,53.3782206064748,-1.46211098820667,48.670912038260475,87.0,21.6,TRANSPENNINE EXPRESS,ANYTIME DAY S,0.0,0.4437969024089814,0.24827586206896554,0.5594357705547182,1.7875153013695082
Bellgrove,BLG,1.0,55.8567093051092,-4.22437490020632,53.3782206064748,-1.46211098820667,328.5168768630081,305.0,120.55,CROSSCOUNTRY,ANYTIME S,0.0,0.3669522283029297,0.39524590163934425,1.0771045143049447,0.9284150114673875
Bellingham,BGM,1.0,51.4329113825773,-0.0193308081217253,53.3782206064748,-1.46211098820667,237.68046901598242,206.0,106.1,EAST MIDLANDS TRAINS,ANYTIME S,129.0,0.4463976381368781,0.5150485436893204,1.153788684543604,0.8667098346484157
Bellshill,BLH,1.0,55.8170682424416,-4.02449996284266,53.3782206064748,-1.46211098820667,317.9612329216167,314.0,120.55,CROSSCOUNTRY,ANYTIME S,0.0,0.3791342702137458,0.3839171974522293,1.012615391470117,0.9875417739287945
Belmont,BLM,2.0,51.3438134158344,-0.198855124360003,53.3782206064748,-1.46211098820667,242.17279367798253,250.0,114.1,EAST MIDLANDS TRAINS,ANYTIME S,129.0,0.4711511903014131,0.4564,0.9686911747119301,1.0323207500030962
Belper,BLP,1.0,53.0237591485711,-1.48251049959613,53.3782206064748,-1.46211098820667,39.47157953490919,91.0,22.7,EAST MIDLANDS TRAINS,ANYTIME S,0.0,0.5750973299643055,0.24945054945054945,0.43375362126273836,2.3054562566851016
Beltring,BEG,2.0,51.2047063375307,0.403495486821792,53.3782206064748,-1.46211098820667,273.2831347615637,262.0,125.4,EAST MIDLANDS TRAINS,ANYTIME S,129.0,0.4588647598374851,0.4786259541984733,1.0430653998532966,0.9587126561197854
Belvedere,BVD,3.0,51.4921162437256,0.152286098901381,53.3782206064748,-1.46211098820667,236.8467587786331,460.0,106.1,EAST MIDLANDS TRAINS,ANYTIME S,129.0,0.4479689760042927,0.23065217391304346,0.5148842582144197,1.942184061847075
Bempton,BEM,0.0,54.1276580609781,-0.18045684367924,53.3782206064748,-1.46211098820667,118.76116195995824,139.0,45.0,NORTHERN,ANYTIME DAY S,0.0,0.37891175243950787,0.3237410071942446,0.8543968486327931,1.1704163019798133
Ben Rhydding,BEY,1.0,53.9257153348267,-1.79743026313235,53.3782206064748,-1.46211098820667,64.84350672264077,101.0,21.55,CROSSCOUNTRY,ANYTIME DAY S,0.0,0.33233859624799716,0.21336633663366336,0.6420149180459482,1.557596205153026
Benfleet,BEF,2.0,51.5439424321207,0.561713345502072,53.3782206064748,-1.46211098820667,246.11583405113205,238.0,121.5,LONDON NORTH EASTERN RAILWAY,ANYTIME S,0.0,0.49366998457627737,0.5105042016806722,1.0341001430719834,0.9670243319271935
Bentham,BEN,1.0,54.1155197017626,-2.51067651046258,53.3782206064748,-1.46211098820667,107.32676745434286,170.0,39.9,TRANSPENNINE EXPRESS,ANYTIME DAY S,0.0,0.371761872144091,0.23470588235294118,0.6313339262020168,1.5839478261778315
Bentley (Hants),BTY,2.0,51.1812327932647,-0.868126900052275,53.3782206064748,-1.46211098820667,247.80057349913713,267.0,115.4,EAST MIDLANDS TRAINS,ANYTIME S,129.0,0.4656970658722137,0.4322097378277154,0.9280920355772926,1.0774793465154338
Bentley (South Yorks),BYK,0.0,53.543936635355,-1.15094859528964,53.3782206064748,-1.46211098820667,27.700071708011954,48.0,5.3,SOUTH YORKSHIRE PTE,ANYTIME DAY S,53.0,0.191335244755595,0.11041666666666666,0.577084827250249,1.7328474996733132
Bere Alston,BAS,1.0,50.4855988011236,-4.20035543651004,53.3782206064748,-1.46211098820667,372.84303601319107,357.0,210.5,LONDON NORTH EASTERN RAILWAY,ANYTIME S,0.0,0.5645807475737661,0.5896358543417367,1.04437825213779,0.9575074911346056
Bere Ferrers,BFE,1.0,50.4512820780774,-4.18143518031599,53.3782206064748,-1.46211098820667,375.5284020350219,352.0,210.5,LONDON NORTH EASTERN RAILWAY,ANYTIME S,0.0,0.56054348714846,0.5980113636363636,1.0668420512358576,0.9373458787470684
Berkhamsted,BKM,2.0,51.7631330812332,-0.562012981628892,53.3782206064748,-1.46211098820667,189.7986591190239,215.0,126.0,LONDON NORTH EASTERN RAILWAY,ANYTIME S,0.0,0.6638613812386558,0.586046511627907,0.8827844610187159,1.1327793410024682
Berkswell,BKW,1.0,52.3958819317755,-1.64284047482006,53.3782206064748,-1.46211098820667,109.99341989190702,143.0,48.3,CROSSCOUNTRY,ANYTIME S,0.0,0.43911717671352957,0.33776223776223774,0.7691847544888603,1.3000777695659365
Bermuda Park,BEP,2.0,52.5014343619449,-1.47217775464212,53.3782206064748,-1.46211098820667,97.5756186230518,179.0,47.3,CROSSCOUNTRY,ANYTIME S,0.0,0.4847522431062055,0.2642458100558659,0.5451151878382782,1.8344746620721097
Berney Arms,BYA,-999.0,52.5897827472666,1.63037533346209,53.3782206064748,-1.46211098820667,225.44632315304284,-999.0,90.7,EAST MIDLANDS TRAINS,ANYTIME S,700.0,0.4023130594080653,-999.0,-999.0,-999.0
Berry Brow,BBW,0.0,53.6210419716152,-1.79343228301033,53.3782206064748,-1.46211098820667,34.83881434180661,70.0,19.9,LONDON NORTH EASTERN RAILWAY,ANYTIME DAY S,0.0,0.5712019876669563,0.28428571428571425,0.49769734774009444,2.0092532229490927
Berrylands,BRS,2.0,51.3990439366779,-0.280713667843256,53.3782206064748,-1.46211098820667,234.45137358917745,231.0,117.0,LONDON NORTH EASTERN RAILWAY,ANYTIME S,0.0,0.49903738335530423,0.5064935064935064,1.0149410112085604,0.9852789363681648
Berwick (Sussex),BRK,2.0,50.8403762860459,0.166017608785235,53.3782206064748,-1.46211098820667,303.59573901535055,324.0,141.5,LONDON NORTH EASTERN RAILWAY,ANYTIME S,0.0,0.4660803226650207,0.4367283950617284,0.9370238858498474,1.0672086540174326
Berwick-upon-Tweed,BWK,0.0,55.7743389009866,-2.01097357377303,53.3782206064748,-1.46211098820667,269.0742687140706,181.0,92.8,CROSSCOUNTRY,ANYTIME S,72.0,0.34488619236428397,0.512707182320442,1.486598169690998,0.6726767329518901
Bescar Lane,BES,2.0,53.623855333027,-2.9146110021991,53.3782206064748,-1.46211098820667,100.1841586806788,162.0,28.0,TRANSPENNINE EXPRESS,ANYTIME DAY S,325.0,0.27948530355228696,0.1728395061728395,0.6184207325967828,1.6170221134096603
Bescot Stadium,BSC,1.0,52.5630947071172,-1.9911057185482,53.3782206064748,-1.46211098820667,97.42456470902825,160.0,47.9,CROSSCOUNTRY,ANYTIME S,0.0,0.49166244820348837,0.299375,0.6089035294314266,1.6422962779239694
Betchworth,BTO,1.0,51.2481879331766,-0.266973015200458,53.3782206064748,-1.46211098820667,250.62888237379715,347.0,126.0,LONDON NORTH EASTERN RAILWAY,ANYTIME S,0.0,0.5027353543877635,0.3631123919308357,0.7222734362357267,1.3845172061313804
Bethnal Green,BET,2.0,51.5239156627757,-0.0595680464428894,53.3782206064748,-1.46211098820667,227.294923112202,200.0,108.0,LONDON NORTH EASTERN RAILWAY,ANYTIME S,0.0,0.4751535956950821,0.54,1.1364746155610101,0.8799140661020038
Betws-y-Coed,BYC,2.0,53.0920709395504,-3.80086212197837,53.3782206064748,-1.46211098820667,159.3690513546447,246.0,48.4,TRANSPENNINE EXPRESS,ANYTIME DAY S,92.0,0.3036976099725614,0.1967479674796748,0.6478416721733525,1.5435870258935973
Beverley,BEV,0.0,53.8422725915824,-0.422980126740875,53.3782206064748,-1.46211098820667,86.00868569359312,100.0,27.8,NORTHERN,ANYTIME DAY S,0.0,0.32322316956496466,0.278,0.8600868569359312,1.1626732718164197
Bexhill,BEX,2.0,50.84103990242,0.477016592346932,53.3782206064748,-1.46211098820667,311.9777000583981,256.0,141.5,LONDON NORTH EASTERN RAILWAY,ANYTIME S,0.0,0.45355805871225113,0.552734375,1.2186628908531176,0.8205714701790551
Bexley,BXY,2.0,51.4402175270263,0.147902494716889,53.3782206064748,-1.46211098820667,241.8714966316397,220.0,106.1,EAST MIDLANDS TRAINS,ANYTIME S,129.0,0.43866268443191514,0.48227272727272724,1.0994158937801806,0.9095738979738109
Bexleyheath,BXH,2.0,51.4634982236074,0.133734871030645,53.3782206064748,-1.46211098820667,239.11327710843887,222.0,106.1,EAST MIDLANDS TRAINS,ANYTIME S,129.0,0.44372274631944925,0.4779279279279279,1.0770868338217967,0.9284302514883859
Bicester North,BCS,1.0,51.9034829537461,-1.15038352192815,53.3782206064748,-1.46211098820667,165.45869877995526,187.0,140.0,CROSSCOUNTRY,ANYTIME S,0.0,0.8461326060963832,0.7486631016042781,0.8848058758286377,1.1301914095715975
Bicester Village,BIT,1.0,51.8930236127002,-1.14876425178293,53.3782206064748,-1.46211098820667,166.62725680189175,218.0,140.0,CROSSCOUNTRY,ANYTIME S,0.0,0.8401986726964502,0.6422018348623854,0.7643452146875768,1.3083093617701866
Bickley,BKL,1.0,51.4001024308637,0.0452405405139698,53.3782206064748,-1.46211098820667,242.84751687081285,218.0,106.1,EAST MIDLANDS TRAINS,ANYTIME S,129.0,0.4368996700775072,0.486697247706422,1.113979435187215,0.8976826397445482
Bidston,BID,1.0,53.4091398593576,-3.07856110228132,53.3782206064748,-1.46211098820667,107.58700746758694,136.0,30.7,TRANSPENNINE EXPRESS,ANYTIME DAY S,325.0,0.2853504407513991,0.22573529411764706,0.7910809372616687,1.2640931577260677
Biggleswade,BIW,1.0,52.0846785950736,-0.261187193156868,53.3782206064748,-1.46211098820667,165.22792141264114,187.0,82.0,LONDON NORTH EASTERN RAILWAY,ANYTIME DAY S,700.0,0.4962841588693278,0.4385026737967914,0.8835717722601131,1.1317699720556622
Bilbrook,BBK,1.0,52.6237197237583,-2.18608801838282,53.3782206064748,-1.46211098820667,97.01755397553059,168.0,48.3,CROSSCOUNTRY,ANYTIME S,0.0,0.4978480493559139,0.2875,0.5774854403305392,1.7316453890640486
Billericay,BIC,2.0,51.6288812691945,0.418629610467223,53.3782206064748,-1.46211098820667,232.79693949909537,228.0,126.0,LONDON NORTH EASTERN RAILWAY,ANYTIME S,0.0,0.5412442288593301,0.5526315789473685,1.0210392083293656,0.9793943188883116
Billingham (Cleveland),BIL,2.0,54.605606575355,-1.27971968622732,53.3782206064748,-1.46211098820667,137.13663122681876,163.0,66.7,CROSSCOUNTRY,ANYTIME S,95.0,0.4863762468372199,0.4092024539877301,0.8413290259314035,1.1885956257041506
Billingshurst,BIG,2.0,51.0152034952011,-0.450302232654151,53.3782206064748,-1.46211098820667,271.87737091484246,263.0,128.8,EAST MIDLANDS TRAINS,ANYTIME S,129.0,0.4737429951106258,0.48973384030418254,1.0337542620336215,0.9673478859789951
Bingham,BIN,0.0,52.9541905628363,-0.95154335353279,53.3782206064748,-1.46211098820667,58.248027077486405,71.0,24.9,EAST MIDLANDS TRAINS,ANYTIME S,0.0,0.4274822899473648,0.35070422535211265,0.820394747570231,1.2189254050707992
Bingley,BIY,1.0,53.8486154371384,-1.8373224993653,53.3782206064748,-1.46211098820667,57.944319829546764,134.0,20.4,CROSSCOUNTRY,ANYTIME DAY S,0.0,0.3520621185995474,0.15223880597014924,0.43242029723542363,2.3125648966833015
Birchgrove,BCG,2.0,51.5215597229164,-3.20185379786194,53.3782206064748,-1.46211098820667,238.046995945605,270.0,57.1,CROSSCOUNTRY,ANYTIME S,700.0,0.2398686014632491,0.2114814814814815,0.8816555405392777,1.134229814274558
Birchington-on-sea,BCH,1.0,51.3774886896266,1.3014083545974,53.3782206064748,-1.46211098820667,291.46871195026324,283.0,146.2,EAST MIDLANDS TRAINS,ANYTIME S,129.0,0.5015975780788019,0.5166077738515901,1.0299247772094107,0.9709446962811282
Birchwood,BWD,1.0,53.4127205850305,-2.5253082468513,53.3782206064748,-1.46211098820667,70.829667766406,105.0,23.0,TRANSPENNINE EXPRESS,ANYTIME DAY S,325.0,0.3247226864857431,0.21904761904761905,0.6745682644419619,1.4824296556957837
Birkbeck,BIK,2.0,51.4038899816034,-0.0557387405611835,53.3782206064748,-1.46211098820667,239.63722340621473,208.0,106.1,EAST MIDLANDS TRAINS,ANYTIME S,129.0,0.4427525844770258,0.5100961538461538,1.1521020356068017,0.8679786764488349
Birkdale,BDL,2.0,53.6340528065899,-3.01445011129132,53.3782206064748,-1.46211098820667,106.85755748330642,438.0,28.0,TRANSPENNINE EXPRESS,ANYTIME DAY S,325.0,0.2620310688308053,0.0639269406392694,0.24396702621759458,4.098914576710454
Birkenhead Central,BKC,1.0,53.3883166263867,-3.02082115838918,53.3782206064748,-1.46211098820667,103.72245016068291,151.0,30.7,TRANSPENNINE EXPRESS,ANYTIME DAY S,325.0,0.29598220975729667,0.2033112582781457,0.6869036434482312,1.4558082629756286
Birkenhead Hamilton Square,BKQ,1.0,53.3946967251861,-3.01368016573114,53.3782206064748,-1.46211098820667,103.24978768721535,129.0,30.7,TRANSPENNINE EXPRESS,ANYTIME DAY S,325.0,0.2973371731572224,0.237984496124031,0.8003859510636848,1.2493972422567325
Birkenhead North,BKN,1.0,53.4044379353974,-3.05753365912751,53.3782206064748,-1.46211098820667,106.17915066212433,133.0,30.7,TRANSPENNINE EXPRESS,ANYTIME DAY S,325.0,0.2891339760071291,0.23082706766917294,0.7983394786625889,1.2525999612035235
Birkenhead Park,BKP,1.0,53.3974085855031,-3.03910128885113,53.3782206064748,-1.46211098820667,104.94322243536509,131.0,30.7,TRANSPENNINE EXPRESS,ANYTIME DAY S,325.0,0.2925391396181706,0.23435114503816792,0.8010933010333213,1.2482940485335619
Birmingham International,BHI,1.0,52.4508081112451,-1.72585685988124,53.3782206064748,-1.46211098820667,104.72047755351085,126.0,48.3,CROSSCOUNTRY,ANYTIME S,0.0,0.4612278431915984,0.3833333333333333,0.8311149012183401,1.203203069195474
Birmingham Moor Street,BMO,1.0,52.479080623723,-1.89247273057604,53.3782206064748,-1.46211098820667,104.16147779680296,121.0,47.9,CROSSCOUNTRY,ANYTIME S,0.0,0.4598629072202948,0.3958677685950413,0.8608386594777104,1.1616578658383232
Birmingham New Street,BHM,0.0,52.4778198092097,-1.9002055706822,53.3782206064748,-1.46211098820667,104.4418532669676,101.0,47.9,CROSSCOUNTRY,ANYTIME S,0.0,0.45862839945554273,0.47425742574257423,1.034077755118491,0.9670452681630443
Birmingham Snow Hill,BSW,1.0,52.4833566780576,-1.89908868312646,53.3782206064748,-1.46211098820667,103.82908911693384,123.0,47.9,CROSSCOUNTRY,ANYTIME S,0.0,0.4613350690773596,0.38943089430894307,0.8441389359100312,1.1846391126621134
Bishop Auckland,BIA,1.0,54.6571963763698,-1.67771509725951,53.3782206064748,-1.46211098820667,143.05638513508183,129.0,55.45,CROSSCOUNTRY,ANYTIME S,95.0,0.3876094027375361,0.4298449612403101,1.1089642258533474,0.9017423436094166
Bishopbriggs,BBG,2.0,55.9038831792009,-4.22491571705821,53.3782206064748,-1.46211098820667,332.9014767390324,296.0,120.55,CROSSCOUNTRY,ANYTIME S,0.0,0.36211915062936584,0.40726351351351353,1.1246671511453796,0.8891519584097245
Bishops Stortford,BIS,2.0,51.8666894209812,0.16489410333554,53.3782206064748,-1.46211098820667,201.0654915212395,219.0,127.0,LONDON NORTH EASTERN RAILWAY,ANYTIME S,0.0,0.6316349913609337,0.5799086757990868,0.9181072672202717,1.0891973473074368
Bishopstone (Sussex),BIP,2.0,50.7801416620368,0.082756921439231,53.3782206064748,-1.46211098820667,307.8563586217064,321.0,141.5,LONDON NORTH EASTERN RAILWAY,ANYTIME S,0.0,0.4596299411631613,0.440809968847352,0.9590540767031352,1.0426940714726132
Bishopton (Strathclyde),BPT,1.0,55.9022694882255,-4.5004875625329,53.3782206064748,-1.46211098820667,342.6055278221453,341.0,163.7,CROSSCOUNTRY,ANYTIME S,0.0,0.4778089864474708,0.48005865102639295,1.004708292733564,0.9953137714024896
Bitterne,BTE,1.0,50.9182213632939,-1.37699961416727,53.3782206064748,-1.46211098820667,273.7863630496495,290.0,148.0,CROSSCOUNTRY,ANYTIME S,0.0,0.5405674641770274,0.5103448275862069,0.9440909070677568,1.0592200311576887
Blackburn,BBN,1.0,53.7465184457461,-2.47912240276289,53.3782206064748,-1.46211098820667,78.87513344990596,179.0,21.1,TRANSPENNINE EXPRESS,ANYTIME DAY S,325.0,0.26751143328842325,0.11787709497206705,0.44064320363075954,2.269409789508425
Blackheath,BKH,2.0,51.4657945200002,0.00887187089452019,53.3782206064748,-1.46211098820667,235.14810401822456,207.0,106.1,EAST MIDLANDS TRAINS,ANYTIME S,129.0,0.4512049988367203,0.5125603864734299,1.1359811788320027,0.8802962748275316
Blackhorse Road,BHO,1.0,51.58660384873,-0.0412357433706351,53.3782206064748,-1.46211098820667,221.49384723989849,213.0,108.0,LONDON NORTH EASTERN RAILWAY,ANYTIME S,0.0,0.48759819446824604,0.5070422535211268,1.0398772170887254,0.9616519946457074
Blackpool North,BPN,1.0,53.8219180942013,-3.04927516714828,53.3782206064748,-1.46211098820667,116.09680374843786,152.0,32.1,TRANSPENNINE EXPRESS,ANYTIME DAY S,325.0,0.2764934000212036,0.2111842105263158,0.7637947615028807,1.309252236860528
Blackpool Pleasure Beach,BPB,2.0,53.7879555202556,-3.05387646984086,53.3782206064748,-1.46211098820667,114.85851958343157,172.0,32.1,TRANSPENNINE EXPRESS,ANYTIME DAY S,325.0,0.2794742620436007,0.1866279069767442,0.6677820906013463,1.4974944882087016
Blackpool South,BPS,2.0,53.7987040263195,-3.04893832565541,53.3782206064748,-1.46211098820667,115.02765395315103,174.0,32.1,TRANSPENNINE EXPRESS,ANYTIME DAY S,325.0,0.2790633286589834,0.18448275862068966,0.6610784709951208,1.5126797254412185
Blackridge,BKR,1.0,55.8842557507999,-3.75079743413867,53.3782206064748,-1.46211098820667,315.6581441047066,272.0,120.55,CROSSCOUNTRY,ANYTIME S,0.0,0.3819004902975432,0.4431985294117647,1.1605078827378918,0.8616916910902676
Blackrod,BLK,1.0,53.5915244932358,-2.56952431744104,53.3782206064748,-1.46211098820667,77.25021297043145,120.0,22.3,TRANSPENNINE EXPRESS,ANYTIME DAY S,92.0,0.28867234331814234,0.18583333333333335,0.6437517747535954,1.553393775703008
Blackwater,BAW,2.0,51.3315811457068,-0.776741026218888,53.3782206064748,-1.46211098820667,232.47301617720015,259.0,129.0,CROSSCOUNTRY,ANYTIME S,0.0,0.5549031114289458,0.4980694980694981,0.8975792130393828,1.1141077973650926
Blaenau Ffestiniog,BFF,2.0,52.9945530771849,-3.93859577234881,53.3782206064748,-1.46211098820667,170.95527268663713,273.0,49.9,TRANSPENNINE EXPRESS,ANYTIME DAY S,92.0,0.2918892129841894,0.18278388278388277,0.6262097900609419,1.5969089207351443
Blair Atholl,BLA,1.0,56.7655504660718,-3.85022876626298,53.3782206064748,-1.46211098820667,406.71973170625677,401.0,180.95,CROSSCOUNTRY,ANYTIME S,0.0,0.44490096224465114,0.45124688279301745,1.014263670090416,0.9859369210284892
Blairhill,BAI,1.0,55.8664556230225,-4.0432911996593,53.3782206064748,-1.46211098820667,323.23920118946705,299.0,120.55,CROSSCOUNTRY,ANYTIME S,0.0,0.3729436267519405,0.4031772575250836,1.0810675625065789,0.9250115669749499
Blake Street,BKT,1.0,52.6048860712992,-1.84491459685048,53.3782206064748,-1.46211098820667,89.81795480197466,165.0,47.9,CROSSCOUNTRY,ANYTIME S,0.0,0.5333009430643026,0.2903030303030303,0.5443512412240888,1.8370491775701447
Blakedown,BKD,2.0,52.4064026596129,-2.17686566095142,53.3782206064748,-1.46211098820667,118.36304529759771,182.0,56.6,CROSSCOUNTRY,ANYTIME S,0.0,0.4781897919041523,0.310989010989011,0.6503464027340533,1.5376420870416205
Blantyre,BLT,1.0,55.7973304780703,-4.08697164977011,53.3782206064748,-1.46211098820667,318.24105522283236,325.0,120.55,CROSSCOUNTRY,ANYTIME S,0.0,0.3788009058592107,0.3709230769230769,0.9792032468394842,1.0212384438344544
Blaydon,BLO,1.0,54.9657896857216,-1.71258088882198,53.3782206064748,-1.46211098820667,177.46452323029746,176.0,70.9,CROSSCOUNTRY,ANYTIME S,0.0,0.3995164707257708,0.40284090909090914,1.0083211547175992,0.9917475154828724
Bleasby,BSB,1.0,53.0413649497003,-0.943687538181265,53.3782206064748,-1.46211098820667,51.03988605904497,106.0,14.6,EAST MIDLANDS TRAINS,ANYTIME DAY S,0.0,0.28605079531545463,0.13773584905660377,0.48150835904759404,2.0768071440711093
Bletchley,BLY,1.0,51.9953339717924,-0.736320506839459,53.3782206064748,-1.46211098820667,161.5227566812558,210.0,138.0,CROSSCOUNTRY,ANYTIME S,0.0,0.8543687764834592,0.6571428571428571,0.7691559841964561,1.3001263989965683
Bloxwich,BLX,1.0,52.6182018754768,-2.01147807238452,53.3782206064748,-1.46211098820667,92.27159294682036,156.0,52.05,CROSSCOUNTRY,ANYTIME S,0.0,0.5640956044835858,0.33365384615384613,0.5914845701719254,1.6906611777029659
Bloxwich North,BWN,1.0,52.6254378492086,-2.01768461058018,53.3782206064748,-1.46211098820667,91.70150709955809,158.0,52.05,CROSSCOUNTRY,ANYTIME S,0.0,0.5676024489269362,0.3294303797468354,0.580389285440241,1.7229814972229764
Blundellsands & Crosby,BLN,2.0,53.4876867000616,-3.03986028592851,53.3782206064748,-1.46211098820667,105.56616350641929,190.0,29.6,TRANSPENNINE EXPRESS,ANYTIME DAY S,325.0,0.2803928741637,0.15578947368421053,0.555611386875891,1.7998191246994255
Blythe Bridge,BYB,1.0,52.9681439666743,-2.06696136521393,53.3782206064748,-1.46211098820667,60.97971437317871,125.0,35.5,EAST MIDLANDS TRAINS,ANYTIME S,0.0,0.5821608114257469,0.284,0.48783771498542966,2.0498620120624893
Bodmin Parkway,BOD,1.0,50.4458686645733,-4.66292953056928,53.3782206064748,-1.46211098820667,393.5667127274649,385.0,212.0,LONDON NORTH EASTERN RAILWAY,ANYTIME S,0.0,0.538663441658504,0.5506493506493506,1.0222512018895191,0.97823313697417
Bodorgan,BOR,2.0,53.2043074000119,-4.41800424551237,53.3782206064748,-1.46211098820667,198.04591785874263,243.0,51.0,TRANSPENNINE EXPRESS,ANYTIME DAY S,92.0,0.25751603744933554,0.20987654320987653,0.8150037771964718,1.2269881784350694
Bognor Regis,BOG,2.0,50.7865584395345,-0.676178286011514,53.3782206064748,-1.46211098820667,293.35608884442996,289.0,141.5,LONDON NORTH EASTERN RAILWAY,ANYTIME S,0.0,0.4823489451246367,0.48961937716262977,1.0150729717800344,0.985150849053145
Bogston,BGS,1.0,55.9370473872407,-4.71140217696609,53.3782206064748,-1.46211098820667,353.6252360574734,362.0,167.4,CROSSCOUNTRY,ANYTIME S,0.0,0.47338250478479177,0.46243093922651934,0.9768652929764459,1.0236825969659176
Bolton,BON,1.0,53.5741455351566,-2.42582497565139,53.3782206064748,-1.46211098820667,67.59974776677032,86.0,22.3,TRANSPENNINE EXPRESS,ANYTIME DAY S,92.0,0.3298828876838192,0.2593023255813954,0.7860435786833758,1.2721940960003788
Bolton-Upon-Dearne,BTD,0.0,53.5189470302023,-1.31154616002462,53.3782206064748,-1.46211098820667,18.584123426020817,26.0,4.9,SOUTH YORKSHIRE PTE,ANYTIME DAY S,1000.0,0.2636659199722704,0.18846153846153849,0.7147739779238775,1.3990436569957203
Bookham,BKA,1.0,51.2887375770933,-0.384020684769355,53.3782206064748,-1.46211098820667,243.83459609825283,587.0,121.5,LONDON NORTH EASTERN RAILWAY,ANYTIME S,0.0,0.49828860196295416,0.206984667802385,0.41539113475000483,2.4073696242983877
Bootle (Cumbria),BOC,2.0,54.2913058315169,-3.39386227213438,53.3782206064748,-1.46211098820667,162.78529923048382,304.0,60.5,TRANSPENNINE EXPRESS,ANYTIME DAY S,0.0,0.3716551819236422,0.19901315789473684,0.5354779579950125,1.8674905009055742
Bootle New Strand,BNW,2.0,53.4533917659639,-2.99474773972908,53.3782206064748,-1.46211098820667,102.24654157092145,169.0,29.6,TRANSPENNINE EXPRESS,ANYTIME DAY S,325.0,0.28949634427946397,0.17514792899408285,0.6050091217214287,1.6528676413253178
Bootle Oriel Road,BOT,2.0,53.4466239167649,-2.9957338918952,53.3782206064748,-1.46211098820667,102.26113179278866,163.0,29.6,TRANSPENNINE EXPRESS,ANYTIME DAY S,325.0,0.2894550400632996,0.18159509202453988,0.627368906704225,1.5939584976458727
Bordesley,BBS,2.0,52.4718743800827,-1.87776885469942,53.3782206064748,-1.46211098820667,104.66427497402518,135.0,47.9,CROSSCOUNTRY,ANYTIME S,0.0,0.4576537697498738,0.3548148148148148,0.7752909257335199,1.2898383907355526
Borough Green & Wrotham,BRG,2.0,51.2932170234776,0.306244959659036,53.3782206064748,-1.46211098820667,261.4296425752326,247.0,127.0,LONDON NORTH EASTERN RAILWAY,ANYTIME S,0.0,0.48579035930653014,0.5141700404858299,1.0584196055677433,0.9448048720371098
Borth,BRH,1.0,52.4910318901744,-4.05017708151719,53.3782206064748,-1.46211098820667,200.05734052810527,301.0,74.7,TRANSPORT FOR WALES RAIL,ANYTIME DAY S,1000.0,0.37339294725606775,0.24817275747508308,0.6646423273358979,1.5045686361991486
Bosham,BOH,2.0,50.8427472866996,-0.847431235664145,53.3782206064748,-1.46211098820667,285.24312353194966,275.0,141.5,LONDON NORTH EASTERN RAILWAY,ANYTIME S,0.0,0.49606804976720426,0.5145454545454545,1.0372477219343623,0.9640898493708917
Boston,BSN,1.0,52.9780883520384,-0.03100323679323,53.3782206064748,-1.46211098820667,105.53663340578922,169.0,29.6,EAST MIDLANDS TRAINS,ANYTIME S,0.0,0.28047133061548174,0.17514792899408285,0.6244771207443149,1.6013396916897435
Botley,BOE,2.0,50.9164546156522,-1.25923650546392,53.3782206064748,-1.46211098820667,274.272449415522,290.0,146.5,CROSSCOUNTRY,ANYTIME S,0.0,0.534140415168178,0.5051724137931034,0.9457670669500757,1.057342801356803
Bottesford,BTF,1.0,52.9446141670485,-0.794842711685305,53.3782206064748,-1.46211098820667,65.73047245233293,136.0,29.1,EAST MIDLANDS TRAINS,ANYTIME S,0.0,0.44271703692839004,0.21397058823529413,0.48331229744362453,2.0690555677752935
Bourne End,BNE,2.0,51.5771173647136,-0.710473547391366,53.3782206064748,-1.46211098820667,206.82133804626633,590.0,126.0,CROSSCOUNTRY,ANYTIME S,0.0,0.6092214719731364,0.2135593220338983,0.35054464075638364,2.852703717969448
Bournemouth,BMH,1.0,50.7272746595869,-1.86450316465566,53.3782206064748,-1.46211098820667,296.2536355142674,305.0,162.5,CROSSCOUNTRY,ANYTIME S,0.0,0.5485164754785739,0.5327868852459017,0.9713233951287455,1.0295232308982463
Bournville,BRV,1.0,52.4269645832552,-1.92642405915734,53.3782206064748,-1.46211098820667,110.37347937520613,135.0,47.9,CROSSCOUNTRY,ANYTIME S,0.0,0.4339810638492934,0.3548148148148148,0.8175813287052306,1.2231199085522884
Bow Brickhill,BWB,1.0,52.0043001848605,-0.696077833880482,53.3782206064748,-1.46211098820667,161.42317835880738,200.0,138.0,CROSSCOUNTRY,ANYTIME S,0.0,0.8548958173358294,0.69,0.8071158917940369,1.2389794454142455
Bowes Park,BOP,2.0,51.6070103763875,-0.120581954633459,53.3782206064748,-1.46211098820667,217.1279759208923,196.0,108.0,LONDON NORTH EASTERN RAILWAY,ANYTIME S,0.0,0.4974025090131562,0.5510204081632653,1.1077957955147566,0.9026934422831353
Bowling,BWG,2.0,55.9310849001239,-4.49384261915191,53.3782206064748,-1.46211098820667,344.9575640917136,350.0,163.7,CROSSCOUNTRY,ANYTIME S,0.0,0.4745511246608791,0.4677142857142857,0.9855930402620389,1.0146175542535596
Box Hill & Westhumble,BXW,2.0,51.2540106794359,-0.328489952956063,53.3782206064748,-1.46211098820667,248.67976822479093,248.0,126.0,LONDON NORTH EASTERN RAILWAY,ANYTIME S,0.0,0.5066757175280294,0.5080645161290323,1.002741000906415,0.9972664916424706
Bracknell,BCE,1.0,51.4130914141393,-0.751703650172948,53.3782206064748,-1.46211098820667,223.94956370229878,268.0,127.0,CROSSCOUNTRY,ANYTIME S,0.0,0.5670919733017384,0.47388059701492535,0.8356327003817119,1.196698022400519
Bradford Forster Square,BDQ,1.0,53.7969256219995,-1.75296173787813,53.3782206064748,-1.46211098820667,50.42415403189169,96.0,18.6,LONDON NORTH EASTERN RAILWAY,ANYTIME DAY S,0.0,0.3688708389284248,0.19375,0.5252516044988718,1.9038494912434827
Bradford Interchange,BDI,1.0,53.7910764525054,-1.74959589964649,53.3782206064748,-1.46211098820667,49.73788558216666,74.0,18.6,LONDON NORTH EASTERN RAILWAY,ANYTIME DAY S,0.0,0.37396040829425536,0.2513513513513514,0.6721335889481981,1.4877994738588654
Bradford-on-Avon,BOA,1.0,51.3449161602034,-2.25232693866303,53.3782206064748,-1.46211098820667,232.56619241926026,263.0,175.5,LONDON NORTH EASTERN RAILWAY,ANYTIME S,0.0,0.7546238693352996,0.6673003802281369,0.8842821004534611,1.1308608412261185
Brading,BDN,4.0,50.6783720718463,-1.13872244962043,53.3782206064748,-1.46211098820667,301.2242744992026,357.0,165.5,LONDON NORTH EASTERN RAILWAY,ANYTIME S,981.0,0.5494245119359997,0.4635854341736695,0.8437654747876823,1.1851634487078666
Braintree,BTR,2.0,51.8753890748181,0.556686982906197,53.3782206064748,-1.46211098820667,215.97888320951515,265.0,138.0,LONDON NORTH EASTERN RAILWAY,ANYTIME S,0.0,0.6389513546383607,0.5207547169811321,0.8150146536208118,1.226971804196852
Braintree Freeport,BTP,2.0,51.8694135093739,0.568434688069829,53.3782206064748,-1.46211098820667,217.00285357758523,263.0,138.0,LONDON NORTH EASTERN RAILWAY,ANYTIME S,0.0,0.6359363378171464,0.5247148288973384,0.8251059071391074,1.2119656293181849
Bramhall,BML,1.0,53.360614520234,-2.16359288123925,53.3782206064748,-1.46211098820667,46.7334917575003,64.0,19.9,TRANSPENNINE EXPRESS,ANYTIME DAY S,0.0,0.4258188132669592,0.3109375,0.7302108087109422,1.3694675401550447
Bramley (Hants),BMY,1.0,51.3302932744388,-1.06100278415591,53.3782206064748,-1.46211098820667,229.51303090319448,246.0,138.0,CROSSCOUNTRY,ANYTIME S,0.0,0.6012730495385534,0.5609756097560976,0.9329798004194897,1.0718345665687257
Bramley (W Yorks),BLE,1.0,53.8053497570895,-1.63720635437646,53.3782206064748,-1.46211098820667,48.93171858665963,71.0,17.4,LONDON NORTH EASTERN RAILWAY,ANYTIME DAY S,0.0,0.3555975653948072,0.24507042253521125,0.689179135023375,1.4510015599443282
Brampton (Cumbria),BMP,1.0,54.9323930102284,-2.70294760254176,53.3782206064748,-1.46211098820667,191.03625177945273,203.0,75.3,TRANSPENNINE EXPRESS,ANYTIME DAY S,0.0,0.3941660250271882,0.370935960591133,0.9410652797017376,1.0626255389179178
Brampton (Suffolk),BRP,3.0,52.3954307722651,1.54381046672808,53.3782206064748,-1.46211098820667,229.97693047461163,352.0,148.0,LONDON NORTH EASTERN RAILWAY,ANYTIME S,0.0,0.6435428096834195,0.42045454545454547,0.6533435524846921,1.5305883041119168
Branchton,BCN,1.0,55.9406016000061,-4.80354935893801,53.3782206064748,-1.46211098820667,357.488310605475,405.0,167.4,CROSSCOUNTRY,ANYTIME S,0.0,0.4682670594640591,0.41333333333333333,0.8826871866801852,1.1329041761227236
Brandon,BND,1.0,52.4540047306678,0.624731734521936,53.3782206064748,-1.46211098820667,174.01082710465369,187.0,70.3,EAST MIDLANDS TRAINS,ANYTIME S,700.0,0.4039978498448268,0.37593582887700533,0.9305391823778272,1.0746457741249305
Branksome,BSM,2.0,50.7269660330633,-1.91975842787338,53.3782206064748,-1.46211098820667,296.66455334243204,353.0,162.5,CROSSCOUNTRY,ANYTIME S,0.0,0.5477567109692089,0.4603399433427762,0.8404094995536319,1.1898961167515738
Braystones (Cumbria),BYS,2.0,54.4393640536404,-3.54182643942065,53.3782206064748,-1.46211098820667,180.62491043785252,428.0,60.5,TRANSPENNINE EXPRESS,ANYTIME DAY S,0.0,0.3349482629685023,0.1413551401869159,0.4220208187800292,2.3695513479424624
Bredbury,BDY,0.0,53.4231550957567,-2.11048830300964,53.3782206064748,-1.46211098820667,43.4150179283398,60.0,13.5,NORTHERN,ANYTIME DAY S,0.0,0.31095230738549745,0.225,0.7235836321389967,1.3820102550466553
Breich,BRC,1.0,55.8273164832767,-3.66812586892786,53.3782206064748,-1.46211098820667,307.61159116159234,287.0,120.55,CROSSCOUNTRY,ANYTIME S,0.0,0.39189030408374154,0.4200348432055749,1.071817390806942,0.9329947513233829
Brentford,BFD,2.0,51.4875457097478,-0.3096509962364,53.3782206064748,-1.46211098820667,224.50518798761172,211.0,117.0,LONDON NORTH EASTERN RAILWAY,ANYTIME S,0.0,0.5211460859713233,0.5545023696682464,1.0640056302730414,0.9398446507687968
Brentwood,BRE,2.0,51.6136030493508,0.2995857793073,53.3782206064748,-1.46211098820667,229.92542538805043,218.0,126.0,LONDON NORTH EASTERN RAILWAY,ANYTIME S,0.0,0.5480037702978994,0.5779816513761468,1.0547037861837176,0.9481335073408101
Bricket Wood,BWO,2.0,51.7054267834401,-0.359115040469,53.3782206064748,-1.46211098820667,200.6172880204363,237.0,126.0,LONDON NORTH EASTERN RAILWAY,ANYTIME S,0.0,0.6280615257203793,0.5316455696202531,0.846486447343613,1.1813538221883326
Bridge of Allan,BEA,1.0,56.1566398048563,-3.95722936202684,53.3782206064748,-1.46211098820667,348.44468492742976,292.0,163.2,CROSSCOUNTRY,ANYTIME S,0.0,0.4683670236898275,0.558904109589041,1.1933037155048964,0.8380096257195444
Bridge of Orchy,BRO,2.0,56.5158728605762,-4.76299400728156,53.3782206064748,-1.46211098820667,408.23432890679555,466.0,180.95,CROSSCOUNTRY,ANYTIME S,0.0,0.4432503275375278,0.3883047210300429,0.8760393324180162,1.141501257985565
Bridgend,BGN,1.0,51.5069776497295,-3.57527638119945,53.3782206064748,-1.46211098820667,252.96651796091035,288.0,59.7,CROSSCOUNTRY,ANYTIME S,700.0,0.23599961165305341,0.20729166666666668,0.8783559651420498,1.1384905888790515
Bridgeton,BDG,1.0,55.8489676845822,-4.22605724682491,53.3782206064748,-1.46211098820667,327.86198753516754,319.0,163.7,CROSSCOUNTRY,ANYTIME S,0.0,0.4992954542570782,0.5131661442006269,1.027780525188613,0.97297037207091
Bridgwater,BWT,1.0,51.1278595271724,-2.99040597303838,53.3782206064748,-1.46211098820667,271.2657767868387,271.0,200.0,LONDON NORTH EASTERN RAILWAY,ANYTIME S,0.0,0.7372843060743356,0.7380073800738007,1.0009807261506964,0.9990202347307247
Bridlington,BDT,0.0,54.0841300013586,-0.198720390714093,53.3782206064748,-1.46211098820667,114.56202352785134,131.0,45.0,NORTHERN,ANYTIME DAY S,0.0,0.39280032435059065,0.3435114503816794,0.8745192635713842,1.1434853886650527
Brierfield,BRF,2.0,53.8239823807197,-2.23649020577414,53.3782206064748,-1.46211098820667,71.3395481993975,209.0,20.8,TRANSPENNINE EXPRESS,ANYTIME DAY S,325.0,0.29156338279383254,0.09952153110047847,0.34133755119328946,2.929651298264952
Brigg,BGG,0.0,53.5491442686681,-0.486124757673641,53.3782206064748,-1.46211098820667,67.5539054884598,89.0,13.5,NORTHERN,ANYTIME DAY S,0.0,0.19984040748474857,0.15168539325842698,0.7590326459377507,1.3174663900846386
Brighouse,BGH,1.0,53.6981985445311,-1.77943904000537,53.3782206064748,-1.46211098820667,41.362526504356524,147.0,19.9,LONDON NORTH EASTERN RAILWAY,ANYTIME DAY S,0.0,0.4811118101768765,0.13537414965986394,0.2813777313221532,3.5539415123618516
Brighton (East Sussex),BTN,1.0,50.8290032740444,-0.141280362604851,53.3782206064748,-1.46211098820667,297.7238484691079,237.0,140.0,LONDON NORTH EASTERN RAILWAY,ANYTIME S,0.0,0.4702344159524947,0.5907172995780591,1.2562187699118477,0.7960396898624376
Brimsdown,BMD,2.0,51.6555817179022,-0.0308174334464399,53.3782206064748,-1.46211098820667,214.89768365176982,198.0,108.0,LONDON NORTH EASTERN RAILWAY,ANYTIME S,0.0,0.5025647469286277,0.5454545454545454,1.0853418366251002,0.9213687027024842
Brinnington,BNT,0.0,53.4321182782686,-2.13512015019042,53.3782206064748,-1.46211098820667,45.159824264253224,63.0,13.5,NORTHERN,ANYTIME DAY S,0.0,0.29893827577814736,0.21428571428571427,0.7168226073690988,1.3950452869646877
Bristol Parkway,BPW,0.0,51.5138036668802,-2.54216343130652,53.3782206064748,-1.46211098820667,220.07138603667207,180.0,180.5,CROSSCOUNTRY,ANYTIME S,0.0,0.8201884090915935,1.0027777777777778,1.2226188113148448,0.8179164190387083
Bristol Temple Meads,BRI,0.0,51.449146420501,-2.58131562733598,53.3782206064748,-1.46211098820667,227.7588747955015,190.0,180.5,CROSSCOUNTRY,ANYTIME S,0.0,0.7925047933349075,0.95,1.1987309199763236,0.8342155719314817
Brithdir,BHD,2.0,51.7103060616454,-3.22872077880337,53.3782206064748,-1.46211098820667,220.91885453205578,313.0,58.6,CROSSCOUNTRY,ANYTIME S,700.0,0.2652557660781145,0.18722044728434506,0.7058110368436287,1.4168098085742296
Briton Ferry,BNF,1.0,51.6379005035521,-3.81925304025098,53.3782206064748,-1.46211098820667,251.20364781947907,328.0,59.7,CROSSCOUNTRY,ANYTIME S,700.0,0.2376557845326428,0.18201219512195121,0.7658647799374362,1.305713523060416
Brixton,BRX,2.0,51.4632974069132,-0.114183479348404,53.3782206064748,-1.46211098820667,231.9676885256185,218.0,106.1,EAST MIDLANDS TRAINS,ANYTIME S,129.0,0.45739128873667384,0.486697247706422,1.0640719657138464,0.9397860597982554
Broad Green,BGE,1.0,53.4065063198581,-2.8934843782564,53.3782206064748,-1.46211098820667,95.27540677107649,139.0,29.6,TRANSPENNINE EXPRESS,ANYTIME DAY S,325.0,0.3106782852275988,0.2129496402877698,0.6854345810868813,1.458928434007981
Broadbottom,BDB,1.0,53.4409753914717,-2.01652101691897,53.3782206064748,-1.46211098820667,37.523941378658215,102.0,20.7,TRANSPENNINE EXPRESS,ANYTIME DAY S,0.0,0.551647807758626,0.20294117647058824,0.36788177822213936,2.7182645599700415
Broadstairs,BSR,1.0,51.3606706129939,1.43356042841681,53.3782206064748,-1.46211098820667,298.7811249179566,266.0,146.2,EAST MIDLANDS TRAINS,ANYTIME S,129.0,0.4893214055611631,0.5496240601503759,1.1232373117216414,0.8902838158636758
Brockenhurst,BCU,1.0,50.8168418133325,-1.57353117285741,53.3782206064748,-1.46211098820667,285.10463093597133,290.0,156.5,CROSSCOUNTRY,ANYTIME S,0.0,0.5489212836923252,0.5396551724137931,0.9831194170205908,1.0171704298452033
Brockholes,BHS,0.0,53.5969730380642,-1.76969142002127,53.3782206064748,-1.46211098820667,31.77377262851354,75.0,19.9,LONDON NORTH EASTERN RAILWAY,ANYTIME DAY S,0.0,0.6263027130162658,0.2653333333333333,0.42365030171351387,2.360437360614067
Brockley,BCY,2.0,51.4646472014469,-0.0375366925196268,53.3782206064748,-1.46211098820667,233.93948749697373,202.0,106.1,EAST MIDLANDS TRAINS,ANYTIME S,129.0,0.45353608805085766,0.5252475247524753,1.1581162747374938,0.8634711572693049
Bromborough,BOM,1.0,53.3218495381578,-2.98689585549247,53.3782206064748,-1.46211098820667,101.73165891251817,167.0,30.4,TRANSPENNINE EXPRESS,ANYTIME DAY S,92.0,0.2988253639522559,0.18203592814371256,0.6091716102545999,1.6415735453956164
Bromborough Rake,BMR,1.0,53.3299093778849,-2.98946942122466,53.3782206064748,-1.46211098820667,101.8418435786248,150.0,30.4,TRANSPENNINE EXPRESS,ANYTIME DAY S,92.0,0.29850205899434973,0.20266666666666666,0.6789456238574987,1.4728720016168573
Bromley Cross (Lancs),BMC,2.0,53.6140430093272,-2.41089911446368,53.3782206064748,-1.46211098820667,68.21676070561404,117.0,22.3,TRANSPENNINE EXPRESS,ANYTIME DAY S,92.0,0.3268991340153854,0.19059829059829062,0.58304923680012,1.7151210170313944
Bromley North,BMN,2.0,51.4083259856208,0.0169926357417391,53.3782206064748,-1.46211098820667,241.20612397431287,220.0,106.1,EAST MIDLANDS TRAINS,ANYTIME S,129.0,0.4398727455663566,0.48227272727272724,1.096391472610513,0.9120829785541796
Bromley South,BMS,1.0,51.3999745779484,0.0173440284479178,53.3782206064748,-1.46211098820667,242.06460212721024,202.0,106.1,EAST MIDLANDS TRAINS,ANYTIME S,129.0,0.4383127440675615,0.5252475247524753,1.1983396144911398,0.8344879764528503
Bromsgrove,BMV,1.0,52.3222879772082,-2.04734524157192,53.3782206064748,-1.46211098820667,123.94465307376785,152.0,66.2,CROSSCOUNTRY,ANYTIME S,0.0,0.534109365416513,0.4355263157894737,0.8154253491695254,1.226353829959365
Brondesbury,BSY,3.0,51.5451643215911,-0.202308734122339,53.3782206064748,-1.46211098820667,221.21044069009952,222.0,117.0,LONDON NORTH EASTERN RAILWAY,ANYTIME S,0.0,0.5289081276408146,0.527027027027027,0.9964434265319798,1.0035692678312893
Brondesbury Park,BSP,3.0,51.5406977630272,-0.210127665126915,53.3782206064748,-1.46211098820667,221.46573066299567,224.0,117.0,LONDON NORTH EASTERN RAILWAY,ANYTIME S,0.0,0.5282984398974072,0.5223214285714286,0.9886862976026592,1.0114431669830704
Brookmans Park,BPK,2.0,51.7210604040222,-0.204548729285783,53.3782206064748,-1.46211098820667,203.17209702881294,204.0,108.0,LONDON NORTH EASTERN RAILWAY,ANYTIME S,0.0,0.5315690568704615,0.5294117647058824,0.9959416521020242,1.0040748851997607
Brookwood,BKO,2.0,51.3037572593507,-0.635747900032551,53.3782206064748,-1.46211098820667,237.60041658878922,242.0,126.0,LONDON NORTH EASTERN RAILWAY,ANYTIME S,0.0,0.530302100513847,0.5206611570247934,0.9818199032594596,1.018516732732944
Broome,BME,2.0,52.4227745962921,-2.88520796216339,53.3782206064748,-1.46211098820667,143.0875715673676,196.0,55.4,TRANSPORT FOR WALES RAIL,ANYTIME DAY S,1000.0,0.3871754855656133,0.2826530612244898,0.7300386304457531,1.3697905265498234
Broomfleet,BMF,0.0,53.7402076992399,-0.671828400321333,53.3782206064748,-1.46211098820667,66.07252893289369,89.0,21.0,NORTHERN,ANYTIME DAY S,0.0,0.31783254461666766,0.23595505617977527,0.7423879655381314,1.3470045938515915
Brora,BRA,2.0,58.012954677959,-3.85228367382381,53.3782206064748,-1.46211098820667,537.3688751529234,637.0,248.45,CROSSCOUNTRY,ANYTIME S,0.0,0.4623453487686584,0.3900313971742543,0.8435932106011356,1.185405462530229
Brough,BUH,0.0,53.726959736948,-0.578724236728498,53.3782206064748,-1.46211098820667,70.24428434512372,95.0,21.2,NORTHERN,ANYTIME DAY S,0.0,0.30180391469062895,0.2231578947368421,0.7394135194223549,1.3524232026231013
Broughty Ferry,BYF,1.0,56.4671632427311,-2.87315275743822,53.3782206064748,-1.46211098820667,355.54965442562366,332.0,175.55,CROSSCOUNTRY,ANYTIME S,0.0,0.4937425696098455,0.5287650602409639,1.0709326940530832,0.9337654976386711
Broxbourne,BXB,2.0,51.7469087203036,-0.0110867237416249,53.3782206064748,-1.46211098820667,206.47261203083792,209.0,121.5,LONDON NORTH EASTERN RAILWAY,ANYTIME S,0.0,0.58845577050119,0.5813397129186603,0.9879072345973107,1.0122407904094544
Bruce Grove,BCV,2.0,51.5939575362971,-0.0698670703254643,53.3782206064748,-1.46211098820667,219.91128321870622,187.0,108.0,LONDON NORTH EASTERN RAILWAY,ANYTIME S,0.0,0.49110713383720206,0.5775401069518716,1.175996166944953,0.8503429076625628
Brundall,BDA,1.0,52.6194794445227,1.43929868679443,53.3782206064748,-1.46211098820667,212.29035519600723,231.0,83.8,EAST MIDLANDS TRAINS,ANYTIME S,700.0,0.39474237971210535,0.36277056277056274,0.9190058666493819,1.0881323354832497
Brundall Gardens,BGA,1.0,52.623439277351,1.41841612253682,53.3782206064748,-1.46211098820667,210.82107484032963,228.0,83.8,EAST MIDLANDS TRAINS,ANYTIME S,700.0,0.3974934672136926,0.3675438596491228,0.9246538370189896,1.0814858057842711
Brunstane,BSU,1.0,55.9425140850115,-3.10098653970798,53.3782206064748,-1.46211098820667,304.39094117730446,249.0,120.55,CROSSCOUNTRY,ANYTIME S,0.0,0.3960367530444374,0.48413654618473895,1.222453579025319,0.8180269722776019
Brunswick,BRW,1.0,53.3832435421687,-2.97607735757102,53.3782206064748,-1.46211098820667,100.74676945978459,125.0,29.6,TRANSPENNINE EXPRESS,ANYTIME DAY S,325.0,0.29380594691739004,0.2368,0.8059741556782767,1.24073457313087
Bruton,BRU,1.0,51.1116412233567,-2.44707381432238,53.3782206064748,-1.46211098820667,261.01841906401927,311.0,186.0,LONDON NORTH EASTERN RAILWAY,ANYTIME S,0.0,0.7125933896426685,0.5980707395498392,0.8392875211061713,1.1914867966605909
Bryn,BYN,2.0,53.4998691660173,-2.6472139954436,53.3782206064748,-1.46211098820667,79.90933879502809,132.0,23.9,TRANSPENNINE EXPRESS,ANYTIME DAY S,325.0,0.2990889470541714,0.18106060606060606,0.6053737787502128,1.651872008834754
Buckenham (Norfolk),BUC,-999.0,52.5977342869752,1.47032522512213,53.3782206064748,-1.46211098820667,215.21282379274197,-999.0,89.6,EAST MIDLANDS TRAINS,ANYTIME S,700.0,0.4163320680476186,-999.0,-999.0,-999.0
Buckley,BCK,2.0,53.163039091322,-3.05592619131988,53.3782206064748,-1.46211098820667,108.99483786938325,245.0,33.5,TRANSPENNINE EXPRESS,ANYTIME DAY S,92.0,0.3073540055185511,0.13673469387755102,0.4448768892627888,2.2478128761804483
Bucknell,BUK,2.0,52.3573820377697,-2.94737831871819,53.3782206064748,-1.46211098820667,151.35319086076098,205.0,55.4,TRANSPORT FOR WALES RAIL,ANYTIME DAY S,1000.0,0.3660312655777825,0.2702439024390244,0.738308248101273,1.3544478238889062
Buckshaw Parkway,BSV,1.0,53.6733436562841,-2.6608302706882,53.3782206064748,-1.46211098820667,86.01449726672726,122.0,27.1,TRANSPENNINE EXPRESS,ANYTIME DAY S,325.0,0.3150631679676516,0.22213114754098362,0.7050368628420267,1.418365553212306
Bugle,BGL,2.0,50.4003548175137,-4.79210144517706,53.3782206064748,-1.46211098820667,402.8190367595079,488.0,217.5,LONDON NORTH EASTERN RAILWAY,ANYTIME S,0.0,0.5399446901757338,0.4456967213114754,0.8254488458186637,1.2114621094517612
Builth Road,BHR,2.0,52.1693260878635,-3.42703322967269,53.3782206064748,-1.46211098820667,188.8850291662999,281.0,68.5,TRANSPORT FOR WALES RAIL,ANYTIME DAY S,1000.0,0.3626544692416602,0.24377224199288255,0.6721887158943056,1.4876774577650589
Bulwell,BLW,1.0,52.9996957837852,-1.19623056375416,53.3782206064748,-1.46211098820667,45.72142419113574,99.0,14.6,EAST MIDLANDS TRAINS,ANYTIME DAY S,0.0,0.31932513604487806,0.14747474747474748,0.4618325675872297,2.165286881400201
Bures,BUE,3.0,51.9711590332091,0.769143780923498,53.3782206064748,-1.46211098820667,217.45288801361303,286.0,140.0,LONDON NORTH EASTERN RAILWAY,ANYTIME S,0.0,0.6438176162150382,0.48951048951048953,0.7603247832643812,1.3152274159821495
Burgess Hill,BUG,1.0,50.9536546008005,-0.127412852764647,53.3782206064748,-1.46211098820667,284.8073633002353,236.0,126.3,EAST MIDLANDS TRAINS,ANYTIME S,790.0,0.4434576358436996,0.5351694915254237,1.206810861441675,0.8286302617506976
Burley Park,BUY,1.0,53.8120311080587,-1.57776768947798,53.3782206064748,-1.46211098820667,48.885474165912065,78.0,17.4,LONDON NORTH EASTERN RAILWAY,ANYTIME DAY S,0.0,0.3559339516876989,0.22307692307692306,0.6267368482809239,1.5955659903241677
Burley-in-Wharfedale,BUW,1.0,53.9081516997075,-1.75337211508043,53.3782206064748,-1.46211098820667,62.046149410214355,96.0,21.55,CROSSCOUNTRY,ANYTIME DAY S,0.0,0.34732211756645015,0.22447916666666667,0.6463140563563995,1.5472354193215412
Burnage,BNA,0.0,53.4211687602571,-2.21567840315285,53.3782206064748,-1.46211098820667,50.35112048133871,70.0,21.6,TRANSPENNINE EXPRESS,ANYTIME DAY S,0.0,0.4289874742311933,0.3085714285714286,0.7193017211619815,1.390237185008497
Burneside (Cumbria),BUD,1.0,54.3549826054845,-2.76667730640148,53.3782206064748,-1.46211098820667,138.50296427345043,203.0,43.6,TRANSPENNINE EXPRESS,ANYTIME DAY S,307.0,0.3147947065877901,0.21477832512315273,0.6822806121844849,1.4656726017734263
Burnham (Bucks),BNM,2.0,51.5235048795581,-0.646373823188634,53.3782206064748,-1.46211098820667,213.70262504886932,242.0,121.5,CROSSCOUNTRY,ANYTIME S,0.0,0.5685470638098876,0.5020661157024794,0.8830686985490468,1.1324147279176362
Burnham-on-Crouch,BUU,2.0,51.6336547723703,0.814027782561537,53.3782206064748,-1.46211098820667,248.11204512211185,255.0,127.0,EAST MIDLANDS TRAINS,ANYTIME S,129.0,0.5118655159909514,0.4980392156862745,0.9729884122435759,1.0277614691156898
Burnley Barracks,BUB,2.0,53.7908801067712,-2.25808600820696,53.3782206064748,-1.46211098820667,69.91518488972707,190.0,20.8,TRANSPENNINE EXPRESS,ANYTIME DAY S,325.0,0.29750332539070823,0.10947368421052632,0.367974657314353,2.7175784530882
Burnley Central,BNC,2.0,53.7935141377532,-2.24497131410056,53.3782206064748,-1.46211098820667,69.45623287840742,188.0,20.8,TRANSPENNINE EXPRESS,ANYTIME DAY S,325.0,0.29946916407650886,0.11063829787234043,0.3694480472255714,2.706740521460753
Burnley Manchester Road,BYM,1.0,53.784967519749,-2.24886752625716,53.3782206064748,-1.46211098820667,69.02542010461991,162.0,20.8,TRANSPENNINE EXPRESS,ANYTIME DAY S,325.0,0.30133826014349524,0.12839506172839507,0.4260828401519748,2.34696144919453
Burnside (Strathclyde),BUI,1.0,55.8169313339993,-4.20239033426663,53.3782206064748,-1.46211098820667,324.07813078321334,358.0,163.7,CROSSCOUNTRY,ANYTIME S,0.0,0.5051251054934786,0.4572625698324022,0.9052461753721043,1.1046718861738873
Burntisland,BTS,1.0,56.0570842114504,-3.23319831966981,53.3782206064748,-1.46211098820667,319.2745777999642,283.0,127.15,CROSSCOUNTRY,ANYTIME S,0.0,0.3982465527827385,0.44929328621908127,1.1281787201412163,0.8863843840937082
Burscough Bridge,BCB,1.0,53.6052595050232,-2.84088028461687,53.3782206064748,-1.46211098820667,94.9343704679863,123.0,23.9,TRANSPENNINE EXPRESS,ANYTIME DAY S,325.0,0.2517528676093085,0.1943089430894309,0.7718241501462301,1.2956319128010436
Burscough Junction,BCJ,2.0,53.5975223038556,-2.84060569626726,53.3782206064748,-1.46211098820667,94.69926464965522,152.0,33.4,TRANSPENNINE EXPRESS,ANYTIME DAY S,325.0,0.35269545253138984,0.21973684210526315,0.623021477958258,1.605081101340457
Bursledon,BUO,1.0,50.8836886125224,-1.30503236047306,53.3782206064748,-1.46211098820667,277.7742127380232,305.0,148.0,CROSSCOUNTRY,ANYTIME S,0.0,0.5328068381192138,0.4852459016393443,0.9107351237312237,1.0980140920700014
Burton Joyce,BUJ,1.0,52.9834418843688,-1.04087761567102,53.3782206064748,-1.46211098820667,52.18572587155398,93.0,14.6,EAST MIDLANDS TRAINS,ANYTIME DAY S,0.0,0.2797699898998309,0.15698924731182795,0.5611368373285374,1.782096511005772
Burton-on-Trent,BUT,0.0,52.8058165084357,-1.64245997205794,53.3782206064748,-1.46211098820667,64.83736103544013,75.0,30.7,CROSSCOUNTRY,ANYTIME S,0.0,0.47349243568410143,0.4093333333333333,0.8644981471392017,1.1567404780556225
Bury St Edmunds,BSE,1.0,52.2537604920335,0.713306656862091,53.3782206064748,-1.46211098820667,192.7820768614397,239.0,74.9,EAST MIDLANDS TRAINS,ANYTIME S,700.0,0.38852159505384765,0.31338912133891217,0.8066195684579066,1.2397418053120104
Busby,BUS,1.0,55.7803445376612,-4.26220173231044,53.3782206064748,-1.46211098820667,322.8691158934604,346.0,163.7,CROSSCOUNTRY,ANYTIME S,0.0,0.5070165957093813,0.47312138728323694,0.9331477337961283,1.0716416744987536
Bush Hill Park,BHK,2.0,51.6415169536941,-0.0692211146516689,53.3782206064748,-1.46211098820667,215.14330188639414,196.0,108.0,LONDON NORTH EASTERN RAILWAY,ANYTIME S,0.0,0.5019909941562072,0.5510204081632653,1.0976699075836436,0.9110206930983019
Bushey,BSH,2.0,51.6457502336329,-0.385321269560704,53.3782206064748,-1.46211098820667,206.17350325629218,209.0,121.5,LONDON NORTH EASTERN RAILWAY,ANYTIME S,0.0,0.5893094800303441,0.5813397129186603,0.9864760921353692,1.013709311327917
Butlers Lane,BUL,1.0,52.5924709448511,-1.83802031828625,53.3782206064748,-1.46211098820667,91.01409054973136,163.0,47.9,CROSSCOUNTRY,ANYTIME S,0.0,0.5262921346648712,0.2938650306748466,0.5583686536793335,1.790931481218664
Buxted,BXD,2.0,50.9900108378352,0.131438921683175,53.3782206064748,-1.46211098820667,287.2024380059465,288.0,127.0,LONDON NORTH EASTERN RAILWAY,ANYTIME S,0.0,0.4421968033480638,0.4409722222222222,0.9972306875206475,1.0027770028680503
Buxton,BUX,1.0,53.2607227045765,-1.91286358993768,53.3782206064748,-1.46211098820667,32.761255544626586,94.0,23.9,TRANSPENNINE EXPRESS,ANYTIME DAY S,0.0,0.7295202702913507,0.2542553191489362,0.34852399515560195,2.8692429040747687
Byfleet & New Haw,BFN,2.0,51.3497957278428,-0.481389767596653,53.3782206064748,-1.46211098820667,235.38444265879414,226.0,126.0,LONDON NORTH EASTERN RAILWAY,ANYTIME S,0.0,0.5352945104475134,0.5575221238938053,1.0415240825610361,0.9601314235010955
Bynea,BYE,2.0,51.6720366859549,-4.09888164715589,53.3782206064748,-1.46211098820667,260.87518058989684,370.0,69.8,CROSSCOUNTRY,ANYTIME S,700.0,0.26756090725904497,0.18864864864864864,0.7050680556483698,1.418302803522158
Cadoxton,CAD,2.0,51.4122831697514,-3.24889594393883,53.3782206064748,-1.46211098820667,250.27933027548258,263.0,58.6,CROSSCOUNTRY,ANYTIME S,700.0,0.23413839223358537,0.22281368821292777,0.9516324345075383,1.0508258900585827
Caergwrle,CGW,2.0,53.1078664074892,-3.03291327418616,53.3782206064748,-1.46211098820667,109.0945484883957,234.0,32.7,TRANSPENNINE EXPRESS,ANYTIME DAY S,92.0,0.2997400003307982,0.13974358974358975,0.4662160191811782,2.1449284427341517
Caerphilly,CPH,2.0,51.57158067131,-3.21848255919666,53.3782206064748,-1.46211098820667,233.7745947196732,262.0,58.6,CROSSCOUNTRY,ANYTIME S,700.0,0.25066881228163046,0.22366412213740458,0.8922694454949358,1.1207376931363
Caersws,CWS,1.0,52.5161279090032,-3.43249879239218,53.3782206064748,-1.46211098820667,163.53402566464285,253.0,58.1,TRANSPORT FOR WALES RAIL,ANYTIME DAY S,1000.0,0.3552777458016287,0.22964426877470356,0.6463795480815923,1.5470786521138047
Caldercruix,CAC,1.0,55.8879475461776,-3.88771190821316,53.3782206064748,-1.46211098820667,320.24312389730403,305.0,120.55,CROSSCOUNTRY,ANYTIME S,0.0,0.3764327506331038,0.39524590163934425,1.0499774554009969,0.9524014014358909
Caldicot,CDT,1.0,51.5847930591881,-2.76057390572724,53.3782206064748,-1.46211098820667,218.1849183330136,239.0,55.9,CROSSCOUNTRY,ANYTIME S,700.0,0.25620469291411035,0.23389121338912133,0.912907608087923,1.0954011020835845
Caledonian Rd & Barnsbury,CIR,2.0,51.5430392840645,-0.116729249835755,53.3782206064748,-1.46211098820667,223.74172092354323,210.0,108.0,LONDON NORTH EASTERN RAILWAY,ANYTIME S,0.0,0.4826994248287991,0.5142857142857142,1.0654367663025868,0.9385822149448871
Calstock,CSK,1.0,50.4978023671618,-4.20898850028348,53.3782206064748,-1.46211098820667,371.9601173235609,366.0,210.5,LONDON NORTH EASTERN RAILWAY,ANYTIME S,0.0,0.5659208882787026,0.575136612021858,1.0162844735616419,0.9839764613301907
Cam & Dursley,CDU,1.0,51.71762106741,-2.35908298700462,53.3782206064748,-1.46211098820667,194.54374196320327,210.0,84.55,CROSSCOUNTRY,ANYTIME S,700.0,0.43460662957738366,0.4026190476190476,0.9263987712533489,1.079448754716151
Camberley,CAM,2.0,51.3363271281171,-0.744271720142327,53.3782206064748,-1.46211098820667,232.4104131838322,254.0,129.0,CROSSCOUNTRY,ANYTIME S,0.0,0.5550525823383115,0.5078740157480315,0.9150016267080008,1.0928942318909387
Camborne,CBN,1.0,50.2104431448962,-5.2974123155278,53.3782206064748,-1.46211098820667,440.593140253428,457.0,217.5,LONDON NORTH EASTERN RAILWAY,ANYTIME S,0.0,0.49365271523495485,0.4759299781181619,0.9640987751716148,1.0372381189074684
Cambridge,CBG,1.0,52.1940653655991,0.137456461171047,53.3782206064748,-1.46211098820667,170.31888346630242,198.0,74.4,EAST MIDLANDS TRAINS,ANYTIME S,54.0,0.4368276640019193,0.3757575757575758,0.8601963811429415,1.1625252348438175
Cambridge Heath,CBH,2.0,51.5319710950389,-0.0572790666047599,53.3782206064748,-1.46211098820667,226.54357121835613,200.0,108.0,LONDON NORTH EASTERN RAILWAY,ANYTIME S,0.0,0.4767294848367301,0.54,1.1327178560917808,0.882832379327278
Cambuslang,CBL,1.0,55.8196110785266,-4.17300936139383,53.3782206064748,-1.46211098820667,323.29311091452695,319.0,163.7,CROSSCOUNTRY,ANYTIME S,0.0,0.5063516495508604,0.5131661442006269,1.0134580279452254,0.9867206854412002
Camden Road,CMD,2.0,51.541789311709,-0.138700901327927,53.3782206064748,-1.46211098820667,223.26362816245665,213.0,108.0,LONDON NORTH EASTERN RAILWAY,ANYTIME S,0.0,0.4837330687890387,0.5070422535211268,1.048186047711064,0.9540291078894929
Camelon,CMO,1.0,56.0060960246981,-3.81760595611437,53.3782206064748,-1.46211098820667,329.5655058660171,272.0,162.65,CROSSCOUNTRY,ANYTIME S,0.0,0.4935285917517242,0.5979779411764706,1.2116378892132982,0.8253290928771533
Canada Water,ZCW,2.0,51.4979884652777,-0.0497198367270248,53.3782206064748,-1.46211098820667,230.2065467175265,206.0,106.1,EAST MIDLANDS TRAINS,ANYTIME S,129.0,0.4608904547366732,0.5150485436893204,1.1175075083375072,0.8948485737582912
Canley,CNL,1.0,52.3992417616656,-1.54757487164278,53.3782206064748,-1.46211098820667,109.09658995504635,164.0,48.3,CROSSCOUNTRY,ANYTIME S,0.0,0.44272694517676664,0.2945121951219512,0.6652231094819899,1.503255051945957
