Name,Code,Changes,lat,lon,terminal lat,terminal lon,linear distance,Journey time,fare,company,fare type,route code,cost per km,cost per min,speed (linear),minutes to travel 1km linear
Abbey Wood,ABW,3.0,51.4910605627019,0.121394025366647,52.7119312404429,-2.7497615909892,239.05320794681603,251.0,153.5,VIRGIN WEST COAST,ANYTIME S,0.0,0.6421164615124106,0.6115537848605578,0.9524032189116176,1.0499754517238766
Aber,ABE,1.0,51.5749691125956,-3.22982905106563,52.7119312404429,-2.7497615909892,130.70810497853182,139.0,51.4,TRANSPORT FOR WALES RAIL,ANYTIME DAY S,1000.0,0.3932426379254921,0.36978417266187047,0.9403460789822433,1.0634382620942295
Abercynon,ACY,1.0,51.6447124034837,-3.32698855170195,52.7119312404429,-2.7497615909892,125.14155622619926,161.0,51.4,TRANSPORT FOR WALES RAIL,ANYTIME DAY S,1000.0,0.4107348633821692,0.31925465838509315,0.7772767467465792,1.2865430545628258
Aberdare,ABA,1.0,51.7150618291708,-3.44308409477462,52.7119312404429,-2.7497615909892,120.62047754525389,199.0,51.4,TRANSPORT FOR WALES RAIL,ANYTIME DAY S,1000.0,0.42612996603927356,0.25829145728643216,0.6061330529912256,1.6498027868057479
Aberdeen,ABD,2.0,57.1437058328662,-2.09868538622245,52.7119312404429,-2.7497615909892,495.11036678500767,401.0,168.5,VIRGIN WEST COAST,ANYTIME S,287.0,0.3403281597478001,0.42019950124688277,1.2346891939775753,0.8099204276490674
Aberdour,AUR,2.0,56.0545955695197,-3.30056061487314,52.7119312404429,-2.7497615909892,373.7924168722458,271.0,124.5,VIRGIN WEST COAST,ANYTIME S,287.0,0.33307256750088493,0.45940959409594095,1.3793078113367003,0.7250013316685929
Aberdovey,AVY,0.0,52.5439615025967,-4.05706796158074,52.7119312404429,-2.7497615909892,90.47202126405398,100.0,21.1,TRANSPORT FOR WALES RAIL,ANYTIME DAY S,1000.0,0.23322127333064657,0.21100000000000002,0.9047202126405398,1.1053140916144386
Abererch,ABH,0.0,52.8985884658899,-4.37417647351973,52.7119312404429,-2.7497615909892,111.49808075494072,219.0,23.0,TRANSPORT FOR WALES RAIL,ANYTIME DAY S,1000.0,0.20628157762240962,0.1050228310502283,0.5091236564152544,1.9641593695351178
Abergavenny,AGV,0.0,51.8166930409601,-3.00964730040687,52.7119312404429,-2.7497615909892,101.1829126234521,72.0,31.0,TRANSPORT FOR WALES RAIL,ANYTIME DAY S,1000.0,0.3063758414957393,0.4305555555555556,1.405318230881279,0.7115825996030074
Abergele & Pensarn,AGL,1.0,53.2945771647609,-3.58262268840784,52.7119312404429,-2.7497615909892,85.6166818292109,119.0,29.1,TRANSPORT FOR WALES RAIL,ANYTIME DAY S,1000.0,0.33988703344108806,0.24453781512605044,0.7194679145311841,1.3899160474051366
Aberystwyth,AYW,0.0,52.4140498933205,-4.08189442746786,52.7119312404429,-2.7497615909892,96.22387392833494,109.0,21.5,TRANSPORT FOR WALES RAIL,ANYTIME DAY S,1000.0,0.22343727312426276,0.19724770642201836,0.8827878342049077,1.1327750125834717
Accrington,ACR,2.0,53.7529733751372,-2.36954810226505,52.7119312404429,-2.7497615909892,118.60702578082697,163.0,39.5,VIRGIN WEST COAST,ANYTIME S,0.0,0.3330325479452773,0.24233128834355827,0.727650464913049,1.3742862105083595
Achanalt,AAT,3.0,57.6096018732679,-4.91385256332031,52.7119312404429,-2.7497615909892,562.3405798428824,673.0,182.0,VIRGIN WEST COAST,ANYTIME S,287.0,0.32364728160085954,0.2704309063893016,0.8355729269582206,1.1967836292163652
Achnasheen,ACN,3.0,57.5792959197415,-5.07233352893289,52.7119312404429,-2.7497615909892,561.6503061109709,682.0,182.0,VIRGIN WEST COAST,ANYTIME S,287.0,0.32404504728257094,0.2668621700879765,0.8235341731832417,1.2142786936632604
Achnashellach,ACH,3.0,57.4820809030767,-5.33305678830677,52.7119312404429,-2.7497615909892,555.9517368879965,702.0,186.0,VIRGIN WEST COAST,ANYTIME S,287.0,0.33456141542277806,0.26495726495726496,0.7919540411509922,1.2626995356279043
Acklington,ACK,2.0,55.3070993237817,-1.65183479633575,52.7119312404429,-2.7497615909892,297.6788942703217,340.0,120.2,TRANSPENNINE EXPRESS,ANYTIME DAY S,0.0,0.40379080382785415,0.35352941176470587,0.8755261596185931,1.142170326967308
Acle,ACL,3.0,52.6346777628319,1.54391497575916,52.7119312404429,-2.7497615909892,290.52080077847654,346.0,112.3,CROSSCOUNTRY,ANYTIME S,700.0,0.3865471928312261,0.3245664739884393,0.8396554935794119,1.1909646368620146
Acocks Green,ACG,1.0,52.4493240670217,-1.81897562150643,52.7119312404429,-2.7497615909892,69.53225007560208,94.0,15.8,WEST MIDLANDS TRAINS,ANYTIME DAY S,0.0,0.22723268674350014,0.16808510638297874,0.73970478803832,1.351890667967659
Acton Bridge (Cheshire),ACB,1.0,53.2665097605329,-2.60312690733168,52.7119312404429,-2.7497615909892,62.49745160941701,96.0,15.8,TRANSPORT FOR WALES RAIL,ANYTIME DAY S,1000.0,0.2528103081505372,0.16458333333333333,0.6510151209314272,1.5360626318007322
Acton Central,ACC,3.0,51.5087150057177,-0.262970693276422,52.7119312404429,-2.7497615909892,216.6567107720245,221.0,152.5,VIRGIN WEST COAST,ANYTIME S,0.0,0.7038784972622752,0.6900452488687783,0.9803471075657217,1.0200468714423792
Acton Main Line,AML,2.0,51.5171788796431,-0.266756440210259,52.7119312404429,-2.7497615909892,215.85924401817644,557.0,114.5,VIRGIN WEST COAST,ANYTIME S,268.0,0.5304382516523524,0.20556552962298025,0.3875390377346076,2.580385206728037
Adderley Park,ADD,1.0,52.4830872932844,-1.85594463679675,52.7119312404429,-2.7497615909892,65.70026037935835,86.0,15.8,WEST MIDLANDS TRAINS,ANYTIME DAY S,0.0,0.24048610932087006,0.18372093023255814,0.7639565160390507,1.308975025417394
Addiewell,ADW,2.0,55.8434130805542,-3.60652712168835,52.7119312404429,-2.7497615909892,352.9974191292625,278.0,124.5,VIRGIN WEST COAST,ANYTIME S,287.0,0.35269379676232115,0.447841726618705,1.2697748889541816,0.7875411686740986
Addlestone,ASN,3.0,51.3730447500684,-0.48445679693337,52.7119312404429,-2.7497615909892,215.27531038039123,247.0,83.2,VIRGIN WEST COAST,ANYTIME S,268.0,0.38648184900063876,0.3368421052631579,0.8715599610542155,1.1473679892206463
Adisham,ADM,2.0,51.2411978022143,1.19908904695378,52.7119312404429,-2.7497615909892,316.8014812885232,318.0,188.5,VIRGIN WEST COAST,ANYTIME S,0.0,0.5950098441248318,0.5927672955974843,0.9962310732343496,1.00378318531404
Adlington (Cheshire),ADC,1.0,53.3195557900317,-2.13356274381038,52.7119312404429,-2.7497615909892,79.2630782968074,161.0,31.0,CROSSCOUNTRY,ANYTIME S,0.0,0.3911026503906124,0.19254658385093168,0.4923172565019093,2.0312105391254387
Adlington (Lancs),ADL,1.0,53.6132468473224,-2.6030711963325,52.7119312404429,-2.7497615909892,100.78543879529857,175.0,37.5,VIRGIN WEST COAST,ANYTIME S,0.0,0.3720775585068872,0.21428571428571427,0.5759167931159919,1.7363619396988068
Adwick,AWK,2.0,53.5723210050351,-1.180356329611,52.7119312404429,-2.7497615909892,142.111548386933,224.0,59.6,TRANSPENNINE EXPRESS,ANYTIME DAY S,0.0,0.4193888580942388,0.26607142857142857,0.6344265552988081,1.5762265807568707
Aigburth,AIG,2.0,53.3645680055959,-2.92715540113816,52.7119312404429,-2.7497615909892,73.59820021023653,101.0,28.5,TRANSPORT FOR WALES RAIL,ANYTIME DAY S,1000.0,0.3872377302513986,0.28217821782178215,0.7286950515865003,1.3723161668558337
Ainsdale,ANS,2.0,53.6020355257546,-3.04265252059266,52.7119312404429,-2.7497615909892,100.97773639601391,197.0,30.9,TRANSPORT FOR WALES RAIL,ANYTIME DAY S,1000.0,0.3060080479405535,0.15685279187817258,0.5125773421117458,1.950925095284435
Aintree,AIN,2.0,53.4739127558616,-2.95628079876913,52.7119312404429,-2.7497615909892,85.92053612431451,132.0,28.5,TRANSPORT FOR WALES RAIL,ANYTIME DAY S,1000.0,0.3317018408586819,0.2159090909090909,0.650913152456928,1.5363032629244213
Airbles,AIR,2.0,55.7828378389089,-3.99419330717581,52.7119312404429,-2.7497615909892,351.2993969111767,320.0,115.0,VIRGIN WEST COAST,ANYTIME S,287.0,0.3273560985619251,0.359375,1.0978106153474272,0.9109039264331829
Airdrie,ADR,2.0,55.8639835131324,-3.98291292517007,52.7119312404429,-2.7497615909892,359.9132537002005,286.0,131.5,VIRGIN WEST COAST,ANYTIME S,287.0,0.3653658170352806,0.4597902097902098,1.2584379500007012,0.7946359214607625
Albany Park,AYP,3.0,51.4354507399114,0.12573706592842,52.7119312404429,-2.7497615909892,242.96145161135163,261.0,153.5,VIRGIN WEST COAST,ANYTIME S,0.0,0.6317874666206027,0.5881226053639846,0.9308867877829564,1.0742444872180932
Albrighton,ALB,0.0,52.6379442676754,-2.26890024505565,52.7119312404429,-2.7497615909892,33.551441745273664,36.0,8.9,WEST MIDLANDS TRAINS,ANYTIME DAY S,0.0,0.26526430868663725,0.24722222222222223,0.9319844929242684,1.0729792261481956
Alderley Edge,ALD,1.0,53.3037821045932,-2.23679936267512,52.7119312404429,-2.7497615909892,74.32177491917034,95.0,37.05,CROSSCOUNTRY,ANYTIME S,0.0,0.49850800845773974,0.38999999999999996,0.782334472833372,1.2782256627121533
Aldermaston,AMT,2.0,51.4019618556841,-1.1374239270022,52.7119312404429,-2.7497615909892,182.95434233111214,227.0,92.8,CROSSCOUNTRY,ANYTIME S,700.0,0.5072303768119909,0.40881057268722465,0.8059662657758244,1.2407467191414003
Aldershot,AHT,3.0,51.2464179114788,-0.759859888333875,52.7119312404429,-2.7497615909892,212.7824720007746,297.0,89.3,VIRGIN WEST COAST,ANYTIME S,268.0,0.41967742530820357,0.30067340067340065,0.7164392996659077,1.3957916608794678
Aldrington,AGT,4.0,50.8363824121951,-0.183821512855377,52.7119312404429,-2.7497615909892,273.6696109825195,282.0,182.5,VIRGIN WEST COAST,ANYTIME S,0.0,0.6668624965146646,0.6471631205673759,0.9704596134131896,1.0304395836555365
Alexandra Palace,AAP,3.0,51.5979224924556,-0.120235220128854,52.7119312404429,-2.7497615909892,218.5026933819313,216.0,153.5,VIRGIN WEST COAST,ANYTIME S,0.0,0.702508502866324,0.7106481481481481,1.0115865434348672,0.9885461668998435
Alexandra Parade,AXP,3.0,55.8631759802332,-4.21064896878422,52.7119312404429,-2.7497615909892,363.4170503359067,312.0,115.0,VIRGIN WEST COAST,ANYTIME S,287.0,0.31644084913931636,0.3685897435897436,1.1647982382561113,0.858517782012754
Alexandria,ALX,3.0,55.9850887680667,-4.57748537031666,52.7119312404429,-2.7497615909892,383.19958459054106,359.0,120.2,VIRGIN WEST COAST,ANYTIME S,287.0,0.31367466154337537,0.3348189415041783,1.067408313622677,0.9368486147593323
Alfreton,ALF,1.0,53.1004322999438,-1.36969621564025,52.7119312404429,-2.7497615909892,102.42398943607985,157.0,70.9,CROSSCOUNTRY,ANYTIME S,0.0,0.692220644698153,0.4515923566878981,0.65238209831898,1.532844022815374
Allens West,ALW,2.0,54.5246233650745,-1.36111683481751,52.7119312404429,-2.7497615909892,221.67974247440907,272.0,101.2,TRANSPENNINE EXPRESS,ANYTIME DAY S,95.0,0.4565144242337914,0.3720588235294118,0.8149990532147392,1.2269952904307435
Alloa,ALO,2.0,56.1177936041036,-3.79005640302655,52.7119312404429,-2.7497615909892,385.07218479713225,298.0,159.05,CROSSCOUNTRY,ANYTIME S,0.0,0.41303944112138974,0.5337248322147652,1.2921885395876922,0.773880876794556
Alness,ASS,3.0,57.6943991747966,-4.24971726526612,52.7119312404429,-2.7497615909892,562.8076785477507,592.0,178.5,VIRGIN WEST COAST,ANYTIME S,287.0,0.31715985194195495,0.3015202702702703,0.9506886461955248,1.0518690887934865
Alnmouth,ALM,1.0,55.3927786386397,-1.63663783937358,52.7119312404429,-2.7497615909892,307.15991185631793,361.0,120.2,TRANSPENNINE EXPRESS,ANYTIME DAY S,0.0,0.3913271079991281,0.3329639889196676,0.8508584815964486,1.1752835772685961
Alresford (Essex),ALR,3.0,51.8539974379073,0.997436403040026,52.7119312404429,-2.7497615909892,272.9221254849867,327.0,141.0,VIRGIN WEST COAST,ANYTIME S,268.0,0.5166308878382099,0.43119266055045874,0.8346242369571458,1.198143973922657
Alsager,ASG,1.0,53.0930054110113,-2.29905784069112,52.7119312404429,-2.7497615909892,52.13557138888552,100.0,16.5,TRANSPORT FOR WALES RAIL,ANYTIME DAY S,1000.0,0.3164825772585191,0.165,0.5213557138888553,1.9180762258092066
Althorne (Essex),ALN,2.0,51.6478675266105,0.75248341471277,52.7119312404429,-2.7497615909892,267.1838842153044,266.0,172.0,VIRGIN WEST COAST,ANYTIME S,0.0,0.6437514017926227,0.6466165413533834,1.0044506925387382,0.9955690283537073
Althorpe,ALP,1.0,53.5855003548442,-0.733182290833722,52.7119312404429,-2.7497615909892,166.28873738482608,225.0,70.8,EAST MIDLANDS TRAINS,ANYTIME S,0.0,0.4257654553967437,0.31466666666666665,0.7390610550436715,1.35306818452355
Altnabreac,ABC,3.0,58.3881525009701,-3.7062809681672,52.7119312404429,-2.7497615909892,634.812188401139,706.0,191.0,VIRGIN WEST COAST,ANYTIME S,287.0,0.30087639067085264,0.2705382436260623,0.8991674056673357,1.112139957139382
Alton,AON,3.0,51.1519686627366,-0.966913302570746,52.7119312404429,-2.7497615909892,212.50471036480477,324.0,93.95,VIRGIN WEST COAST,ANYTIME S,268.0,0.442107847109445,0.28996913580246914,0.6558787356938419,1.524672085827144
Altrincham,ALT,1.0,53.3877187203289,-2.34688910433965,52.7119312404429,-2.7497615909892,79.91156688364026,128.0,38.7,TRANSPORT FOR WALES RAIL,ANYTIME DAY S,1000.0,0.4842853357681162,0.30234375,0.6243091162784395,1.601770619594803
Alvechurch,ALV,1.0,52.3460721156993,-1.96766073187852,52.7119312404429,-2.7497615909892,66.89252606990912,117.0,19.1,WEST MIDLANDS TRAINS,ANYTIME DAY S,0.0,0.2855326465028195,0.16324786324786325,0.5717309920505054,1.74907432674502
Ambergate,AMB,2.0,53.0605170840145,-1.48069758186533,52.7119312404429,-2.7497615909892,93.81879678478887,173.0,50.1,CROSSCOUNTRY,ANYTIME S,0.0,0.5340081275495836,0.28959537572254335,0.5423051837271033,1.84398016099956
Amberley,AMY,2.0,50.8966791881016,-0.541992407726222,52.7119312404429,-2.7497615909892,252.9233491952922,278.0,173.5,VIRGIN WEST COAST,ANYTIME S,0.0,0.6859785802774332,0.6241007194244604,0.9097962201269503,1.0991472352572127
Amersham,AMR,3.0,51.6742050968552,-0.607596139216709,52.7119312404429,-2.7497615909892,186.51032633974094,282.0,71.45,VIRGIN WEST COAST,ANYTIME S,268.0,0.38308870828872543,0.25336879432624115,0.6613841359565281,1.5119806261360471
Ammanford,AMF,0.0,51.7959795450084,-3.99673575596767,52.7119312404429,-2.7497615909892,132.80742167497777,195.0,19.6,TRANSPORT FOR WALES RAIL,ANYTIME DAY S,824.0,0.14758211365602344,0.10051282051282052,0.6810637008973219,1.4682914368839066
Ancaster,ANC,2.0,52.9876865844111,-0.535623734022494,52.7119312404429,-2.7497615909892,152.2835513124283,238.0,76.2,CROSSCOUNTRY,ANYTIME S,268.0,0.5003823416467771,0.3201680672268908,0.6398468542539004,1.5628739804715608
Anderston,AND,2.0,55.8599021238713,-4.27098003165416,52.7119312404429,-2.7497615909892,364.11376154812166,253.0,115.0,VIRGIN WEST COAST,ANYTIME S,287.0,0.3158353573648204,0.45454545454545453,1.4391848282534452,0.6948377862026048
Andover,ADV,2.0,51.2115476149434,-1.49223307188506,52.7119312404429,-2.7497615909892,187.98585059117732,248.0,98.8,VIRGIN WEST COAST,ANYTIME S,268.0,0.5255714708808884,0.39838709677419354,0.7580074620611988,1.319248226502635
Anerley,ANZ,3.0,51.4121513855632,-0.0658859220340606,52.7119312404429,-2.7497615909892,234.06180224289355,263.0,153.5,VIRGIN WEST COAST,ANYTIME S,0.0,0.655809698673977,0.5836501901140685,0.889968829820888,1.123634858314371
Angel Road,AGR,2.0,51.61240330726,-0.0487914234374522,52.7119312404429,-2.7497615909892,221.62762604522564,207.0,153.5,VIRGIN WEST COAST,ANYTIME S,0.0,0.6926031864307232,0.7415458937198067,1.070664860121863,0.9339990852844279
Angmering,ANG,2.0,50.8165743892467,-0.489394019247872,52.7119312404429,-2.7497615909892,262.3142438009413,384.0,188.5,VIRGIN WEST COAST,ANYTIME S,0.0,0.718603752768547,0.4908854166666667,0.6831100098982846,1.4638930560377827
Annan,ANN,2.0,54.9838388790739,-3.2625810423293,52.7119312404429,-2.7497615909892,255.10866981920023,218.0,83.5,VIRGIN WEST COAST,ANYTIME S,287.0,0.3273114945845543,0.3830275229357798,1.1702232560513772,0.8545377942447046
Anniesland,ANL,2.0,55.8893555064876,-4.32195784208586,52.7119312404429,-2.7497615909892,368.16785111875015,264.0,117.6,VIRGIN WEST COAST,ANYTIME S,287.0,0.3194195246615079,0.44545454545454544,1.3945751936316293,0.7170642390360382
Ansdell & Fairhaven,AFV,2.0,53.7414654744213,-2.99303444657805,52.7119312404429,-2.7497615909892,115.72338090289186,141.0,42.5,VIRGIN WEST COAST,ANYTIME S,0.0,0.36725508422246544,0.30141843971631205,0.82073319789285,1.21842275000865
Apperley Bridge,APY,2.0,53.8417501065548,-1.70582867126391,52.7119312404429,-2.7497615909892,143.7311856897964,186.0,59.6,TRANSPENNINE EXPRESS,ANYTIME DAY S,0.0,0.41466296763619515,0.3204301075268817,0.7727483101601957,1.2940824157773876
Appleby,APP,2.0,54.5803488158896,-2.48669258391647,52.7119312404429,-2.7497615909892,208.67783527198557,239.0,63.3,NORTHERN,ANYTIME DAY S,0.0,0.30333839680431957,0.26485355648535563,0.8731290178744167,1.1453061111569096
Appledore (Kent),APD,3.0,51.0332342031393,0.816341504124954,52.7119312404429,-2.7497615909892,308.50036764144505,299.0,188.5,VIRGIN WEST COAST,ANYTIME S,0.0,0.6110203415351659,0.6304347826086957,1.0317738048208864,0.9692046796764701
Appleford,APF,2.0,51.6396415502262,-1.24214153179695,52.7119312404429,-2.7497615909892,157.70342534498477,220.0,64.4,CROSSCOUNTRY,ANYTIME S,700.0,0.4083614535265897,0.2927272727272728,0.7168337515681126,1.3950235990038777
Appley Bridge,APB,1.0,53.5786734960166,-2.71925251339081,52.7119312404429,-2.7497615909892,96.48047368601354,177.0,31.0,VIRGIN WEST COAST,ANYTIME S,0.0,0.3213085385638397,0.1751412429378531,0.5450874219548788,1.8345681072838589
Apsley,APS,1.0,51.7325208234117,-0.462934812195194,52.7119312404429,-2.7497615909892,190.5080060455626,197.0,106.0,VIRGIN WEST COAST,ANYTIME S,700.0,0.5564070623606687,0.5380710659898477,0.9670457159673229,1.0340772762740729
Arbroath,ARB,2.0,56.5595762979872,-2.58893177406225,52.7119312404429,-2.7497615909892,428.4325958481472,349.0,152.5,VIRGIN WEST COAST,ANYTIME S,287.0,0.3559486404112254,0.4369627507163324,1.2276005611694762,0.8145972164165093
Ardgay,ARD,3.0,57.8814576101148,-4.36209023833324,52.7119312404429,-2.7497615909892,584.5139361067223,633.0,189.0,VIRGIN WEST COAST,ANYTIME S,287.0,0.3233455839545489,0.2985781990521327,0.9234027426646483,1.0829510827684097
Ardlui,AUI,3.0,56.3019723653141,-4.72165858161935,52.7119312404429,-2.7497615909892,419.49507029903316,428.0,134.1,VIRGIN WEST COAST,ANYTIME S,287.0,0.3196700259300021,0.3133177570093458,0.9801286689229747,1.0202742065476578
Ardrossan Harbour,ADS,2.0,55.6398782290401,-4.82111163323781,52.7119312404429,-2.7497615909892,352.81719982811603,319.0,123.8,VIRGIN WEST COAST,ANYTIME S,287.0,0.3508899227710904,0.38808777429467084,1.1060100308091412,0.9041509318576562
Ardrossan South Beach,ASB,2.0,55.641422142645,-4.80121264089138,52.7119312404429,-2.7497615909892,352.47993098683503,314.0,123.8,VIRGIN WEST COAST,ANYTIME S,287.0,0.3512256702201405,0.39426751592356685,1.1225475509134875,0.8908308598475292
Ardrossan Town,ADN,2.0,55.6397124556587,-4.81267645169651,52.7119312404429,-2.7497615909892,352.5897962037142,317.0,123.8,VIRGIN WEST COAST,ANYTIME S,287.0,0.3511162300580946,0.39053627760252363,1.1122706504849027,0.8990617522489176
Ardwick,ADK,1.0,53.471345820655,-2.21388417456067,52.7119312404429,-2.7497615909892,91.82229005193945,83.0,45.35,CROSSCOUNTRY,ANYTIME S,0.0,0.49388879295373367,0.5463855421686747,1.106292651228186,0.9039199518227099
Argyle Street,AGS,2.0,55.8573090626122,-4.25069486323156,52.7119312404429,-2.7497615909892,363.4799367725225,257.0,115.0,VIRGIN WEST COAST,ANYTIME S,287.0,0.31638610103525666,0.4474708171206226,1.4143188201265466,0.707054156226617
Arisaig,ARG,3.0,56.9125537431151,-5.83907949880085,52.7119312404429,-2.7497615909892,507.9182322775039,558.0,162.5,VIRGIN WEST COAST,ANYTIME S,287.0,0.3199333862683969,0.29121863799283154,0.9102477280958851,1.0986020279247106
Arlesey,ARL,2.0,52.0260300130868,-0.266319838272065,52.7119312404429,-2.7497615909892,185.5606530708948,275.0,172.0,VIRGIN WEST COAST,ANYTIME S,0.0,0.9269206437546118,0.6254545454545455,0.6747660111668902,1.4819952153053386
Armadale (West Lothian),ARM,2.0,55.8857140292087,-3.69541334262219,52.7119312404429,-2.7497615909892,358.5906063376523,262.0,131.5,VIRGIN WEST COAST,ANYTIME S,287.0,0.3667134544962909,0.5019083969465649,1.368666436403253,0.730638213521127
Armathwaite,AWT,2.0,54.8094679848183,-2.77207147292765,52.7119312404429,-2.7497615909892,233.46152421561513,204.0,80.0,VIRGIN WEST COAST,ANYTIME S,0.0,0.34266888417174646,0.39215686274509803,1.1444192363510546,0.8738056546379535
Arnside,ARN,1.0,54.2027315043991,-2.82824189170434,52.7119312404429,-2.7497615909892,166.00022865997428,221.0,52.0,VIRGIN WEST COAST,ANYTIME S,0.0,0.3132525805522469,0.23529411764705882,0.7511322563799742,1.3313234673470493
Arram,ARR,2.0,53.8843427696163,-0.426570132093475,52.7119312404429,-2.7497615909892,202.51004156541066,286.0,88.8,TRANSPENNINE EXPRESS,ANYTIME DAY S,0.0,0.43849677435040985,0.31048951048951046,0.7080770684105268,1.4122756471195632
Arrochar & Tarbet,ART,3.0,56.2039766194239,-4.72277124702392,52.7119312404429,-2.7497615909892,409.186641622923,414.0,134.1,VIRGIN WEST COAST,ANYTIME S,287.0,0.32772330853258136,0.32391304347826083,0.9883735304901522,1.0117632343958889
Arundel,ARU,3.0,50.84821399905,-0.546174298416944,52.7119312404429,-2.7497615909892,257.1256905812605,322.0,188.5,VIRGIN WEST COAST,ANYTIME S,0.0,0.7331044967691688,0.5854037267080745,0.7985269893827966,1.2523058247197472
Ascot (Berks),ACT,2.0,51.406243053303,-0.675833255037063,52.7119312404429,-2.7497615909892,203.30786796785014,223.0,85.05,GWR,ANYTIME S,824.0,0.41833108010089054,0.381390134529148,0.9116944751921531,1.0968586815108594
Ascott-under-Wychwood,AUW,2.0,51.8673416456497,-1.56405280921503,52.7119312404429,-2.7497615909892,124.00429006247879,211.0,64.95,CROSSCOUNTRY,ANYTIME S,0.0,0.523772201488153,0.30781990521327013,0.5876980571681459,1.701554034087764
Ash,ASH,2.0,51.2495967734882,-0.712805474371656,52.7119312404429,-2.7497615909892,214.6018571901791,240.0,89.3,VIRGIN WEST COAST,ANYTIME S,268.0,0.41611941839283706,0.3720833333333333,0.8941744049590795,1.1183500606302452
Ash Vale,AHV,3.0,51.2722464128127,-0.72164859629209,52.7119312404429,-2.7497615909892,212.27594319371457,250.0,89.3,VIRGIN WEST COAST,ANYTIME S,268.0,0.4206788515762635,0.35719999999999996,0.8491037727748583,1.1777123504374678
Ashburys,ABY,1.0,53.471639721401,-2.19443661452133,52.7119312404429,-2.7497615909892,92.36932074243371,119.0,45.35,CROSSCOUNTRY,ANYTIME S,0.0,0.4909638788668344,0.38109243697478995,0.7762127793481824,1.2883065399151774
Ashchurch for Tewkesbury,ASC,1.0,51.9989057939667,-2.10876020926952,52.7119312404429,-2.7497615909892,90.56612687225368,129.0,59.55,CROSSCOUNTRY,ANYTIME S,0.0,0.6575306028488677,0.46162790697674416,0.7020629990097185,1.4243735981108974
Ashfield,ASF,3.0,55.8889269328418,-4.24921509407071,52.7119312404429,-2.7497615909892,366.83598370074077,277.0,117.6,VIRGIN WEST COAST,ANYTIME S,287.0,0.32057923765716584,0.42454873646209385,1.3243176306885949,0.7551058574067597
Ashford (Surrey),AFS,2.0,51.4365062586203,-0.468070995385795,52.7119312404429,-2.7497615909892,211.20166745656306,280.0,81.55,VIRGIN WEST COAST,ANYTIME S,268.0,0.3861238454321012,0.29125,0.7542916694877252,1.3257471087797468
Ashford International,AFK,3.0,51.1437026741936,0.876197214386404,52.7119312404429,-2.7497615909892,304.3410397623187,265.0,182.5,VIRGIN WEST COAST,ANYTIME S,0.0,0.5996562282317465,0.6886792452830188,1.1484567538200705,0.8707337012680154
Ashford International (Eurostar),ASI,-999.0,nan,nan,52.7119312404429,-2.7497615909892,-999.0,-999.0,-999.0,N/A,no route found,-998.0,-999.0,-999.0,-999.0,-999.0
Ashley,ASY,1.0,53.3557258053839,-2.34146074338483,52.7119312404429,-2.7497615909892,76.70291526967763,136.0,38.7,TRANSPORT FOR WALES RAIL,ANYTIME DAY S,1000.0,0.504544056297414,0.2845588235294118,0.5639920240417473,1.7730747198048653
Ashtead,AHD,2.0,51.317872587997,-0.307571763628547,52.7119312404429,-2.7497615909892,228.39060847089652,537.0,157.0,VIRGIN WEST COAST,ANYTIME S,0.0,0.6874188087291964,0.29236499068901306,0.4253083956627496,2.3512350336788437
Ashton-under-Lyne,AHN,2.0,53.4912746360398,-2.09431253377749,52.7119312404429,-2.7497615909892,97.20875905508152,123.0,26.8,TRANSPORT FOR WALES RAIL,ANYTIME DAY S,1000.0,0.2756953206738735,0.21788617886178863,0.7903151142689554,1.265318076227106
Ashurst (Kent),AHS,2.0,51.1286608253579,0.152652111896866,52.7119312404429,-2.7497615909892,266.24781718876886,265.0,164.5,VIRGIN WEST COAST,ANYTIME S,0.0,0.6178454409012865,0.620754716981132,1.0047087441085618,0.9953133242482729
Ashurst New Forest,ANF,2.0,50.8898511647037,-1.52663085660955,52.7119312404429,-2.7497615909892,219.57970752060336,268.0,48.5,VIRGIN WEST COAST,ANYTIME S,200.0,0.22087651244115625,0.18097014925373134,0.819327266867923,1.220513512045977
Ashwell & Morden,AWM,2.0,52.0307706434447,-0.109788918120069,52.7119312404429,-2.7497615909892,195.11171198401888,303.0,108.8,CROSSCOUNTRY,ANYTIME S,700.0,0.5576292621988348,0.3590759075907591,0.6439330428515475,1.5529564930721227
Askam,ASK,2.0,54.1889331625586,-3.20451175494515,52.7119312404429,-2.7497615909892,167.13480169860281,225.0,67.5,VIRGIN WEST COAST,ANYTIME S,0.0,0.4038656181357367,0.3,0.7428213408826791,1.3462187271191224
Aslockton,ALK,2.0,52.9515495737311,-0.898097621841918,52.7119312404429,-2.7497615909892,127.61139865394733,200.0,76.2,CROSSCOUNTRY,ANYTIME S,268.0,0.5971253414958394,0.381,0.6380569932697366,1.567258114162308
Aspatria,ASP,2.0,54.7589599137074,-3.33187421074512,52.7119312404429,-2.7497615909892,231.04781957781378,203.0,88.0,VIRGIN WEST COAST,ANYTIME S,0.0,0.38087353588014616,0.43349753694581283,1.1381665989054865,0.8786059975417009
Aspley Guise,APG,2.0,52.0212361960308,-0.632334507265971,52.7119312404429,-2.7497615909892,163.42024923633952,190.0,76.0,VIRGIN WEST COAST,ANYTIME S,0.0,0.4650586469862022,0.4,0.8601065749281027,1.1626466174655055
Aston,AST,1.0,52.5042320347358,-1.8719337575538,52.7119312404429,-2.7497615909892,63.80023104391629,91.0,15.8,WEST MIDLANDS TRAINS,ANYTIME DAY S,0.0,0.2476480059942764,0.17362637362637365,0.7011014400430362,1.426327123131592
Atherstone,ATH,2.0,52.5789720633612,-1.55281147568713,52.7119312404429,-2.7497615909892,82.35556339598652,128.0,27.7,WEST MIDLANDS TRAINS,ANYTIME S,0.0,0.33634643317065716,0.21640625,0.6434028390311447,1.554236225481737
Atherton,ATN,2.0,53.5291462480773,-2.47897234425216,52.7119312404429,-2.7497615909892,92.73582382497595,126.0,31.0,VIRGIN WEST COAST,ANYTIME S,0.0,0.33428289868333455,0.24603174603174602,0.7359986017855235,1.3586982333580695
Attadale,ATT,3.0,57.3950433711996,-5.4555786528295,52.7119312404429,-2.7497615909892,549.1632556469725,718.0,193.0,VIRGIN WEST COAST,ANYTIME S,287.0,0.3514437610590416,0.26880222841225626,0.7648513309846414,1.3074436292248284
Attenborough,ATB,1.0,52.9062133028873,-1.23141560765685,52.7119312404429,-2.7497615909892,104.64228774698168,153.0,59.55,CROSSCOUNTRY,ANYTIME S,0.0,0.5690815948518639,0.3892156862745098,0.6839365212221025,1.4621239968486177
Attleborough,ATL,2.0,52.5145445883409,1.02234755537498,52.7119312404429,-2.7497615909892,256.4187448887433,315.0,95.2,CROSSCOUNTRY,ANYTIME S,700.0,0.371267709157948,0.3022222222222222,0.814027761551566,1.228459331772622
Auchinleck,AUK,2.0,55.4702784722357,-4.29535018687193,52.7119312404429,-2.7497615909892,323.22846581702623,270.0,115.0,VIRGIN WEST COAST,ANYTIME S,287.0,0.35578549590090686,0.42592592592592593,1.197142465988986,0.8353224686369117
Audley End,AUD,1.0,52.0044405435161,0.207160027997398,52.7119312404429,-2.7497615909892,216.266776628456,292.0,173.5,VIRGIN WEST COAST,ANYTIME S,0.0,0.8022499003537245,0.5941780821917808,0.740639645987863,1.3501842703359512
Aughton Park,AUG,2.0,53.5542504500956,-2.89522128047861,52.7119312404429,-2.7497615909892,94.24481845174422,181.0,31.5,VIRGIN WEST COAST,ANYTIME S,0.0,0.3342358817968206,0.17403314917127072,0.5206896047057692,1.9205299874674453
Aviemore,AVM,2.0,57.1885162452285,-3.82886797624022,52.7119312404429,-2.7497615909892,503.1006375450111,443.0,163.5,VIRGIN WEST COAST,ANYTIME S,287.0,0.3249846805955838,0.3690744920993228,1.135667353374743,0.8805395321336
Avoncliff,AVF,1.0,51.3396528744674,-2.28132558221387,52.7119312404429,-2.7497615909892,156.0380494749257,186.0,62.7,TRANSPORT FOR WALES RAIL,ANYTIME DAY S,700.0,0.40182506901994747,0.3370967741935484,0.8389142444888479,1.1920169511596528
Avonmouth,AVN,2.0,51.5003648679963,-2.69946651797304,52.7119312404429,-2.7497615909892,134.8542398613174,221.0,56.5,TRANSPORT FOR WALES RAIL,ANYTIME DAY S,1000.0,0.4189708833634298,0.25565610859728505,0.6102001803679521,1.638806464129522
Axminster,AXM,2.0,50.7792744117621,-3.00472359764506,52.7119312404429,-2.7497615909892,215.75164016446988,331.0,116.45,CROSSCOUNTRY,ANYTIME S,700.0,0.5397409721253051,0.35181268882175226,0.6518176440014196,1.5341714192655733
Aylesbury,AYS,3.0,51.8138902206829,-0.815095998270687,52.7119312404429,-2.7497615909892,165.61944769987548,270.0,54.3,VIRGIN WEST COAST,ANYTIME S,268.0,0.3278600475615571,0.2011111111111111,0.6134053618513907,1.6302433304165824
Aylesbury Vale Parkway,AVP,3.0,51.8311587338339,-0.860182437861177,52.7119312404429,-2.7497615909892,161.9863196860933,275.0,54.3,VIRGIN WEST COAST,ANYTIME S,268.0,0.3352134927518926,0.19745454545454544,0.5890411624948848,1.6976742266440235
Aylesford,AYL,4.0,51.3013153585378,0.466170568242092,52.7119312404429,-2.7497615909892,270.8855187590901,318.0,171.0,VIRGIN WEST COAST,ANYTIME S,0.0,0.6312629806987856,0.5377358490566038,0.8518412539594028,1.1739276483170398
Aylesham,AYH,3.0,51.2272505439136,1.2094526827124,52.7119312404429,-2.7497615909892,318.2492773161012,334.0,188.5,VIRGIN WEST COAST,ANYTIME S,0.0,0.5923029946514924,0.5643712574850299,0.9528421476529976,1.0494917783214772
Ayr,AYR,2.0,55.4581477383334,-4.62587677242484,52.7119312404429,-2.7497615909892,329.3768269961932,305.0,115.0,VIRGIN WEST COAST,ANYTIME S,287.0,0.34914417340394477,0.3770491803278688,1.0799240229383382,0.925991068593071
Bache,BAC,1.0,53.2087886904783,-2.89167051075084,52.7119312404429,-2.7497615909892,56.109302350726395,82.0,11.5,TRANSPORT FOR WALES RAIL,ANYTIME DAY S,1000.0,0.20495710191005645,0.1402439024390244,0.6842597847649561,1.4614332484021417
Baglan,BAJ,0.0,51.615545271975,-3.81113654529303,52.7119312404429,-2.7497615909892,141.97350215816166,157.0,49.4,TRANSPORT FOR WALES RAIL,ANYTIME DAY S,1000.0,0.3479522534068878,0.3146496815286624,0.9042898226634501,1.105840157588692
Bagshot,BAG,2.0,51.3643669407293,-0.688661997063008,52.7119312404429,-2.7497615909892,206.10294467272595,299.0,89.3,VIRGIN WEST COAST,ANYTIME S,268.0,0.4332786226892626,0.29866220735785953,0.689307507266642,1.4507313346482589
Baildon,BLD,3.0,53.8502255005868,-1.75363638811678,52.7119312404429,-2.7497615909892,143.04542787337422,224.0,62.8,TRANSPENNINE EXPRESS,ANYTIME DAY S,0.0,0.4390213719769598,0.28035714285714286,0.638595660148992,1.565936103866863
Baillieston,BIO,2.0,55.844505909339,-4.11369931815988,52.7119312404429,-2.7497615909892,359.8087395821941,301.0,115.0,VIRGIN WEST COAST,ANYTIME S,287.0,0.3196142487632088,0.38205980066445183,1.1953778723660933,0.8365555554584856
Balcombe,BAB,3.0,51.0555201604538,-0.136933757536862,52.7119312404429,-2.7497615909892,257.52100098814066,286.0,171.0,VIRGIN WEST COAST,ANYTIME S,0.0,0.6640235139808068,0.5979020979020979,0.9004230803781141,1.1105890350790104
Baldock,BDK,3.0,51.9928698318742,-0.187563753520231,52.7119312404429,-2.7497615909892,192.0291082690625,257.0,172.0,VIRGIN WEST COAST,ANYTIME S,0.0,0.8956975405989043,0.669260700389105,0.7471949738095818,1.3383387670576652
Balham,BAL,2.0,51.4432234163815,-0.152424495700288,52.7119312404429,-2.7497615909892,227.21497558313254,241.0,153.5,VIRGIN WEST COAST,ANYTIME S,0.0,0.6755716677831299,0.6369294605809128,0.942800728560716,1.0606695240112984
Balloch,BHC,3.0,56.0029392993731,-4.58348654319574,52.7119312404429,-2.7497615909892,385.20177017885555,361.0,120.2,VIRGIN WEST COAST,ANYTIME S,287.0,0.3120442565572561,0.3329639889196676,1.0670409146228685,0.9371711864989138
Balmossie,BSI,2.0,56.4745685552318,-2.83895622541232,52.7119312404429,-2.7497615909892,418.8809067826687,709.0,148.5,VIRGIN WEST COAST,ANYTIME S,287.0,0.35451603927377723,0.20944992947813823,0.5908052281843,1.6926051976101553
Bamber Bridge,BMB,2.0,53.7268691714662,-2.6607753764786,52.7119312404429,-2.7497615909892,113.10909771569688,166.0,37.5,VIRGIN WEST COAST,ANYTIME S,0.0,0.3315383179367002,0.22590361445783133,0.6813801067210655,1.4676096207331262
Bamford,BAM,1.0,53.3390008432273,-1.68908191470249,52.7119312404429,-2.7497615909892,99.67207866277705,199.0,42.95,CROSSCOUNTRY,ANYTIME S,0.0,0.4309130558550281,0.21582914572864323,0.5008647168983772,1.996547103961597
Banavie,BNV,3.0,56.8433146084024,-5.09542698683765,52.7119312404429,-2.7497615909892,483.96393169962215,500.0,152.7,VIRGIN WEST COAST,ANYTIME S,287.0,0.31551938067726715,0.3054,0.9679278633992443,1.033134841772322
Banbury,BAN,1.0,52.0603086671337,-1.32813289497966,52.7119312404429,-2.7497615909892,120.93560922294158,148.0,44.1,CROSSCOUNTRY,ANYTIME S,700.0,0.36465686395727187,0.297972972972973,0.8171324947496053,1.2237917429858556
Bangor (Gwynedd),BNG,0.0,53.2222875881889,-4.1358808597691,52.7119312404429,-2.7497615909892,109.08000032334834,134.0,42.9,TRANSPORT FOR WALES RAIL,ANYTIME DAY S,1000.0,0.3932893277670567,0.3201492537313433,0.814029853159316,1.2284561753096876
Bank Hall,BAH,2.0,53.4374965462522,-2.98751189569183,52.7119312404429,-2.7497615909892,82.30354877284037,151.0,28.5,TRANSPORT FOR WALES RAIL,ANYTIME DAY S,1000.0,0.34627911463041083,0.18874172185430463,0.5450566143896713,1.8346718003225275
Banstead,BAD,3.0,51.3293474848423,-0.213158931277083,52.7119312404429,-2.7497615909892,232.32480060959102,296.0,153.5,VIRGIN WEST COAST,ANYTIME S,0.0,0.6607129311947555,0.518581081081081,0.7848810831405102,1.2740783559195286
Barassie,BSS,2.0,55.5610644543682,-4.65113966824502,52.7119312404429,-2.7497615909892,340.5781099605099,353.0,123.8,VIRGIN WEST COAST,ANYTIME S,287.0,0.3634995802118775,0.35070821529745044,0.9648105098031442,1.0364729548852403
Barbican,ZBB,2.0,nan,nan,52.7119312404429,-2.7497615909892,-999.0,198.0,150.5,VIRGIN WEST COAST,ANYTIME S,0.0,-999.0,0.76010101010101,-999.0,-999.0
Bardon Mill,BLL,2.0,54.9744957852522,-2.34650475516335,52.7119312404429,-2.7497615909892,253.22182233609482,232.0,93.0,VIRGIN WEST COAST,ANYTIME S,275.0,0.3672669248725471,0.40086206896551724,1.0914733721383398,0.9161927588218379
Bare Lane,BAR,2.0,54.0745443408907,-2.83533086719705,52.7119312404429,-2.7497615909892,151.75694982385778,156.0,49.0,VIRGIN WEST COAST,ANYTIME S,0.0,0.32288471833990884,0.3141025641025641,0.9728009604093447,1.0279595114495057
Bargeddie,BGI,2.0,55.8512961462984,-4.07380825280165,52.7119312404429,-2.7497615909892,359.9092880791634,304.0,115.0,VIRGIN WEST COAST,ANYTIME S,287.0,0.3195249575629327,0.3782894736842105,1.1839121318393533,0.8446572791228829
Bargoed,BGD,1.0,51.6923127611933,-3.22968013064506,52.7119312404429,-2.7497615909892,118.10269255245866,159.0,51.4,TRANSPORT FOR WALES RAIL,ANYTIME DAY S,1000.0,0.435214463693698,0.3232704402515723,0.7427842298896771,1.3462859869124122
Barking,BKG,3.0,51.5394928787692,0.0809024258638578,52.7119312404429,-2.7497615909892,233.64045852568657,247.0,152.5,VIRGIN WEST COAST,ANYTIME S,0.0,0.6527122954744332,0.6174089068825911,0.9459127875533869,1.0571799146372787
Barlaston,BRT,3.0,nan,nan,52.7119312404429,-2.7497615909892,-999.0,142.0,18.25,CROSSCOUNTRY,ANYTIME DAY S,0.0,-999.0,0.12852112676056338,-999.0,-999.0
Barming,BMG,3.0,51.2848926922128,0.478958086821072,52.7119312404429,-2.7497615909892,272.69367702506634,281.0,171.0,VIRGIN WEST COAST,ANYTIME S,0.0,0.6270772460348667,0.608540925266904,0.9704401317618019,1.0304602697999856
Barmouth,BRM,0.0,52.7228954666472,-4.05659664341287,52.7119312404429,-2.7497615909892,88.3162649797447,137.0,21.5,TRANSPORT FOR WALES RAIL,ANYTIME DAY S,1000.0,0.24344326614051234,0.15693430656934307,0.6446442699251438,1.551243137732567
Barnehurst,BNH,3.0,51.4649571594916,0.159646215915891,52.7119312404429,-2.7497615909892,242.90832289319576,258.0,153.5,VIRGIN WEST COAST,ANYTIME S,0.0,0.6319256506805341,0.5949612403100775,0.9415051274930069,1.0621291066812886
Barnes,BNS,3.0,51.4670847781107,-0.242164290131055,52.7119312404429,-2.7497615909892,220.71775796882972,228.0,152.5,VIRGIN WEST COAST,ANYTIME S,0.0,0.690927641723945,0.668859649122807,0.9680603419685514,1.032993457790554
Barnes Bridge,BNI,3.0,51.4720072305495,-0.252630234454485,52.7119312404429,-2.7497615909892,219.80850684639282,238.0,152.5,VIRGIN WEST COAST,ANYTIME S,0.0,0.6937857055121641,0.6407563025210085,0.9235651548167766,1.0827606420452136
Barnetby,BTB,1.0,53.575120046432,-0.409679706265516,52.7119312404429,-2.7497615909892,183.68981599217673,244.0,70.8,EAST MIDLANDS TRAINS,ANYTIME S,0.0,0.3854323638879106,0.2901639344262295,0.7528271147220358,1.3283262258283923
Barnham,BAA,2.0,50.8309058508596,-0.639679954401345,52.7119312404429,-2.7497615909892,254.95862504074006,318.0,188.5,VIRGIN WEST COAST,ANYTIME S,0.0,0.7393356469893082,0.5927672955974843,0.8017566825180505,1.2472611975734749
Barnhill,BNL,3.0,55.8774948886876,-4.22300584363342,52.7119312404429,-2.7497615909892,365.16170311478675,315.0,115.0,VIRGIN WEST COAST,ANYTIME S,287.0,0.3149289726142238,0.36507936507936506,1.159243501951704,0.8626315336824392
Barnsley,BNY,2.0,53.5543015489003,-1.47716484028851,52.7119312404429,-2.7497615909892,126.65797506619555,175.0,45.3,TRANSPORT FOR WALES RAIL,ANYTIME DAY S,1000.0,0.35765612055873114,0.25885714285714284,0.7237598575211174,1.3816737549178355
Barnstaple,BNP,2.0,51.0739744679973,-4.06311775092404,52.7119312404429,-2.7497615909892,203.43396567782312,336.0,59.0,CROSSCOUNTRY,ANYTIME S,700.0,0.29002039951105246,0.17559523809523808,0.6054582311839974,1.6516415972154852
Barnt Green,BTG,1.0,52.3610898378667,-1.99246673824797,52.7119312404429,-2.7497615909892,64.53349243352854,111.0,19.1,WEST MIDLANDS TRAINS,ANYTIME DAY S,0.0,0.29597034469618366,0.1720720720720721,0.5813828147164734,1.720037081742219
Barrhead,BRR,2.0,55.8037583421428,-4.39728431394783,52.7119312404429,-2.7497615909892,360.4830174693525,298.0,118.6,VIRGIN WEST COAST,ANYTIME S,287.0,0.3290030160993177,0.39798657718120806,1.2096745552662835,0.826668623925773
Barrhill,BRL,3.0,55.0970106102442,-4.78178229089313,52.7119312404429,-2.7497615909892,297.13898898793786,364.0,120.2,VIRGIN WEST COAST,ANYTIME S,287.0,0.40452449679997876,0.3302197802197802,0.8163159038130161,1.2250159470481887
Barrow Haven,BAV,2.0,53.697419946542,-0.392955239385703,52.7119312404429,-2.7497615909892,191.89189329238482,292.0,70.8,EAST MIDLANDS TRAINS,ANYTIME S,0.0,0.3689577437860929,0.24246575342465754,0.6571640181246056,1.5216901297392533
Barrow-in-Furness,BIF,1.0,54.1190037011827,-3.22612090695349,52.7119312404429,-2.7497615909892,159.76881404052892,261.0,67.5,VIRGIN WEST COAST,ANYTIME S,0.0,0.42248545440712304,0.25862068965517243,0.6121410499637123,1.6336104237075424
Barrow-Upon-Soar,BWS,2.0,52.7493358553102,-1.14484305880024,52.7119312404429,-2.7497615909892,108.49679186572753,191.0,45.85,CROSSCOUNTRY,ANYTIME S,0.0,0.4225931404196967,0.2400523560209424,0.5680460307106153,1.7604207158159666
Barry,BRY,1.0,51.3967862682376,-3.28498495899336,52.7119312404429,-2.7497615909892,150.86808230904043,146.0,48.5,TRANSPORT FOR WALES RAIL,ANYTIME DAY S,1000.0,0.32147290041542304,0.3321917808219178,1.0333430295139756,0.9677328548587992
Barry Docks,BYD,1.0,51.4024452836283,-3.26070393235989,52.7119312404429,-2.7497615909892,149.85882803761533,143.0,48.5,TRANSPORT FOR WALES RAIL,ANYTIME DAY S,1000.0,0.3236379240055598,0.33916083916083917,1.0479638324308764,0.9542314047998979
Barry Island,BYI,1.0,51.3924170726249,-3.27336400852697,52.7119312404429,-2.7497615909892,151.14867940049908,151.0,48.5,TRANSPORT FOR WALES RAIL,ANYTIME DAY S,1000.0,0.32087610816293943,0.3211920529801324,1.0009846317913846,0.9990163367547187
Barry Links,BYL,2.0,56.4931516826701,-2.74544214683501,52.7119312404429,-2.7497615909892,420.910659890594,716.0,152.5,VIRGIN WEST COAST,ANYTIME S,287.0,0.36230966457261704,0.21298882681564246,0.5878640501265279,1.7010735726819266
Barton-on-Humber,BAU,2.0,53.6889177395454,-0.44343673614012,52.7119312404429,-2.7497615909892,188.5998789148471,298.0,70.8,EAST MIDLANDS TRAINS,ANYTIME S,0.0,0.37539790803347345,0.23758389261744967,0.632885499714252,1.5800646411578403
Basildon,BSO,3.0,51.5681040297501,0.456788850539816,52.7119312404429,-2.7497615909892,253.7230550425101,266.0,164.5,VIRGIN WEST COAST,ANYTIME S,0.0,0.6483447078644028,0.618421052631579,0.9538460715883839,1.0483871871849917
Basingstoke,BSK,1.0,51.2683569850094,-1.08726383162934,52.7119312404429,-2.7497615909892,197.0711172858178,205.0,89.3,GWR,ANYTIME S,824.0,0.4531359096649647,0.435609756097561,0.9613225233454527,1.0402336112129649
Bat & Ball,BBL,3.0,51.2897587469008,0.194227480292899,52.7119312404429,-2.7497615909892,256.71090455453003,305.0,164.5,VIRGIN WEST COAST,ANYTIME S,0.0,0.6407986457975229,0.5393442622950819,0.8416750969000985,1.1881069116610607
Bath Spa,BTH,1.0,51.3776883852266,-2.3570184714201,52.7119312404429,-2.7497615909892,150.88371779022333,181.0,57.2,TRANSPORT FOR WALES RAIL,ANYTIME DAY S,700.0,0.3790998845848053,0.3160220994475138,0.8336117004984714,1.1995992851372337
Bathgate,BHG,2.0,55.8971563834902,-3.63609679157923,52.7119312404429,-2.7497615909892,359.20499511026054,257.0,131.5,VIRGIN WEST COAST,ANYTIME S,287.0,0.3660862231596616,0.5116731517509727,1.3976848058765001,0.7154688924108976
Batley,BTL,2.0,53.7099423400798,-1.6229526318262,52.7119312404429,-2.7497615909892,134.1737222056924,201.0,56.9,TRANSPENNINE EXPRESS,ANYTIME DAY S,0.0,0.42407707757239205,0.28308457711442786,0.6675309562472259,1.4980578662926327
Battersby,BTT,2.0,54.457680170473,-1.09297186288525,52.7119312404429,-2.7497615909892,223.12317365817606,299.0,102.6,TRANSPENNINE EXPRESS,ANYTIME DAY S,95.0,0.45983569665956275,0.3431438127090301,0.7462313500273446,1.3400669912398566
Battersea Park,BAK,3.0,51.4769582891996,-0.147533519657093,52.7119312404429,-2.7497615909892,225.1154234292054,219.0,153.5,VIRGIN WEST COAST,ANYTIME S,0.0,0.6818724264278271,0.7009132420091324,1.027924307895915,0.9728342761413298
Battle,BAT,3.0,50.9129130238687,0.494702777064857,52.7119312404429,-2.7497615909892,300.1657985341822,332.0,182.5,VIRGIN WEST COAST,ANYTIME S,0.0,0.6079973164538175,0.5496987951807228,0.9041138510065729,1.106055392124205
Battlesbridge,BLB,2.0,51.624822766888,0.56528550890708,52.7119312404429,-2.7497615909892,257.0199401342793,249.0,172.0,VIRGIN WEST COAST,ANYTIME S,0.0,0.6692087777708574,0.6907630522088354,1.0322085949167843,0.9687964282845553
Bayford,BAY,3.0,51.7577148923117,-0.0956100209046352,52.7119312404429,-2.7497615909892,210.1064306541734,247.0,164.5,VIRGIN WEST COAST,ANYTIME S,0.0,0.7829365312038462,0.6659919028340081,0.850633322486532,1.1755946699534956
Beaconsfield,BCF,2.0,51.6112905925788,-0.643822282354315,52.7119312404429,-2.7497615909892,189.10605383145872,210.0,107.5,VIRGIN WEST COAST,ANYTIME S,700.0,0.5684640857442336,0.5119047619047619,0.9005050182450416,1.1104879814538515
Bearley,BER,2.0,52.2444115945748,-1.75025547969474,52.7119312404429,-2.7497615909892,85.54570347767714,147.0,25.2,WEST MIDLANDS TRAINS,ANYTIME S,0.0,0.2945793765852408,0.17142857142857143,0.5819435610726336,1.7183796967472382
Bearsden,BRN,2.0,55.9171345827093,-4.3320211452141,52.7119312404429,-2.7497615909892,371.3108828211739,282.0,118.6,VIRGIN WEST COAST,ANYTIME S,287.0,0.3194088982765384,0.4205673758865248,1.3167052582311132,0.7594714107418535
Bearsted,BSD,3.0,51.2758187894535,0.577580355704965,52.7119312404429,-2.7497615909892,278.82202611158124,310.0,173.5,VIRGIN WEST COAST,ANYTIME S,0.0,0.6222607389366268,0.5596774193548387,0.8994258906825201,1.1118203404631373
Beasdale,BSL,3.0,56.8995610683265,-5.76380325043513,52.7119312404429,-2.7497615909892,504.72783013046967,553.0,162.5,VIRGIN WEST COAST,ANYTIME S,287.0,0.32195569631655646,0.2938517179023508,0.9127085535813195,1.0956400003880353
Beaulieu Road,BEU,2.0,50.8550493435382,-1.50474962699015,52.7119312404429,-2.7497615909892,223.746281576584,306.0,48.5,VIRGIN WEST COAST,ANYTIME S,200.0,0.21676337885150235,0.15849673202614378,0.7311969986162876,1.3676204933723652
Beauly,BEL,3.0,57.4782879378611,-4.46986686037102,52.7119312404429,-2.7497615909892,541.8129611577929,508.0,175.0,VIRGIN WEST COAST,ANYTIME S,287.0,0.3229896893312497,0.34448818897637795,1.0665609471610096,0.9375929267444278
Bebington,BEB,1.0,53.3576570664328,-3.00363517233964,52.7119312404429,-2.7497615909892,73.85122908938762,105.0,17.6,TRANSPORT FOR WALES RAIL,ANYTIME DAY S,1000.0,0.23831695446391848,0.16761904761904764,0.7033450389465488,1.421777285154059
Beccles,BCC,3.0,52.4585181871493,1.5694932615698,52.7119312404429,-2.7497615909892,294.06411271060995,390.0,184.0,VIRGIN WEST COAST,ANYTIME S,0.0,0.625713890429994,0.4717948717948718,0.7540105454118203,1.326241398194009
Beckenham Hill,BEC,3.0,51.4245808668055,-0.0159511139458484,52.7119312404429,-2.7497615909892,235.90065983284308,254.0,118.5,VIRGIN WEST COAST,ANYTIME S,268.0,0.502330091335768,0.46653543307086615,0.9287427552474137,1.0767244151838402
Beckenham Junction,BKJ,3.0,51.4111718661491,-0.0260225635677561,52.7119312404429,-2.7497615909892,236.28512400992733,244.0,118.5,VIRGIN WEST COAST,ANYTIME S,268.0,0.5015127401546503,0.48565573770491804,0.9683816557783907,1.0326507054661154
Bedford,BDM,2.0,52.1361864656103,-0.479442379912954,52.7119312404429,-2.7497615909892,167.1947127036846,232.0,90.0,VIRGIN WEST COAST,ANYTIME S,200.0,0.538294534226719,0.3879310344827586,0.7206668651020888,1.3876036882288758
Bedford St Johns,BSJ,2.0,52.1294772366621,-0.467501028060375,52.7119312404429,-2.7497615909892,168.24220774558194,216.0,90.0,VIRGIN WEST COAST,ANYTIME S,200.0,0.5349430514850303,0.4166666666666667,0.7788991099332497,1.2838633235640726
Bedhampton,BDH,2.0,50.8539566355958,-0.99582843515536,52.7119312404429,-2.7497615909892,239.53489929777174,315.0,104.05,VIRGIN WEST COAST,ANYTIME S,268.0,0.43438346689787727,0.3303174603174603,0.7604282517389579,1.3150484581723338
Bedminster,BMT,1.0,51.4400904239394,-2.59414932604792,52.7119312404429,-2.7497615909892,141.91768972123722,161.0,54.7,TRANSPORT FOR WALES RAIL,ANYTIME DAY S,1000.0,0.3854346847630119,0.33975155279503105,0.8814763336722808,1.1344604067064883
Bedworth,BEH,1.0,52.4792974206142,-1.46739223305473,52.7119312404429,-2.7497615909892,90.66953383314565,153.0,23.0,WEST MIDLANDS TRAINS,ANYTIME S,0.0,0.2536684487903697,0.1503267973856209,0.5926113322427821,1.6874466376055028
Bedwyn,BDW,2.0,51.3796409426581,-1.59878627020561,52.7119312404429,-2.7497615909892,167.95652429074278,278.0,92.8,CROSSCOUNTRY,ANYTIME S,700.0,0.5525239367263737,0.33381294964028774,0.6041601593192186,1.6551902414863349
Beeston,BEE,1.0,52.9207551214346,-1.20765801407939,52.7119312404429,-2.7497615909892,106.53440955605176,182.0,59.55,CROSSCOUNTRY,ANYTIME S,0.0,0.558974328089447,0.3271978021978022,0.5853538986596251,1.7083682235479323
Bekesbourne,BKS,2.0,51.2613539349877,1.13670763163281,52.7119312404429,-2.7497615909892,311.92461565003856,314.0,188.5,VIRGIN WEST COAST,ANYTIME S,0.0,0.604312678584771,0.6003184713375797,0.9933904957007598,1.0066534805072578
Belle Vue,BLV,1.0,53.4623764935822,-2.18050724055323,52.7119312404429,-2.7497615909892,91.81200311402573,126.0,45.35,CROSSCOUNTRY,ANYTIME S,0.0,0.4939441299813235,0.3599206349206349,0.7286666913811566,1.3723695783384071
Bellgrove,BLG,2.0,55.8567093051092,-4.22437490020632,52.7119312404429,-2.7497615909892,362.95930416614294,339.0,115.0,VIRGIN WEST COAST,ANYTIME S,287.0,0.31683992855397164,0.3392330383480826,1.0706764134694482,0.9339890067808382
Bellingham,BGM,3.0,51.4329113825773,-0.0193308081217253,52.7119312404429,-2.7497615909892,235.14092029441804,252.0,118.5,VIRGIN WEST COAST,ANYTIME S,268.0,0.5039531182051474,0.47023809523809523,0.9330988900572145,1.0716977703603134
Bellshill,BLH,2.0,55.8170682424416,-4.02449996284266,52.7119312404429,-2.7497615909892,355.45627039861387,313.0,115.0,VIRGIN WEST COAST,ANYTIME S,287.0,0.32352784175402877,0.36741214057507987,1.1356430364172967,0.8805583866870521
Belmont,BLM,3.0,51.3438134158344,-0.198855124360003,52.7119312404429,-2.7497615909892,231.98119581671307,293.0,153.5,VIRGIN WEST COAST,ANYTIME S,0.0,0.6616915627992512,0.5238907849829352,0.7917446956201811,1.2630334065158346
Belper,BLP,2.0,53.0237591485711,-1.48251049959613,52.7119312404429,-2.7497615909892,92.123167411841,167.0,41.8,CROSSCOUNTRY,ANYTIME S,0.0,0.45374036927248834,0.2502994011976048,0.5516357330050359,1.8127904705384106
Beltring,BEG,4.0,51.2047063375307,0.403495486821792,52.7119312404429,-2.7497615909892,274.0187679487151,275.0,171.0,VIRGIN WEST COAST,ANYTIME S,0.0,0.6240448465632255,0.6218181818181818,0.9964318834498731,1.0035808935958304
Belvedere,BVD,3.0,51.4921162437256,0.152286098901381,52.7119312404429,-2.7497615909892,240.72932648154375,255.0,153.5,VIRGIN WEST COAST,ANYTIME S,0.0,0.6376456173559251,0.6019607843137255,0.9440365744374265,1.0592809930016995
Bempton,BEM,2.0,54.1276580609781,-0.18045684367924,52.7119312404429,-2.7497615909892,232.361671728402,320.0,92.8,TRANSPENNINE EXPRESS,ANYTIME DAY S,0.0,0.39937739864632277,0.29,0.7261302241512563,1.3771634436080096
Ben Rhydding,BEY,2.0,53.9257153348267,-1.79743026313235,52.7119312404429,-2.7497615909892,149.2469805857419,214.0,62.8,TRANSPENNINE EXPRESS,ANYTIME DAY S,0.0,0.42077903186739246,0.2934579439252336,0.6974157971296351,1.4338648538156367
Benfleet,BEF,3.0,51.5439424321207,0.561713345502072,52.7119312404429,-2.7497615909892,261.3391842840034,273.0,164.5,VIRGIN WEST COAST,ANYTIME S,0.0,0.6294501930534612,0.6025641025641025,0.9572863893186938,1.0446194693227653
Bentham,BEN,2.0,54.1155197017626,-2.51067651046258,52.7119312404429,-2.7497615909892,157.01762363524927,190.0,52.0,VIRGIN WEST COAST,ANYTIME S,0.0,0.33117301609910743,0.2736842105263158,0.8264085454486804,1.2100552511313543
Bentley (Hants),BTY,3.0,51.1812327932647,-0.868126900052275,52.7119312404429,-2.7497615909892,213.86868557650445,317.0,93.95,VIRGIN WEST COAST,ANYTIME S,268.0,0.43928824711644143,0.2963722397476341,0.6746646232697301,1.4822179280033203
Bentley (South Yorks),BYK,2.0,53.543936635355,-1.15094859528964,52.7119312404429,-2.7497615909892,141.51129101670944,220.0,59.6,TRANSPENNINE EXPRESS,ANYTIME DAY S,0.0,0.4211678062704023,0.27090909090909093,0.6432331409850429,1.5546462647565185
Bere Alston,BAS,2.0,50.4855988011236,-4.20035543651004,52.7119312404429,-2.7497615909892,267.30284097534775,374.0,72.2,CROSSCOUNTRY,ANYTIME S,817.0,0.2701056215360566,0.193048128342246,0.7147134785437106,1.3991620838571353
Bere Ferrers,BFE,2.0,50.4512820780774,-4.18143518031599,52.7119312404429,-2.7497615909892,270.3739526814081,369.0,72.2,CROSSCOUNTRY,ANYTIME S,817.0,0.2670375577379527,0.1956639566395664,0.7327207389740058,1.3647764377466
Berkhamsted,BKM,1.0,51.7631330812332,-0.562012981628892,52.7119312404429,-2.7497615909892,182.9689182115202,190.0,106.0,VIRGIN WEST COAST,ANYTIME S,700.0,0.5793333700397096,0.5578947368421052,0.962994306376422,1.038427738750423
Berkswell,BKW,1.0,52.3958819317755,-1.64284047482006,52.7119312404429,-2.7497615909892,82.9070662510958,113.0,23.0,WEST MIDLANDS TRAINS,ANYTIME S,0.0,0.2774190553352984,0.20353982300884957,0.7336908517796088,1.3629718805603794
Bermuda Park,BEP,2.0,52.5014343619449,-1.47217775464212,52.7119312404429,-2.7497615909892,89.66314826263073,116.0,27.7,WEST MIDLANDS TRAINS,ANYTIME S,0.0,0.3089340552582921,0.23879310344827587,0.7729581746778511,1.2937310617314761
Berney Arms,BYA,-999.0,52.5897827472666,1.63037533346209,52.7119312404429,-2.7497615909892,296.70250147058874,-999.0,112.3,CROSSCOUNTRY,ANYTIME S,700.0,0.3784936070420423,-999.0,-999.0,-999.0
Berry Brow,BBW,2.0,53.6210419716152,-1.79343228301033,52.7119312404429,-2.7497615909892,119.69244478403321,192.0,47.6,TRANSPENNINE EXPRESS,ANYTIME DAY S,0.0,0.3976859198246552,0.24791666666666667,0.6233981499168396,1.6041112732423066
Berrylands,BRS,3.0,51.3990439366779,-0.280713667843256,52.7119312404429,-2.7497615909892,223.63508107789156,224.0,153.5,VIRGIN WEST COAST,ANYTIME S,0.0,0.686386050257188,0.6852678571428571,0.9983708976691588,1.0016317606358967
Berwick (Sussex),BRK,3.0,50.8403762860459,0.166017608785235,52.7119312404429,-2.7497615909892,289.5440932557785,288.0,188.5,VIRGIN WEST COAST,ANYTIME S,0.0,0.6510234689314909,0.6545138888888888,1.0053614349158975,0.9946671567759648
Berwick-upon-Tweed,BWK,1.0,55.7743389009866,-2.01097357377303,52.7119312404429,-2.7497615909892,344.2552484037882,365.0,127.8,TRANSPENNINE EXPRESS,ANYTIME DAY S,0.0,0.37123617023290584,0.35013698630136986,0.9431650641199676,1.0602597976135417
Bescar Lane,BES,2.0,53.623855333027,-2.9146110021991,52.7119312404429,-2.7497615909892,102.08446526644552,160.0,30.9,TRANSPORT FOR WALES RAIL,ANYTIME DAY S,1000.0,0.3026905212203391,0.193125,0.6380279079152845,1.5673295597169663
Bescot Stadium,BSC,1.0,52.5630947071172,-1.9911057185482,52.7119312404429,-2.7497615909892,53.96378319014999,111.0,15.8,WEST MIDLANDS TRAINS,ANYTIME DAY S,0.0,0.2927889607799769,0.14234234234234236,0.4861602089202702,2.0569351042137614
Betchworth,BTO,2.0,51.2481879331766,-0.266973015200458,52.7119312404429,-2.7497615909892,235.82567557266046,274.0,96.85,VIRGIN WEST COAST,ANYTIME S,268.0,0.41068471346394786,0.3534671532846715,0.8606776480754031,1.1618751831607819
Bethnal Green,BET,3.0,51.5239156627757,-0.0595680464428894,52.7119312404429,-2.7497615909892,226.75749146851754,219.0,153.5,VIRGIN WEST COAST,ANYTIME S,0.0,0.676934636231463,0.7009132420091324,1.0354223354726828,0.9657894810077551
Betws-y-Coed,BYC,1.0,53.0920709395504,-3.80086212197837,52.7119312404429,-2.7497615909892,82.41234034818639,183.0,35.2,TRANSPORT FOR WALES RAIL,ANYTIME DAY S,1000.0,0.4271204998096457,0.1923497267759563,0.4503406576403628,2.2205412348058284
Beverley,BEV,2.0,53.8422725915824,-0.422980126740875,52.7119312404429,-2.7497615909892,199.7711357878939,289.0,88.8,TRANSPENNINE EXPRESS,ANYTIME DAY S,0.0,0.44450866062193783,0.30726643598615916,0.691249604802401,1.446655438285361
Bexhill,BEX,3.0,50.84103990242,0.477016592346932,52.7119312404429,-2.7497615909892,304.79052767477134,361.0,188.5,VIRGIN WEST COAST,ANYTIME S,0.0,0.6184575401278222,0.5221606648199446,0.8442950905118319,1.1844200105365719
Bexley,BXY,3.0,51.4402175270263,0.147902494716889,52.7119312404429,-2.7497615909892,243.8791622086997,249.0,153.5,VIRGIN WEST COAST,ANYTIME S,0.0,0.6294100677147738,0.6164658634538153,0.9794343863803201,1.0209974388337373
Bexleyheath,BXH,3.0,51.4634982236074,0.133734871030645,52.7119312404429,-2.7497615909892,241.5490340987131,250.0,153.5,VIRGIN WEST COAST,ANYTIME S,0.0,0.6354817379947362,0.614,0.9661961363948524,1.0349865439653685
Bicester North,BCS,2.0,51.9034829537461,-1.15038352192815,52.7119312404429,-2.7497615909892,141.38930996654514,160.0,52.05,VIRGIN WEST COAST,ANYTIME S,200.0,0.3681324989301936,0.3253125,0.8836831872909071,1.1316272781715848
Bicester Village,BIT,2.0,51.8930236127002,-1.14876425178293,52.7119312404429,-2.7497615909892,142.22712611716426,186.0,64.4,CROSSCOUNTRY,ANYTIME S,700.0,0.45279688733180473,0.34623655913978496,0.7646619683718509,1.307767407511113
Bickley,BKL,3.0,51.4001024308637,0.0452405405139698,52.7119312404429,-2.7497615909892,240.92856012415763,260.0,118.5,VIRGIN WEST COAST,ANYTIME S,268.0,0.49184704353412245,0.45576923076923076,0.926648308169837,1.07915807020145
Bidston,BID,1.0,53.4091398593576,-3.07856110228132,52.7119312404429,-2.7497615909892,80.66090752156165,145.0,17.1,TRANSPORT FOR WALES RAIL,ANYTIME DAY S,1000.0,0.21199860657938868,0.11793103448275863,0.5562821208383563,1.7976490031585588
Biggleswade,BIW,2.0,52.0846785950736,-0.261187193156868,52.7119312404429,-2.7497615909892,183.19352188299223,254.0,172.0,VIRGIN WEST COAST,ANYTIME S,0.0,0.9388978290938603,0.6771653543307087,0.7212343381220166,1.3865119104060495
Bilbrook,BBK,0.0,52.6237197237583,-2.18608801838282,52.7119312404429,-2.7497615909892,39.37632759140878,43.0,12.1,WEST MIDLANDS TRAINS,ANYTIME DAY S,0.0,0.30729122648400575,0.2813953488372093,0.9157285486374135,1.0920266726291112
Billericay,BIC,3.0,51.6288812691945,0.418629610467223,52.7119312404429,-2.7497615909892,247.98616064748325,252.0,164.5,VIRGIN WEST COAST,ANYTIME S,0.0,0.6633434687262233,0.6527777777777778,0.9840720660614415,1.0161857393252782
Billingham (Cleveland),BIL,2.0,54.605606575355,-1.27971968622732,52.7119312404429,-2.7497615909892,232.07826559766812,241.0,101.2,TRANSPENNINE EXPRESS,ANYTIME DAY S,95.0,0.4360597910337746,0.4199170124481328,0.9629803551770462,1.0384427829954515
Billingshurst,BIG,3.0,51.0152034952011,-0.450302232654151,52.7119312404429,-2.7497615909892,246.41115923467964,306.0,173.5,VIRGIN WEST COAST,ANYTIME S,0.0,0.7041077219833224,0.5669934640522876,0.805265226257123,1.2418268756593467
Bingham,BIN,2.0,52.9541905628363,-0.95154335353279,52.7119312404429,-2.7497615909892,124.15125549837649,192.0,71.45,CROSSCOUNTRY,ANYTIME S,0.0,0.5755076717764996,0.37213541666666666,0.6466211223873776,1.5465006715337708
Bingley,BIY,2.0,53.8486154371384,-1.8373224993653,52.7119312404429,-2.7497615909892,140.37930080038726,191.0,62.8,TRANSPENNINE EXPRESS,ANYTIME DAY S,0.0,0.44735940157800497,0.3287958115183246,0.7349701612585721,1.3605994538439323
Birchgrove,BCG,1.0,51.5215597229164,-3.20185379786194,52.7119312404429,-2.7497615909892,136.02341255934007,141.0,48.5,TRANSPORT FOR WALES RAIL,ANYTIME DAY S,1000.0,0.3565562654799733,0.34397163120567376,0.9647050536123409,1.03658625634384
Birchington-on-sea,BCH,3.0,51.3774886896266,1.3014083545974,52.7119312404429,-2.7497615909892,315.0579747553393,333.0,149.5,VIRGIN WEST COAST,ANYTIME S,268.0,0.47451584146091014,0.44894894894894893,0.9461200443103281,1.056948329140355
Birchwood,BWD,1.0,53.4127205850305,-2.5253082468513,52.7119312404429,-2.7497615909892,79.4273275811327,117.0,24.0,VIRGIN WEST COAST,ANYTIME S,0.0,0.3021630052387788,0.20512820512820512,0.6788660477019889,1.4730446505390467
Birkbeck,BIK,3.0,51.4038899816034,-0.0557387405611835,52.7119312404429,-2.7497615909892,235.19007900679546,283.0,118.5,VIRGIN WEST COAST,ANYTIME S,268.0,0.5038477834627375,0.41872791519434627,0.8310603498473338,1.20328204826966
Birkdale,BDL,2.0,53.6340528065899,-3.01445011129132,52.7119312404429,-2.7497615909892,104.13737829263314,254.0,30.9,TRANSPORT FOR WALES RAIL,ANYTIME DAY S,1000.0,0.2967234292490914,0.12165354330708661,0.4099896783174533,2.439085793827483
Birkenhead Central,BKC,1.0,53.3883166263867,-3.02082115838918,52.7119312404429,-2.7497615909892,77.4365122584543,112.0,17.1,TRANSPORT FOR WALES RAIL,ANYTIME DAY S,1000.0,0.22082606126327792,0.15267857142857144,0.6913974308790563,1.4463461322507092
Birkenhead Hamilton Square,BKQ,1.0,53.3946967251861,-3.01368016573114,52.7119312404429,-2.7497615909892,78.01660062576816,114.0,17.1,TRANSPORT FOR WALES RAIL,ANYTIME DAY S,1000.0,0.21918412059538042,0.15000000000000002,0.6843561458400717,1.4612274706358694
Birkenhead North,BKN,2.0,53.4044379353974,-3.05753365912751,52.7119312404429,-2.7497615909892,79.78180818812329,154.0,17.1,TRANSPORT FOR WALES RAIL,ANYTIME DAY S,1000.0,0.21433457561752267,0.11103896103896105,0.5180636895332681,1.9302645991285665
Birkenhead Park,BKP,2.0,53.3974085855031,-3.03910128885113,52.7119312404429,-2.7497615909892,78.71312314048299,152.0,17.1,TRANSPORT FOR WALES RAIL,ANYTIME DAY S,1000.0,0.217244587913007,0.1125,0.5178494943452828,1.931063003671173
Birmingham International,BHI,0.0,52.4508081112451,-1.72585685988124,52.7119312404429,-2.7497615909892,75.24144508993771,74.0,18.3,WEST MIDLANDS TRAINS,ANYTIME DAY S,0.0,0.24321701926545428,0.2472972972972973,1.0167762849991582,0.9835005150624927
Birmingham Moor Street,BMO,1.0,52.479080623723,-1.89247273057604,52.7119312404429,-2.7497615909892,63.608646248985295,73.0,15.8,WEST MIDLANDS TRAINS,ANYTIME DAY S,0.0,0.2483939044725708,0.21643835616438356,0.8713513184792506,1.1476427231960549
Birmingham New Street,BHM,0.0,52.4778198092097,-1.9002055706822,52.7119312404429,-2.7497615909892,63.18892804636491,69.0,15.8,WEST MIDLANDS TRAINS,ANYTIME DAY S,0.0,0.25004380495910206,0.2289855072463768,0.9157815658893464,1.0919634520365848
Birmingham Snow Hill,BSW,1.0,52.4833566780576,-1.89908868312646,52.7119312404429,-2.7497615909892,63.003336227049374,72.0,15.8,WEST MIDLANDS TRAINS,ANYTIME DAY S,0.0,0.2507803704721362,0.21944444444444444,0.8750463364867969,1.1427966249363168
Bishop Auckland,BIA,2.0,54.6571963763698,-1.67771509725951,52.7119312404429,-2.7497615909892,227.79084859768733,277.0,100.6,TRANSPENNINE EXPRESS,ANYTIME DAY S,95.0,0.4416331938675668,0.3631768953068592,0.822349633926669,1.216027780331173
Bishopbriggs,BBG,3.0,55.9038831792009,-4.22491571705821,52.7119312404429,-2.7497615909892,368.0215739690212,303.0,115.0,VIRGIN WEST COAST,ANYTIME S,287.0,0.312481680787769,0.3795379537953795,1.2145926533631062,0.8233212980756001
Bishops Stortford,BIS,2.0,51.8666894209812,0.16489410333554,52.7119312404429,-2.7497615909892,219.9758430358019,316.0,168.0,VIRGIN WEST COAST,ANYTIME S,0.0,0.7637202234640709,0.5316455696202531,0.696126085556335,1.4365213727062285
Bishopstone (Sussex),BIP,4.0,50.7801416620368,0.082756921439231,52.7119312404429,-2.7497615909892,290.5903609676654,291.0,188.5,VIRGIN WEST COAST,ANYTIME S,0.0,0.6486794653900265,0.647766323024055,0.9985923057308089,1.0014096786657702
Bishopton (Strathclyde),BPT,2.0,55.9022694882255,-4.5004875625329,52.7119312404429,-2.7497615909892,372.9238089594036,268.0,118.6,VIRGIN WEST COAST,ANYTIME S,287.0,0.3180274285273933,0.4425373134328358,1.3915067498485207,0.7186454540079377
Bitterne,BTE,2.0,50.9182213632939,-1.37699961416727,52.7119312404429,-2.7497615909892,220.87866480101377,280.0,49.9,VIRGIN WEST COAST,ANYTIME S,200.0,0.22591588936375612,0.17821428571428571,0.7888523742893349,1.2676643090551445
Blackburn,BBN,2.0,53.7465184457461,-2.47912240276289,52.7119312404429,-2.7497615909892,116.54943820587437,155.0,39.5,VIRGIN WEST COAST,ANYTIME S,0.0,0.3389119725332928,0.25483870967741934,0.7519318593927379,1.329907740320516
Blackheath,BKH,3.0,51.4657945200002,0.00887187089452019,52.7119312404429,-2.7497615909892,234.4460561642462,230.0,153.5,VIRGIN WEST COAST,ANYTIME S,0.0,0.6547348354303828,0.6673913043478261,1.0193306789749834,0.9810359097653943
Blackhorse Road,BHO,2.0,51.58660384873,-0.0412357433706351,52.7119312404429,-2.7497615909892,223.6968661745717,212.0,152.5,VIRGIN WEST COAST,ANYTIME S,0.0,0.6817261350500543,0.7193396226415094,1.0551738970498665,0.9477110861023705
Blackpool North,BPN,1.0,53.8219180942013,-3.04927516714828,52.7119312404429,-2.7497615909892,125.13756619666985,202.0,42.5,VIRGIN WEST COAST,ANYTIME S,0.0,0.3396262312885785,0.2103960396039604,0.6194929019637121,1.6142234993010085
Blackpool Pleasure Beach,BPB,2.0,53.7879555202556,-3.05387646984086,52.7119312404429,-2.7497615909892,121.45975645421777,151.0,42.5,VIRGIN WEST COAST,ANYTIME S,0.0,0.349910136828075,0.2814569536423841,0.8043692480411773,1.243210133200925
Blackpool South,BPS,2.0,53.7987040263195,-3.04893832565541,52.7119312404429,-2.7497615909892,122.58488710854131,153.0,42.5,VIRGIN WEST COAST,ANYTIME S,0.0,0.34669852868868645,0.2777777777777778,0.8012084124741262,1.2481147032792712
Blackridge,BKR,2.0,55.8842557507999,-3.75079743413867,52.7119312404429,-2.7497615909892,359.06666901756336,266.0,131.5,VIRGIN WEST COAST,ANYTIME S,287.0,0.3662272534507173,0.4943609022556391,1.3498746955547494,0.7408095012767362
Blackrod,BLK,1.0,53.5915244932358,-2.56952431744104,52.7119312404429,-2.7497615909892,98.62894285595324,171.0,40.8,TRANSPORT FOR WALES RAIL,ANYTIME DAY S,1000.0,0.41367167505372193,0.23859649122807017,0.5767774436020657,1.7337709910339818
Blackwater,BAW,2.0,51.3315811457068,-0.776741026218888,52.7119312404429,-2.7497615909892,204.7591847260987,223.0,89.3,VIRGIN WEST COAST,ANYTIME S,268.0,0.4361220724699329,0.40044843049327355,0.9182026220901287,1.0890842347233487
Blaenau Ffestiniog,BFF,1.0,52.9945530771849,-3.93859577234881,52.7119312404429,-2.7497615909892,86.03847577604957,210.0,36.4,TRANSPORT FOR WALES RAIL,ANYTIME DAY S,1000.0,0.4230665370542585,0.17333333333333334,0.40970702750499793,2.4407684830053378
Blair Atholl,BLA,2.0,56.7655504660718,-3.85022876626298,52.7119312404429,-2.7497615909892,456.7597837093978,454.0,158.5,VIRGIN WEST COAST,ANYTIME S,287.0,0.34700953466788076,0.3491189427312775,1.006078818743167,0.9939579100266112
Blairhill,BAI,2.0,55.8664556230225,-4.0432911996593,52.7119312404429,-2.7497615909892,361.07638683164595,294.0,131.5,VIRGIN WEST COAST,ANYTIME S,287.0,0.36418886638885273,0.44727891156462585,1.2281509756178433,0.8142321423446592
Blake Street,BKT,1.0,52.6048860712992,-1.84491459685048,52.7119312404429,-2.7497615909892,62.37482611252555,112.0,15.8,WEST MIDLANDS TRAINS,ANYTIME DAY S,0.0,0.2533073193903011,0.14107142857142857,0.5569180902904066,1.7955961880831468
Blakedown,BKD,1.0,52.4064026596129,-2.17686566095142,52.7119312404429,-2.7497615909892,51.62799060019726,80.0,20.4,WEST MIDLANDS TRAINS,ANYTIME S,0.0,0.3951344951225364,0.255,0.6453498825024657,1.5495470396962212
Blantyre,BLT,2.0,55.7973304780703,-4.08697164977011,52.7119312404429,-2.7497615909892,354.30251552491046,276.0,115.0,VIRGIN WEST COAST,ANYTIME S,287.0,0.324581381618541,0.4166666666666667,1.283704766394603,0.7789953158844983
Blaydon,BLO,2.0,54.9657896857216,-1.71258088882198,52.7119312404429,-2.7497615909892,259.97644511267066,300.0,112.3,TRANSPENNINE EXPRESS,ANYTIME DAY S,0.0,0.4319622108507966,0.37433333333333335,0.8665881503755689,1.1539506968409527
Bleasby,BSB,2.0,53.0413649497003,-0.943687538181265,52.7119312404429,-2.7497615909892,127.00219241070408,207.0,59.55,CROSSCOUNTRY,ANYTIME S,0.0,0.46888954331926136,0.2876811594202898,0.6135371614043675,1.6298931228729991
Bletchley,BLY,1.0,51.9953339717924,-0.736320506839459,52.7119312404429,-2.7497615909892,158.66883741004463,171.0,76.0,VIRGIN WEST COAST,ANYTIME S,0.0,0.4789850435696756,0.4444444444444444,0.9278879380704365,1.0777163480317702
Bloxwich,BLX,1.0,52.6182018754768,-2.01147807238452,52.7119312404429,-2.7497615909892,51.02615808256495,126.0,19.1,WEST MIDLANDS TRAINS,ANYTIME DAY S,0.0,0.37431781497432104,0.1515873015873016,0.4049695085917853,2.469321711348924
Bloxwich North,BWN,1.0,52.6254378492086,-2.01768461058018,52.7119312404429,-2.7497615909892,50.45140887437415,128.0,19.1,WEST MIDLANDS TRAINS,ANYTIME DAY S,0.0,0.37858209366481116,0.14921875,0.39415163183104807,2.537094659114965
Blundellsands & Crosby,BLN,2.0,53.4876867000616,-3.03986028592851,52.7119312404429,-2.7497615909892,88.4919542426224,184.0,28.5,TRANSPORT FOR WALES RAIL,ANYTIME DAY S,1000.0,0.32206317787784705,0.15489130434782608,0.4809345339272956,2.0792850782289074
Blythe Bridge,BYB,1.0,52.9681439666743,-2.06696136521393,52.7119312404429,-2.7497615909892,54.12835060889434,146.0,23.1,EAST MIDLANDS TRAINS,ANYTIME DAY S,0.0,0.4267634195416297,0.1582191780821918,0.3707421274581804,2.697292608358352
Bodmin Parkway,BOD,2.0,50.4458686645733,-4.66292953056928,52.7119312404429,-2.7497615909892,284.8492145357785,368.0,74.6,CROSSCOUNTRY,ANYTIME S,700.0,0.2618929461384555,0.20271739130434782,0.774046778629833,1.2919115841682525
Bodorgan,BOR,0.0,53.2043074000119,-4.41800424551237,52.7119312404429,-2.7497615909892,124.77945824848167,141.0,42.9,TRANSPORT FOR WALES RAIL,ANYTIME DAY S,1000.0,0.3438065896597368,0.30425531914893617,0.8849606967977424,1.12999368629424
Bognor Regis,BOG,3.0,50.7865584395345,-0.676178286011514,52.7119312404429,-2.7497615909892,257.65430216314155,341.0,188.5,VIRGIN WEST COAST,ANYTIME S,0.0,0.7316004367768932,0.5527859237536656,0.7555844638215294,1.3234787742223906
Bogston,BGS,2.0,55.9370473872407,-4.71140217696609,52.7119312404429,-2.7497615909892,380.9648897215161,304.0,122.8,VIRGIN WEST COAST,ANYTIME S,287.0,0.32233941581799397,0.4039473684210526,1.2531739793470924,0.7979737981162066
Bolton,BON,1.0,53.5741455351566,-2.42582497565139,52.7119312404429,-2.7497615909892,98.37251378844213,114.0,40.8,TRANSPORT FOR WALES RAIL,ANYTIME DAY S,1000.0,0.41474999904692506,0.35789473684210527,0.8629167876179135,1.1588602914546435
Bolton-Upon-Dearne,BTD,2.0,53.5189470302023,-1.31154616002462,52.7119312404429,-2.7497615909892,131.67584435579028,203.0,45.3,TRANSPORT FOR WALES RAIL,ANYTIME DAY S,1000.0,0.34402665288857887,0.2231527093596059,0.6486494795851737,1.5416646917523513
Bookham,BKA,2.0,51.2887375770933,-0.384020684769355,52.7119312404429,-2.7497615909892,226.85560284156588,529.0,157.0,VIRGIN WEST COAST,ANYTIME S,0.0,0.6920701892897374,0.29678638941398866,0.42883856869861225,2.3318798097724276
Bootle (Cumbria),BOC,2.0,54.2913058315169,-3.39386227213438,52.7119312404429,-2.7497615909892,180.8969799254652,257.0,70.5,VIRGIN WEST COAST,ANYTIME S,0.0,0.3897245826273498,0.27431906614785995,0.7038792993208762,1.420698123903956
Bootle New Strand,BNW,2.0,53.4533917659639,-2.99474773972908,52.7119312404429,-2.7497615909892,84.13252430287993,163.0,28.5,TRANSPORT FOR WALES RAIL,ANYTIME DAY S,1000.0,0.33875127646710135,0.17484662576687116,0.5161504558458891,1.9374195811978077
Bootle Oriel Road,BOT,2.0,53.4466239167649,-2.9957338918952,52.7119312404429,-2.7497615909892,83.40719485292223,157.0,28.5,TRANSPORT FOR WALES RAIL,ANYTIME DAY S,1000.0,0.341697140759332,0.18152866242038215,0.5312560181714792,1.8823316175163203
Bordesley,BBS,1.0,52.4718743800827,-1.87776885469942,52.7119312404429,-2.7497615909892,64.85046461023329,77.0,15.8,WEST MIDLANDS TRAINS,ANYTIME DAY S,0.0,0.24363742179738815,0.2051948051948052,0.8422138261069259,1.1873469290125878
Borough Green & Wrotham,BRG,3.0,51.2932170234776,0.306244959659036,52.7119312404429,-2.7497615909892,262.5712333085642,290.0,167.5,VIRGIN WEST COAST,ANYTIME S,0.0,0.6379221283664386,0.5775862068965517,0.9054180458916008,1.104462192395625
Borth,BRH,0.0,52.4910318901744,-4.05017708151719,52.7119312404429,-2.7497615909892,91.4713237867359,96.0,21.1,TRANSPORT FOR WALES RAIL,ANYTIME DAY S,1000.0,0.23067338622095768,0.2197916666666667,0.9528262894451656,1.0495092453654946
Bosham,BOH,2.0,50.8427472866996,-0.847431235664145,52.7119312404429,-2.7497615909892,245.92804313012712,359.0,113.95,VIRGIN WEST COAST,ANYTIME S,268.0,0.4633469146082946,0.31740947075208914,0.6850363318387942,1.4597765892442103
Boston,BSN,2.0,52.9780883520384,-0.03100323679323,52.7119312404429,-2.7497615909892,185.5501630926778,269.0,79.6,CROSSCOUNTRY,ANYTIME S,268.0,0.42899450301340736,0.29591078066914495,0.6897775579653449,1.4497427300327461
Botley,BOE,2.0,50.9164546156522,-1.25923650546392,52.7119312404429,-2.7497615909892,224.6529221151565,279.0,58.4,VIRGIN WEST COAST,ANYTIME S,200.0,0.25995655631874803,0.2093189964157706,0.8052076061475144,1.2419157399474434
Bottesford,BTF,2.0,52.9446141670485,-0.794842711685305,52.7119312404429,-2.7497615909892,134.28353413850988,203.0,76.2,CROSSCOUNTRY,ANYTIME S,268.0,0.5674560212378812,0.3753694581280788,0.661495242061625,1.5117266707518355
Bourne End,BNE,3.0,51.5771173647136,-0.710473547391366,52.7119312404429,-2.7497615909892,188.2237318036294,238.0,72.05,CROSSCOUNTRY,ANYTIME S,700.0,0.3827891377436323,0.30273109243697477,0.7908560159816361,1.2644526687437125
Bournemouth,BMH,1.0,50.7272746595869,-1.86450316465566,52.7119312404429,-2.7497615909892,229.1298085883696,269.0,114.6,VIRGIN WEST COAST,ANYTIME S,268.0,0.5001531695331629,0.42602230483271375,0.8517836750497011,1.1740070035289776
Bournville,BRV,1.0,52.4269645832552,-1.92642405915734,52.7119312404429,-2.7497615909892,64.20207163759385,95.0,15.8,WEST MIDLANDS TRAINS,ANYTIME DAY S,0.0,0.24609797779092585,0.16631578947368422,0.6758112803957247,1.4797030310213894
Bow Brickhill,BWB,2.0,52.0043001848605,-0.696077833880482,52.7119312404429,-2.7497615909892,160.5411119916157,183.0,76.0,VIRGIN WEST COAST,ANYTIME S,0.0,0.47339898831627075,0.41530054644808745,0.877273836019758,1.1398949323931256
Bowes Park,BOP,3.0,51.6070103763875,-0.120581954633459,52.7119312404429,-2.7497615909892,217.89618978553133,225.0,153.5,VIRGIN WEST COAST,ANYTIME S,0.0,0.7044639015995894,0.6822222222222222,0.9684275101579171,1.0326018101622645
Bowling,BWG,3.0,55.9310849001239,-4.49384261915191,52.7119312404429,-2.7497615909892,375.8370614237747,335.0,118.6,VIRGIN WEST COAST,ANYTIME S,287.0,0.31556227996970393,0.35402985074626864,1.1219016758918647,0.8913437081774942
Box Hill & Westhumble,BXW,3.0,51.2540106794359,-0.328489952956063,52.7119312404429,-2.7497615909892,232.3277162541258,291.0,96.85,VIRGIN WEST COAST,ANYTIME S,268.0,0.4168680412373316,0.33281786941580754,0.7983770318011195,1.2525410428504236
Bracknell,BCE,2.0,51.4130914141393,-0.751703650172948,52.7119312404429,-2.7497615909892,199.14235709769295,226.0,85.05,GWR,ANYTIME S,824.0,0.42708141672882355,0.37632743362831855,0.8811608721136857,1.13486655121357
Bradford Forster Square,BDQ,2.0,53.7969256219995,-1.75296173787813,52.7119312404429,-2.7497615909892,137.86115887028055,211.0,59.6,TRANSPENNINE EXPRESS,ANYTIME DAY S,0.0,0.4323190120291981,0.28246445497630335,0.6533704211861637,1.5305253613785368
Bradford Interchange,BDI,2.0,53.7910764525054,-1.74959589964649,52.7119312404429,-2.7497615909892,137.40252001670854,194.0,59.6,TRANSPENNINE EXPRESS,ANYTIME DAY S,0.0,0.43376205904194826,0.30721649484536084,0.7082604124572605,1.4119100579553348
Bradford-on-Avon,BOA,1.0,51.3449161602034,-2.25232693866303,52.7119312404429,-2.7497615909892,155.88835587886027,167.0,62.7,TRANSPORT FOR WALES RAIL,ANYTIME DAY S,700.0,0.40221092618825055,0.3754491017964072,0.9334632088554508,1.0712795003738094
Brading,BDN,3.0,50.6783720718463,-1.13872244962043,52.7119312404429,-2.7497615909892,252.17551831463874,340.0,168.5,VIRGIN WEST COAST,ANYTIME S,268.0,0.6681854016842467,0.49558823529411766,0.7416927009254081,1.3482672793628718
Braintree,BTR,2.0,51.8753890748181,0.556686982906197,52.7119312404429,-2.7497615909892,244.01214933830545,295.0,173.5,VIRGIN WEST COAST,ANYTIME S,0.0,0.7110301698931172,0.588135593220339,0.8271598282654422,1.2089561966482396
Braintree Freeport,BTP,2.0,51.8694135093739,0.568434688069829,52.7119312404429,-2.7497615909892,245.02056398943682,293.0,173.5,VIRGIN WEST COAST,ANYTIME S,0.0,0.7081038308583757,0.5921501706484642,0.8362476586670199,1.1958179967810034
Bramhall,BML,1.0,53.360614520234,-2.16359288123925,52.7119312404429,-2.7497615909892,82.20342107233212,155.0,44.8,CROSSCOUNTRY,ANYTIME S,0.0,0.5449894835955763,0.2890322580645161,0.530344652079562,1.8855662936900521
Bramley (Hants),BMY,2.0,51.3302932744388,-1.06100278415591,52.7119312404429,-2.7497615909892,192.53006220468697,224.0,89.3,GWR,ANYTIME S,824.0,0.4638236698072706,0.39866071428571426,0.859509206270924,1.1634546700652701
Bramley (W Yorks),BLE,2.0,53.8053497570895,-1.63720635437646,52.7119312404429,-2.7497615909892,142.54582753077491,183.0,59.0,TRANSPENNINE EXPRESS,ANYTIME DAY S,0.0,0.41390197820600677,0.3224043715846995,0.7789389482556006,1.2837976612152413
Brampton (Cumbria),BMP,2.0,54.9323930102284,-2.70294760254176,52.7119312404429,-2.7497615909892,247.16025852237385,205.0,80.0,VIRGIN WEST COAST,ANYTIME S,0.0,0.3236766318269493,0.3902439024390244,1.2056597976701164,0.8294213690565575
Brampton (Suffolk),BRP,3.0,52.3954307722651,1.54381046672808,52.7119312404429,-2.7497615909892,293.2992591439014,382.0,184.0,VIRGIN WEST COAST,ANYTIME S,0.0,0.6273456009983445,0.4816753926701571,0.7677991077065481,1.3024240194639543
Branchton,BCN,2.0,55.9406016000061,-4.80354935893801,52.7119312404429,-2.7497615909892,383.38008596429916,269.0,123.8,VIRGIN WEST COAST,ANYTIME S,287.0,0.32291713767190405,0.46022304832713756,1.425204780536428,0.7016535543921016
Brandon,BND,2.0,52.4540047306678,0.624731734521936,52.7119312404429,-2.7497615909892,230.50286816538647,293.0,95.2,CROSSCOUNTRY,ANYTIME S,700.0,0.4130100452012325,0.3249146757679181,0.7866992087555852,1.2711338576046336
Branksome,BSM,2.0,50.7269660330633,-1.91975842787338,52.7119312404429,-2.7497615909892,228.1738443319368,311.0,114.6,VIRGIN WEST COAST,ANYTIME S,268.0,0.5022486268552551,0.36848874598070736,0.7336779560512438,1.3629958372773503
Braystones (Cumbria),BYS,2.0,54.4393640536404,-3.54182643942065,52.7119312404429,-2.7497615909892,199.2852563526882,270.0,92.5,VIRGIN WEST COAST,ANYTIME S,0.0,0.46415877267055156,0.3425925925925926,0.7380935420469934,1.3548418229302586
Bredbury,BDY,1.0,53.4231550957567,-2.11048830300964,52.7119312404429,-2.7497615909892,90.00507278915534,136.0,26.8,TRANSPORT FOR WALES RAIL,ANYTIME DAY S,1000.0,0.29776099468061445,0.19705882352941176,0.6618020058026127,1.511025943155357
Breich,BRC,2.0,55.8273164832767,-3.66812586892786,52.7119312404429,-2.7497615909892,351.88865419620595,271.0,124.5,VIRGIN WEST COAST,ANYTIME S,287.0,0.35380509861673837,0.45940959409594095,1.298482118805188,0.7701299736958723
Brentford,BFD,3.0,51.4875457097478,-0.3096509962364,52.7119312404429,-2.7497615909892,215.66254701044187,234.0,153.5,VIRGIN WEST COAST,ANYTIME S,0.0,0.7117601184250499,0.655982905982906,0.9216348162839396,1.0850284541463302
Brentwood,BRE,3.0,51.6136030493508,0.2995857793073,52.7119312404429,-2.7497615909892,241.78790333309743,263.0,164.5,VIRGIN WEST COAST,ANYTIME S,0.0,0.6803483455223883,0.6254752851711026,0.9193456400498001,1.0877301815950646
Bricket Wood,BWO,1.0,51.7054267834401,-0.359115040469,52.7119312404429,-2.7497615909892,198.097349134067,182.0,112.5,VIRGIN WEST COAST,ANYTIME S,200.0,0.5679026018862221,0.6181318681318682,1.0884469732641044,0.9187402092737105
Bridge of Allan,BEA,2.0,56.1566398048563,-3.95722936202684,52.7119312404429,-2.7497615909892,391.34806216532974,287.0,137.5,VIRGIN WEST COAST,ANYTIME S,287.0,0.3513496380669734,0.47909407665505227,1.3635820981370375,0.7333625172743372
Bridge of Orchy,BRO,3.0,56.5158728605762,-4.76299400728156,52.7119312404429,-2.7497615909892,442.91707676577397,390.0,140.8,VIRGIN WEST COAST,ANYTIME S,287.0,0.31789246201148097,0.36102564102564105,1.1356848122199332,0.8805259956283918
Bridgend,BGN,0.0,51.5069776497295,-3.57527638119945,52.7119312404429,-2.7497615909892,145.51237408911098,135.0,49.4,TRANSPORT FOR WALES RAIL,ANYTIME DAY S,1000.0,0.33949002831709496,0.36592592592592593,1.0778694376971183,0.9277561502592676
Bridgeton,BDG,2.0,55.8489676845822,-4.22605724682491,52.7119312404429,-2.7497615909892,362.15962018840247,260.0,117.6,VIRGIN WEST COAST,ANYTIME S,287.0,0.3247186970729155,0.4523076923076923,1.3929216161092404,0.7179154867258336
Bridgwater,BWT,1.0,51.1278595271724,-2.99040597303838,52.7119312404429,-2.7497615909892,177.02865147514274,210.0,85.05,CROSSCOUNTRY,ANYTIME S,0.0,0.4804307059410786,0.40499999999999997,0.8429935784530607,1.1862486566446386
Bridlington,BDT,2.0,54.0841300013586,-0.198720390714093,52.7119312404429,-2.7497615909892,228.26623792034707,336.0,92.8,TRANSPENNINE EXPRESS,ANYTIME DAY S,0.0,0.40654281967174805,0.2761904761904762,0.6793638033343663,1.4719653815701224
Brierfield,BRF,2.0,53.8239823807197,-2.23649020577414,52.7119312404429,-2.7497615909892,128.41136294471397,216.0,67.5,VIRGIN WEST COAST,ANYTIME S,0.0,0.525654416027508,0.3125,0.594497050669972,1.6820941312880255
Brigg,BGG,2.0,53.5491442686681,-0.486124757673641,52.7119312404429,-2.7497615909892,177.85821720562654,230.0,58.5,TRANSPENNINE EXPRESS,ANYTIME DAY S,0.0,0.32891367584308245,0.2543478260869565,0.7732965965462024,1.2931648793830592
Brighouse,BGH,2.0,53.6981985445311,-1.77943904000537,52.7119312404429,-2.7497615909892,127.47781971928246,174.0,47.6,TRANSPENNINE EXPRESS,ANYTIME DAY S,0.0,0.3733982908149782,0.2735632183908046,0.7326311478119681,1.3649433319707187
Brighton (East Sussex),BTN,3.0,50.8290032740444,-0.141280362604851,52.7119312404429,-2.7497615909892,276.2090580316886,292.0,182.5,VIRGIN WEST COAST,ANYTIME S,0.0,0.6607314086674969,0.625,0.9459214316153719,1.057170253867995
Brimsdown,BMD,3.0,51.6555817179022,-0.0308174334464399,52.7119312404429,-2.7497615909892,219.97579624064437,241.0,154.0,VIRGIN WEST COAST,ANYTIME S,0.0,0.7000770204351501,0.6390041493775933,0.9127626400026737,1.0955750774342283
Brinnington,BNT,1.0,53.4321182782686,-2.13512015019042,52.7119312404429,-2.7497615909892,90.1149041223971,133.0,26.8,TRANSPORT FOR WALES RAIL,ANYTIME DAY S,1000.0,0.29739808593259265,0.20150375939849624,0.6775556700932114,1.4758934861580155
Bristol Parkway,BPW,1.0,51.5138036668802,-2.54216343130652,52.7119312404429,-2.7497615909892,134.0712805992966,158.0,54.7,TRANSPORT FOR WALES RAIL,ANYTIME DAY S,1000.0,0.4079919260522598,0.34620253164556963,0.8485524088563077,1.1784775926189588
Bristol Temple Meads,BRI,1.0,51.449146420501,-2.58131562733598,52.7119312404429,-2.7497615909892,140.98225892936395,168.0,54.7,TRANSPORT FOR WALES RAIL,ANYTIME DAY S,1000.0,0.3879920808149785,0.3255952380952381,0.8391801126747854,1.1916392975670271
Brithdir,BHD,1.0,51.7103060616454,-3.22872077880337,52.7119312404429,-2.7497615909892,116.16051478049644,193.0,51.4,TRANSPORT FOR WALES RAIL,ANYTIME DAY S,1000.0,0.44249115198162114,0.26632124352331604,0.6018679522305516,1.661494014250056
Briton Ferry,BNF,0.0,51.6379005035521,-3.81925304025098,52.7119312404429,-2.7497615909892,140.12178639957153,161.0,49.4,TRANSPORT FOR WALES RAIL,ANYTIME DAY S,1000.0,0.3525504582073402,0.306832298136646,0.8703216546557239,1.1490004812020602
Brixton,BRX,3.0,51.4632974069132,-0.114183479348404,52.7119312404429,-2.7497615909892,227.87462791904787,228.0,153.5,VIRGIN WEST COAST,ANYTIME S,0.0,0.6736160203606812,0.6732456140350878,0.9994501224519643,1.000550180079709
Broad Green,BGE,2.0,53.4065063198581,-2.8934843782564,52.7119312404429,-2.7497615909892,77.89569044124895,135.0,28.5,TRANSPORT FOR WALES RAIL,ANYTIME DAY S,1000.0,0.36587389929479447,0.2111111111111111,0.5770051143796218,1.7330868913963948
Broadbottom,BDB,1.0,53.4409753914717,-2.01652101691897,52.7119312404429,-2.7497615909892,94.85385629512244,140.0,48.3,TRANSPORT FOR WALES RAIL,ANYTIME S,0.0,0.5092043896425503,0.345,0.6775275449651603,1.4759547525871024
Broadstairs,BSR,3.0,51.3606706129939,1.43356042841681,52.7119312404429,-2.7497615909892,323.989810267219,310.0,149.5,VIRGIN WEST COAST,ANYTIME S,268.0,0.46143426509832514,0.482258064516129,1.0451284202168356,0.9568202152540521
Brockenhurst,BCU,1.0,50.8168418133325,-1.57353117285741,52.7119312404429,-2.7497615909892,225.94144647494574,254.0,108.2,VIRGIN WEST COAST,ANYTIME S,268.0,0.47888513456958026,0.4259842519685039,0.889533253838369,1.1241850663648187
Brockholes,BHS,2.0,53.5969730380642,-1.76969142002127,52.7119312404429,-2.7497615909892,118.31915752145089,197.0,47.6,TRANSPENNINE EXPRESS,ANYTIME DAY S,0.0,0.4023017150994358,0.2416243654822335,0.6006048605149792,1.664988190642623
Brockley,BCY,3.0,51.4646472014469,-0.0375366925196268,52.7119312404429,-2.7497615909892,231.96768007850906,253.0,153.5,VIRGIN WEST COAST,ANYTIME S,0.0,0.6617301166612874,0.6067193675889329,0.9168683007055695,1.090669182510135
Bromborough,BOM,1.0,53.3218495381578,-2.98689585549247,52.7119312404429,-2.7497615909892,69.71631334317374,97.0,17.6,TRANSPORT FOR WALES RAIL,ANYTIME DAY S,1000.0,0.252451673876747,0.1814432989690722,0.7187248798265333,1.391352975343435
Bromborough Rake,BMR,1.0,53.3299093778849,-2.98946942122466,52.7119312404429,-2.7497615909892,70.62871924204372,99.0,17.6,TRANSPORT FOR WALES RAIL,ANYTIME DAY S,1000.0,0.2491904169985729,0.17777777777777778,0.7134214064852901,1.4016960956169724
Bromley Cross (Lancs),BMC,2.0,53.6140430093272,-2.41089911446368,52.7119312404429,-2.7497615909892,102.9215782635144,166.0,40.8,TRANSPORT FOR WALES RAIL,ANYTIME DAY S,1000.0,0.3964183282881463,0.24578313253012046,0.6200095076115325,1.6128784925449091
Bromley North,BMN,4.0,51.4083259856208,0.0169926357417391,52.7119312404429,-2.7497615909892,238.82004687513947,242.0,153.5,VIRGIN WEST COAST,ANYTIME S,0.0,0.642743362663576,0.6342975206611571,0.9868596978311548,1.0133152688246607
Bromley South,BMS,3.0,51.3999745779484,0.0173440284479178,52.7119312404429,-2.7497615909892,239.41838831142357,237.0,118.5,VIRGIN WEST COAST,ANYTIME S,268.0,0.4949494516096277,0.5,1.0102041700903948,0.9898989032192554
Bromsgrove,BMV,1.0,52.3222879772082,-2.04734524157192,52.7119312404429,-2.7497615909892,64.44782696671523,124.0,30.8,TRANSPORT FOR WALES RAIL,ANYTIME DAY S,1000.0,0.4779059504350239,0.24838709677419354,0.519740540054155,1.9240369433098363
Brondesbury,BSY,3.0,51.5451643215911,-0.202308734122339,52.7119312404429,-2.7497615909892,217.43738161100356,218.0,152.5,VIRGIN WEST COAST,ANYTIME S,0.0,0.7013513447877292,0.6995412844036697,0.9974191817018512,1.0025874961555734
Brondesbury Park,BSP,3.0,51.5406977630272,-0.210127665126915,52.7119312404429,-2.7497615909892,217.3127084125038,214.0,152.5,VIRGIN WEST COAST,ANYTIME S,0.0,0.7017537129514023,0.7126168224299065,1.0154799458528216,0.9847560299777056
Brookmans Park,BPK,3.0,51.7210604040222,-0.204548729285783,52.7119312404429,-2.7497615909892,205.935056031165,254.0,154.0,VIRGIN WEST COAST,ANYTIME S,0.0,0.7478085711482485,0.6062992125984252,0.8107679371305709,1.233398552413345
Brookwood,BKO,2.0,51.3037572593507,-0.635747900032551,52.7119312404429,-2.7497615909892,213.57383276484666,268.0,83.2,VIRGIN WEST COAST,ANYTIME S,268.0,0.38956083206881686,0.31044776119402984,0.796917286435995,1.254835372529362
Broome,BME,0.0,52.4227745962921,-2.88520796216339,52.7119312404429,-2.7497615909892,33.461826831910436,39.0,10.3,TRANSPORT FOR WALES RAIL,ANYTIME DAY S,1000.0,0.30781343922853427,0.2641025641025641,0.8579955597925752,1.1655071970789161
Broomfleet,BMF,2.0,53.7402076992399,-0.671828400321333,52.7119312404429,-2.7497615909892,179.86187445448198,299.0,80.1,TRANSPENNINE EXPRESS,ANYTIME DAY S,0.0,0.4453417392815567,0.26789297658862876,0.6015447306169965,1.6623867671059358
Brora,BRA,3.0,58.012954677959,-3.85228367382381,52.7119312404429,-2.7497615909892,594.2681557509223,632.0,189.0,VIRGIN WEST COAST,ANYTIME S,287.0,0.31803824278818704,0.2990506329113924,0.9402977147957632,1.0634929600112921
Brough,BUH,1.0,53.726959736948,-0.578724236728498,52.7119312404429,-2.7497615909892,183.80838101892743,243.0,80.1,TRANSPENNINE EXPRESS,ANYTIME DAY S,0.0,0.43577991142717154,0.3296296296296296,0.7564130906128701,1.3220289447790599
Broughty Ferry,BYF,2.0,56.4671632427311,-2.87315275743822,52.7119312404429,-2.7497615909892,418.09265179155676,327.0,148.5,VIRGIN WEST COAST,ANYTIME S,287.0,0.3551844294886957,0.4541284403669725,1.2785708005858005,0.7821232891771279
Broxbourne,BXB,3.0,51.7469087203036,-0.0110867237416249,52.7119312404429,-2.7497615909892,215.72332921849747,237.0,157.0,VIRGIN WEST COAST,ANYTIME S,0.0,0.727784058260018,0.6624472573839663,0.9102250177995673,1.0986294382651227
Bruce Grove,BCV,3.0,51.5939575362971,-0.0698670703254643,52.7119312404429,-2.7497615909892,221.60340584395587,221.0,153.5,VIRGIN WEST COAST,ANYTIME S,0.0,0.6926788846742206,0.6945701357466063,1.0027303431853207,0.9972770912899201
Brundall,BDA,3.0,52.6194794445227,1.43929868679443,52.7119312404429,-2.7497615909892,283.55590414577506,337.0,105.8,CROSSCOUNTRY,ANYTIME S,700.0,0.37311866356204876,0.313946587537092,0.84141217847411,1.1884781627638037
Brundall Gardens,BGA,3.0,52.623439277351,1.41841612253682,52.7119312404429,-2.7497615909892,282.11618634236714,334.0,105.8,CROSSCOUNTRY,ANYTIME S,700.0,0.37502279245900666,0.31676646706586825,0.8446592405460094,1.1839093826210607
Brunstane,BSU,2.0,55.9425140850115,-3.10098653970798,52.7119312404429,-2.7497615909892,360.32338226234225,270.0,130.5,VIRGIN WEST COAST,ANYTIME S,287.0,0.36217466427140244,0.48333333333333334,1.3345310454160824,0.749326891596005
Brunswick,BRW,2.0,53.3832435421687,-2.97607735757102,52.7119312404429,-2.7497615909892,76.23444675456892,141.0,28.5,TRANSPORT FOR WALES RAIL,ANYTIME DAY S,1000.0,0.3738467479373676,0.20212765957446807,0.5406698351387866,1.8495575950585557
Bruton,BRU,2.0,51.1116412233567,-2.44707381432238,52.7119312404429,-2.7497615909892,179.27097983143707,220.0,88.05,CROSSCOUNTRY,ANYTIME S,0.0,0.49115590310707663,0.4002272727272727,0.8148680901428957,1.2271924893078576
Bryn,BYN,2.0,53.4998691660173,-2.6472139954436,52.7119312404429,-2.7497615909892,87.95675441241805,116.0,31.0,VIRGIN WEST COAST,ANYTIME S,0.0,0.3524459287645487,0.2672413793103448,0.7582478828656728,1.3188299269899244
Buckenham (Norfolk),BUC,-999.0,52.5977342869752,1.47032522512213,52.7119312404429,-2.7497615909892,285.820791618137,-999.0,112.3,CROSSCOUNTRY,ANYTIME S,700.0,0.39290353708779635,-999.0,-999.0,-999.0
Buckley,BCK,1.0,53.163039091322,-3.05592619131988,52.7119312404429,-2.7497615909892,54.257854319589164,78.0,17.8,TRANSPORT FOR WALES RAIL,ANYTIME DAY S,1000.0,0.3280631020746709,0.22820512820512823,0.6956135169178098,1.4375798854957487
Bucknell,BUK,0.0,52.3573820377697,-2.94737831871819,52.7119312404429,-2.7497615909892,41.6699087479935,48.0,10.3,TRANSPORT FOR WALES RAIL,ANYTIME DAY S,1000.0,0.2471807668764326,0.21458333333333335,0.8681230989165313,1.1519103699095887
Buckshaw Parkway,BSV,1.0,53.6733436562841,-2.6608302706882,52.7119312404429,-2.7497615909892,107.1604318869305,148.0,37.5,VIRGIN WEST COAST,ANYTIME S,0.0,0.34994259858496873,0.2533783783783784,0.7240569722089898,1.38110678908201
Bugle,BGL,3.0,50.4003548175137,-4.79210144517706,52.7119312404429,-2.7497615909892,293.5815126914924,458.0,85.5,CROSSCOUNTRY,ANYTIME S,700.0,0.29123087218999016,0.18668122270742357,0.6410076696320794,1.560043736409538
Builth Road,BHR,0.0,52.1693260878635,-3.42703322967269,52.7119312404429,-2.7497615909892,75.93815307962694,107.0,12.9,TRANSPORT FOR WALES RAIL,ANYTIME DAY S,1000.0,0.1698750822458556,0.1205607476635514,0.7097023652301584,1.4090413798687247
Bulwell,BLW,2.0,52.9996957837852,-1.19623056375416,52.7119312404429,-2.7497615909892,109.43447820391265,224.0,59.55,CROSSCOUNTRY,ANYTIME S,0.0,0.5441612275889747,0.26584821428571426,0.4885467776960386,2.046886901426202
Bures,BUE,3.0,51.9711590332091,0.769143780923498,52.7119312404429,-2.7497615909892,253.56598984294055,322.0,141.0,VIRGIN WEST COAST,ANYTIME S,268.0,0.5560682648620809,0.43788819875776397,0.7874720181457782,1.2698863920963834
Burgess Hill,BUG,3.0,50.9536546008005,-0.127412852764647,52.7119312404429,-2.7497615909892,266.32838965498166,286.0,169.0,VIRGIN WEST COAST,ANYTIME S,0.0,0.6345549575805008,0.5909090909090909,0.9312181456467891,1.073862235905463
Burley Park,BUY,2.0,53.8120311080587,-1.57776768947798,52.7119312404429,-2.7497615909892,145.27386955230895,185.0,59.0,TRANSPENNINE EXPRESS,ANYTIME DAY S,0.0,0.4061294724358932,0.31891891891891894,0.7852641597422105,1.2734568203498347
Burley-in-Wharfedale,BUW,2.0,53.9081516997075,-1.75337211508043,52.7119312404429,-2.7497615909892,148.7728731848986,209.0,62.8,TRANSPENNINE EXPRESS,ANYTIME DAY S,0.0,0.4221199648537446,0.3004784688995215,0.7118319291143473,1.404825997682048
Burnage,BNA,1.0,53.4211687602571,-2.21567840315285,52.7119312404429,-2.7497615909892,86.66882097333459,132.0,45.35,CROSSCOUNTRY,ANYTIME S,0.0,0.5232562239880111,0.34356060606060607,0.6565819770707166,1.5230390643090952
Burneside (Cumbria),BUD,1.0,54.3549826054845,-2.76667730640148,52.7119312404429,-2.7497615909892,182.86891903390602,233.0,57.0,VIRGIN WEST COAST,ANYTIME S,0.0,0.31169867630393516,0.2446351931330472,0.7848451460682662,1.2741366943652086
Burnham (Bucks),BNM,2.0,51.5235048795581,-0.646373823188634,52.7119312404429,-2.7497615909892,195.54705291185252,221.0,71.45,CROSSCOUNTRY,ANYTIME S,700.0,0.3653852049215377,0.3233031674208145,0.8848282937187897,1.1301627751946792
Burnham-on-Crouch,BUU,2.0,51.6336547723703,0.814027782561537,52.7119312404429,-2.7497615909892,271.69177870291014,271.0,172.0,VIRGIN WEST COAST,ANYTIME S,0.0,0.6330703152710365,0.6346863468634686,1.0025526889406278,0.997453810688668
Burnley Barracks,BUB,2.0,53.7908801067712,-2.25808600820696,52.7119312404429,-2.7497615909892,124.48030527527509,208.0,67.5,VIRGIN WEST COAST,ANYTIME S,0.0,0.5422544542345944,0.3245192307692308,0.5984630061311302,1.6709470589747504
Burnley Central,BNC,2.0,53.7935141377532,-2.24497131410056,52.7119312404429,-2.7497615909892,124.99590895891642,220.0,67.5,VIRGIN WEST COAST,ANYTIME S,0.0,0.5400176738759175,0.3068181818181818,0.5681632225405292,1.7600576037437312
Burnley Manchester Road,BYM,2.0,53.784967519749,-2.24886752625716,52.7119312404429,-2.7497615909892,124.01069230310715,172.0,67.5,VIRGIN WEST COAST,ANYTIME S,0.0,0.5443079039911848,0.39244186046511625,0.7209923971110881,1.3869771775775375
Burnside (Strathclyde),BUI,2.0,55.8169313339993,-4.20239033426663,52.7119312404429,-2.7497615909892,358.32249618702446,313.0,118.6,VIRGIN WEST COAST,ANYTIME S,287.0,0.33098675428432317,0.37891373801916933,1.1448003073067874,0.8735147899746473
Burntisland,BTS,2.0,56.0570842114504,-3.23319831966981,52.7119312404429,-2.7497615909892,373.67561457900774,275.0,124.5,VIRGIN WEST COAST,ANYTIME S,287.0,0.3331766782273572,0.4527272727272727,1.3588204166509372,0.7359324217873351
Burscough Bridge,BCB,1.0,53.6052595050232,-2.84088028461687,52.7119312404429,-2.7497615909892,99.60446473929018,186.0,31.0,VIRGIN WEST COAST,ANYTIME S,0.0,0.3112310284598284,0.16666666666666666,0.5355078749424204,1.8673861707589707
Burscough Junction,BCJ,2.0,53.5975223038556,-2.84060569626726,52.7119312404429,-2.7497615909892,98.743862898681,204.0,31.5,VIRGIN WEST COAST,ANYTIME S,0.0,0.31900716738539475,0.15441176470588236,0.4840385436209853,2.0659511792577945
Bursledon,BUO,2.0,50.8836886125224,-1.30503236047306,52.7119312404429,-2.7497615909892,226.5098023519796,295.0,49.9,VIRGIN WEST COAST,ANYTIME S,200.0,0.2202995167620122,0.16915254237288135,0.7678298384812868,1.3023718926812344
Burton Joyce,BUJ,2.0,52.9834418843688,-1.04087761567102,52.7119312404429,-2.7497615909892,119.02844182367438,195.0,59.55,CROSSCOUNTRY,ANYTIME S,0.0,0.5003005927626593,0.30538461538461537,0.6104022657624327,1.6382639057719321
Burton-on-Trent,BUT,1.0,52.8058165084357,-1.64245997205794,52.7119312404429,-2.7497615909892,75.48043657046621,126.0,55.0,VIRGIN WEST COAST,ANYTIME S,0.0,0.7286656317714021,0.4365079365079365,0.599051083892589,1.669306720058121
Bury St Edmunds,BSE,2.0,52.2537604920335,0.713306656862091,52.7119312404429,-2.7497615909892,240.70432551949818,266.0,100.35,CROSSCOUNTRY,ANYTIME S,700.0,0.4169015234081083,0.37725563909774434,0.9049034793966098,1.105090236438035
Busby,BUS,2.0,55.7803445376612,-4.26220173231044,52.7119312404429,-2.7497615909892,355.4665882621407,288.0,118.6,VIRGIN WEST COAST,ANYTIME S,287.0,0.33364598506945414,0.41180555555555554,1.2342589870213219,0.8102027293423507
Bush Hill Park,BHK,3.0,51.6415169536941,-0.0692211146516689,52.7119312404429,-2.7497615909892,218.63317022571755,230.0,154.0,VIRGIN WEST COAST,ANYTIME S,0.0,0.7043761925100841,0.6695652173913044,0.9505790009813806,1.0519904173851904
Bushey,BSH,1.0,51.6457502336329,-0.385321269560704,52.7119312404429,-2.7497615909892,200.5649020654873,147.0,103.5,VIRGIN WEST COAST,ANYTIME S,700.0,0.516042432819107,0.7040816326530612,1.364387088880866,0.732929832119891
Butlers Lane,BUL,1.0,52.5924709448511,-1.83802031828625,52.7119312404429,-2.7497615909892,63.11782573442342,109.0,15.8,WEST MIDLANDS TRAINS,ANYTIME DAY S,0.0,0.2503254796272702,0.14495412844036698,0.5790626214167286,1.7269289417324336
Buxted,BXD,3.0,50.9900108378352,0.131438921683175,52.7119312404429,-2.7497615909892,275.8594083675835,324.0,169.0,VIRGIN WEST COAST,ANYTIME S,0.0,0.6126309086214199,0.5216049382716049,0.851417927060443,1.174511327771243
Buxton,BUX,1.0,53.2607227045765,-1.91286358993768,52.7119312404429,-2.7497615909892,82.99804637225314,140.0,36.2,TRANSPORT FOR WALES RAIL,ANYTIME DAY S,1000.0,0.4361548443880232,0.2585714285714286,0.5928431883732367,1.6867866910034046
Byfleet & New Haw,BFN,3.0,51.3497957278428,-0.481389767596653,52.7119312404429,-2.7497615909892,217.25237461482615,269.0,83.2,VIRGIN WEST COAST,ANYTIME S,268.0,0.38296474387222695,0.3092936802973978,0.8076296454082756,1.238191299298426
Bynea,BYE,0.0,51.6720366859549,-4.09888164715589,52.7119312404429,-2.7497615909892,147.98216002249316,214.0,19.7,TRANSPORT FOR WALES RAIL,ANYTIME DAY S,824.0,0.13312415494547192,0.09205607476635513,0.6915054206658559,1.4461202618442128
Cadoxton,CAD,1.0,51.4122831697514,-3.24889594393883,52.7119312404429,-2.7497615909892,148.60538995643435,140.0,48.5,TRANSPORT FOR WALES RAIL,ANYTIME DAY S,1000.0,0.3263677045241658,0.3464285714285714,1.0614670711173881,0.9420923429563548
Caergwrle,CGW,1.0,53.1078664074892,-3.03291327418616,52.7119312404429,-2.7497615909892,48.00302283631899,60.0,9.1,TRANSPORT FOR WALES RAIL,ANYTIME DAY S,1000.0,0.18957139493129915,0.15166666666666667,0.8000503806053165,1.249921285261313
Caerphilly,CPH,1.0,51.57158067131,-3.21848255919666,52.7119312404429,-2.7497615909892,130.88075779935835,136.0,51.4,TRANSPORT FOR WALES RAIL,ANYTIME DAY S,1000.0,0.3927238874854069,0.3779411764705882,0.9623585132305761,1.039113787899131
Caersws,CWS,0.0,52.5161279090032,-3.43249879239218,52.7119312404429,-2.7497615909892,51.12048435457369,45.0,8.8,TRANSPORT FOR WALES RAIL,ANYTIME DAY S,1000.0,0.17214234393717506,0.19555555555555557,1.136010763434971,0.880273349678736
Caldercruix,CAC,2.0,55.8879475461776,-3.88771190821316,52.7119312404429,-2.7497615909892,361.1896816437614,300.0,131.5,VIRGIN WEST COAST,ANYTIME S,287.0,0.36407463081876584,0.43833333333333335,1.2039656054792047,0.8305885113736103
Caldicot,CDT,1.0,51.5847930591881,-2.76057390572724,52.7119312404429,-2.7497615909892,125.41903112501475,135.0,47.2,TRANSPORT FOR WALES RAIL,ANYTIME DAY S,1000.0,0.3763384199081569,0.3496296296296296,0.9290298601852944,1.0763916671101945
Caledonian Rd & Barnsbury,CIR,3.0,51.5430392840645,-0.116729249835755,52.7119312404429,-2.7497615909892,222.30664168837515,200.0,152.5,VIRGIN WEST COAST,ANYTIME S,0.0,0.6859894011343635,0.7625,1.1115332084418759,0.8996582309958866
Calstock,CSK,2.0,50.4978023671618,-4.20898850028348,52.7119312404429,-2.7497615909892,266.26677033552494,383.0,72.2,CROSSCOUNTRY,ANYTIME S,817.0,0.27115662952992664,0.1885117493472585,0.6952134995705612,1.438407051384514
Cam & Dursley,CDU,2.0,51.71762106741,-2.35908298700462,52.7119312404429,-2.7497615909892,113.81452571903502,178.0,59.55,CROSSCOUNTRY,ANYTIME S,0.0,0.523219682406852,0.3345505617977528,0.6394074478597473,1.5639480011489448
Camberley,CAM,3.0,51.3363271281171,-0.744271720142327,52.7119312404429,-2.7497615909892,205.84192054157296,266.0,89.3,VIRGIN WEST COAST,ANYTIME S,268.0,0.4338280548736159,0.3357142857142857,0.7738418065472668,1.2922537804746006
Camborne,CBN,1.0,50.2104431448962,-5.2974123155278,52.7119312404429,-2.7497615909892,329.8091946598213,394.0,80.9,CROSSCOUNTRY,ANYTIME S,700.0,0.24529334327214128,0.2053299492385787,0.8370791742635058,1.1946301266900328
Cambridge,CBG,1.0,52.1940653655991,0.137456461171047,52.7119312404429,-2.7497615909892,204.54862700092008,253.0,180.0,VIRGIN WEST COAST,ANYTIME S,0.0,0.8799863516032809,0.7114624505928854,0.8084925968415814,1.2368697053090558
Cambridge Heath,CBH,3.0,51.5319710950389,-0.0572790666047599,52.7119312404429,-2.7497615909892,226.35053826808962,221.0,153.5,VIRGIN WEST COAST,ANYTIME S,0.0,0.6781516897397194,0.6945701357466063,1.0242105803985955,0.976361716172495
Cambuslang,CBL,2.0,55.8196110785266,-4.17300936139383,52.7119312404429,-2.7497615909892,358.1097959719228,264.0,117.6,VIRGIN WEST COAST,ANYTIME S,287.0,0.32839090503187546,0.44545454545454544,1.356476499893647,0.7372040725205368
Camden Road,CMD,3.0,51.541789311709,-0.138700901327927,52.7119312404429,-2.7497615909892,221.17226878089423,203.0,152.5,VIRGIN WEST COAST,ANYTIME S,0.0,0.6895077797979959,0.7512315270935961,1.0895185654231243,0.9178365855671684
Camelon,CMO,2.0,56.0060960246981,-3.81760595611437,52.7119312404429,-2.7497615909892,373.18002718104,267.0,124.5,VIRGIN WEST COAST,ANYTIME S,287.0,0.3336191407146278,0.46629213483146065,1.3976780044233708,0.7154723740626957
Canada Water,ZCW,3.0,51.4979884652777,-0.0497198367270248,52.7119312404429,-2.7497615909892,229.03797276669636,232.0,153.5,VIRGIN WEST COAST,ANYTIME S,0.0,0.670194545235339,0.6616379310344828,0.9872326412357602,1.0129324722775155
Canley,CNL,1.0,52.3992417616656,-1.54757487164278,52.7119312404429,-2.7497615909892,88.65030008934004,103.0,23.0,WEST MIDLANDS TRAINS,ANYTIME S,0.0,0.25944638627078587,0.22330097087378642,0.8606825251392236,1.161868599386563
Cannock,CAO,1.0,52.6861624456421,-2.02214749992606,52.7119312404429,-2.7497615909892,49.27229066436333,111.0,19.1,WEST MIDLANDS TRAINS,ANYTIME DAY S,0.0,0.38764181129931236,0.1720720720720721,0.44389451048975975,2.2527874897499305
