Name,Code,Changes,lat,lon,terminal lat,terminal lon,linear distance
Abbey Wood,ABW,2.0,51.4910605627019,0.121394025366647,51.47503531074714,-3.1719622835054033,3.2933952975443974
Aber,ABE,0.0,51.5749691125956,-3.22982905106563,51.47503531074714,-3.1719622835054033,0.11547868868218747
Abercynon,ACY,0.0,51.6447124034837,-3.32698855170195,51.47503531074714,-3.1719622835054033,0.22983354766108435
Aberdare,ABA,0.0,51.7150618291708,-3.44308409477462,51.47503531074714,-3.1719622835054033,0.36210463417703603
Aberdeen,ABD,2.0,57.1437058328662,-2.09868538622245,51.47503531074714,-3.1719622835054033,5.769380277515338
Aberdour,AUR,2.0,56.0545955695197,-3.30056061487314,51.47503531074714,-3.1719622835054033,4.581365483625985
Aberdovey,AVY,1.0,52.5439615025967,-4.05706796158074,51.47503531074714,-3.1719622835054033,1.3878095204253396
Abererch,ABH,1.0,52.8985884658899,-4.37417647351973,51.47503531074714,-3.1719622835054033,1.8632827332932378
Abergavenny,AGV,0.0,51.8166930409601,-3.00964730040687,51.47503531074714,-3.1719622835054033,0.37825409231434337
Abergele & Pensarn,AGL,1.0,53.2945771647609,-3.58262268840784,51.47503531074714,-3.1719622835054033,1.8653081586329048
Aberystwyth,AYW,1.0,52.4140498933205,-4.08189442746786,51.47503531074714,-3.1719622835054033,1.3075644890029487
Accrington,ACR,2.0,53.7529733751372,-2.36954810226505,51.47503531074714,-3.1719622835054033,2.4151336077850387
Achanalt,AAT,2.0,57.6096018732679,-4.91385256332031,51.47503531074714,-3.1719622835054033,6.377075243159001
Achnasheen,ACN,2.0,57.5792959197415,-5.07233352893289,51.47503531074714,-3.1719622835054033,6.393231456233052
Achnashellach,ACH,2.0,57.4820809030767,-5.33305678830677,51.47503531074714,-3.1719622835054033,6.383958506053174
Acklington,ACK,2.0,55.3070993237817,-1.65183479633575,51.47503531074714,-3.1719622835054033,4.122560148408179
Acle,ACL,2.0,52.6346777628319,1.54391497575916,51.47503531074714,-3.1719622835054033,4.856363757084698
Acocks Green,ACG,2.0,52.4493240670217,-1.81897562150643,51.47503531074714,-3.1719622835054033,1.6672766681478375
Acton Bridge (Cheshire),ACB,1.0,53.2665097605329,-2.60312690733168,51.47503531074714,-3.1719622835054033,1.8796154897802613
Acton Central,ACC,2.0,51.5087150057177,-0.262970693276422,51.47503531074714,-3.1719622835054033,2.9091865519206994
Acton Main Line,AML,1.0,51.5171788796431,-0.266756440210259,51.47503531074714,-3.1719622835054033,2.9055114992571514
Adderley Park,ADD,1.0,52.4830872932844,-1.85594463679675,51.47503531074714,-3.1719622835054033,1.657730751945527
Addiewell,ADW,2.0,55.8434130805542,-3.60652712168835,51.47503531074714,-3.1719622835054033,4.389939741992991
Addlestone,ASN,2.0,51.3730447500684,-0.48445679693337,51.47503531074714,-3.1719622835054033,2.6894400560009406
Adisham,ADM,2.0,51.2411978022143,1.19908904695378,51.47503531074714,-3.1719622835054033,4.377301647579915
Adlington (Cheshire),ADC,1.0,53.3195557900317,-2.13356274381038,51.47503531074714,-3.1719622835054033,2.1167261047520967
Adlington (Lancs),ADL,1.0,53.6132468473224,-2.6030711963325,51.47503531074714,-3.1719622835054033,2.2125970361112555
Adwick,AWK,2.0,53.5723210050351,-1.180356329611,51.47503531074714,-3.1719622835054033,2.892248529959445
Aigburth,AIG,2.0,53.3645680055959,-2.92715540113816,51.47503531074714,-3.1719622835054033,1.9053252254029465
Ainsdale,ANS,2.0,53.6020355257546,-3.04265252059266,51.47503531074714,-3.1719622835054033,2.130927246394476
Aintree,AIN,2.0,53.4739127558616,-2.95628079876913,51.47503531074714,-3.1719622835054033,2.0104799286352875
Airbles,AIR,2.0,55.7828378389089,-3.99419330717581,51.47503531074714,-3.1719622835054033,4.385570256867734
Airdrie,ADR,2.0,55.8639835131324,-3.98291292517007,51.47503531074714,-3.1719622835054033,4.46323954840396
Albany Park,AYP,2.0,51.4354507399114,0.12573706592842,51.47503531074714,-3.1719622835054033,3.297936921395634
Albrighton,ALB,1.0,52.6379442676754,-2.26890024505565,51.47503531074714,-3.1719622835054033,1.47237165396275
Alderley Edge,ALD,1.0,53.3037821045932,-2.23679936267512,51.47503531074714,-3.1719622835054033,2.053982600826523
Aldermaston,AMT,1.0,51.4019618556841,-1.1374239270022,51.47503531074714,-3.1719622835054033,2.03585020419421
Aldershot,AHT,2.0,51.2464179114788,-0.759859888333875,51.47503531074714,-3.1719622835054033,2.4229122724606524
Aldrington,AGT,1.0,50.8363824121951,-0.183821512855377,51.47503531074714,-3.1719622835054033,3.0556280516531875
Alexandra Palace,AAP,2.0,51.5979224924556,-0.120235220128854,51.47503531074714,-3.1719622835054033,3.054200276467329
Alexandra Parade,AXP,2.0,55.8631759802332,-4.21064896878422,51.47503531074714,-3.1719622835054033,4.509395587589659
Alexandria,ALX,2.0,55.9850887680667,-4.57748537031666,51.47503531074714,-3.1719622835054033,4.723989557084097
Alfreton,ALF,1.0,53.1004322999438,-1.36969621564025,51.47503531074714,-3.1719622835054033,2.426948362010961
Allens West,ALW,2.0,54.5246233650745,-1.36111683481751,51.47503531074714,-3.1719622835054033,3.5467095370399
Alloa,ALO,2.0,56.1177936041036,-3.79005640302655,51.47503531074714,-3.1719622835054033,4.683721267445027
Alness,ASS,2.0,57.6943991747966,-4.24971726526612,51.47503531074714,-3.1719622835054033,6.312055344668193
Alnmouth,ALM,1.0,55.3927786386397,-1.63663783937358,51.47503531074714,-3.1719622835054033,4.207841956632325
Alresford (Essex),ALR,2.0,51.8539974379073,0.997436403040026,51.47503531074714,-3.1719622835054033,4.1865854465409535
Alsager,ASG,1.0,53.0930054110113,-2.29905784069112,51.47503531074714,-3.1719622835054033,1.8384203577075966
Althorne (Essex),ALN,2.0,51.6478675266105,0.75248341471277,51.47503531074714,-3.1719622835054033,3.928249611863198
Althorpe,ALP,1.0,53.5855003548442,-0.733182290833722,51.47503531074714,-3.1719622835054033,3.225168298711138
Altnabreac,ABC,2.0,58.3881525009701,-3.7062809681672,51.47503531074714,-3.1719622835054033,6.933735338368125
Alton,AON,2.0,51.1519686627366,-0.966913302570746,51.47503531074714,-3.1719622835054033,2.22858992804368
Altrincham,ALT,1.0,53.3877187203289,-2.34688910433965,51.47503531074714,-3.1719622835054033,2.083051505908577
Alvechurch,ALV,1.0,52.3460721156993,-1.96766073187852,51.47503531074714,-3.1719622835054033,1.4862864269151452
Ambergate,AMB,1.0,53.0605170840145,-1.48069758186533,51.47503531074714,-3.1719622835054033,2.3182167164388883
Amberley,AMY,1.0,50.8966791881016,-0.541992407726222,51.47503531074714,-3.1719622835054033,2.6928121642824516
Amersham,AMR,2.0,51.6742050968552,-0.607596139216709,51.47503531074714,-3.1719622835054033,2.5720890975377184
Ammanford,AMF,0.0,51.7959795450084,-3.99673575596767,51.47503531074714,-3.1719622835054033,0.8850177864783356
Ancaster,ANC,1.0,52.9876865844111,-0.535623734022494,51.47503531074714,-3.1719622835054033,3.03947278704825
Anderston,AND,2.0,55.8599021238713,-4.27098003165416,51.47503531074714,-3.1719622835054033,4.520497426122883
Andover,ADV,1.0,51.2115476149434,-1.49223307188506,51.47503531074714,-3.1719622835054033,1.7002693875414756
Anerley,ANZ,2.0,51.4121513855632,-0.0658859220340606,51.47503531074714,-3.1719622835054033,3.1067128530550736
Angel Road,AGR,2.0,51.61240330726,-0.0487914234374522,51.47503531074714,-3.1719622835054033,3.126190363308598
Angmering,ANG,1.0,50.8165743892467,-0.489394019247872,51.47503531074714,-3.1719622835054033,2.7621989931112614
Annan,ANN,2.0,54.9838388790739,-3.2625810423293,51.47503531074714,-3.1719622835054033,3.509973538440625
Anniesland,ANL,2.0,55.8893555064876,-4.32195784208586,51.47503531074714,-3.1719622835054033,4.561656779644525
Ansdell & Fairhaven,AFV,2.0,53.7414654744213,-2.99303444657805,51.47503531074714,-3.1719622835054033,2.273482099696317
Apperley Bridge,APY,2.0,53.8417501065548,-1.70582867126391,51.47503531074714,-3.1719622835054033,2.7840414317389715
Appleby,APP,2.0,54.5803488158896,-2.48669258391647,51.47503531074714,-3.1719622835054033,3.1800261832876267
Appledore (Kent),APD,2.0,51.0332342031393,0.816341504124954,51.47503531074714,-3.1719622835054033,4.012699256250108
Appleford,APF,1.0,51.6396415502262,-1.24214153179695,51.47503531074714,-3.1719622835054033,1.9368281668232779
Appley Bridge,APB,1.0,53.5786734960166,-2.71925251339081,51.47503531074714,-3.1719622835054033,2.1517991891626402
Apsley,APS,2.0,51.7325208234117,-0.462934812195194,51.47503531074714,-3.1719622835054033,2.7212365993322813
Arbroath,ARB,2.0,56.5595762979872,-2.58893177406225,51.47503531074714,-3.1719622835054033,5.117859086167347
Ardgay,ARD,2.0,57.8814576101148,-4.36209023833324,51.47503531074714,-3.1719622835054033,6.516030327331046
Ardlui,AUI,2.0,56.3019723653141,-4.72165858161935,51.47503531074714,-3.1719622835054033,5.069603529383698
Ardrossan Harbour,ADS,2.0,55.6398782290401,-4.82111163323781,51.47503531074714,-3.1719622835054033,4.479465382361812
Ardrossan South Beach,ASB,2.0,55.641422142645,-4.80121264089138,51.47503531074714,-3.1719622835054033,4.473615535565637
Ardrossan Town,ADN,2.0,55.6397124556587,-4.81267645169651,51.47503531074714,-3.1719622835054033,4.476212539977495
Ardwick,ADK,1.0,53.471345820655,-2.21388417456067,51.47503531074714,-3.1719622835054033,2.21431012164234
Argyle Street,AGS,2.0,55.8573090626122,-4.25069486323156,51.47503531074714,-3.1719622835054033,4.5130906499701675
Arisaig,ARG,2.0,56.9125537431151,-5.83907949880085,51.47503531074714,-3.1719622835054033,6.056411556562734
Arlesey,ARL,2.0,52.0260300130868,-0.266319838272065,51.47503531074714,-3.1719622835054033,2.957423402481956
Armadale (West Lothian),ARM,2.0,55.8857140292087,-3.69541334262219,51.47503531074714,-3.1719622835054033,4.441631205849964
Armathwaite,AWT,2.0,54.8094679848183,-2.77207147292765,51.47503531074714,-3.1719622835054033,3.3583260589612016
Arnside,ARN,1.0,54.2027315043991,-2.82824189170434,51.47503531074714,-3.1719622835054033,2.7492672173878003
Arram,ARR,2.0,53.8843427696163,-0.426570132093475,51.47503531074714,-3.1719622835054033,3.6526621108989548
Arrochar & Tarbet,ART,2.0,56.2039766194239,-4.72277124702392,51.47503531074714,-3.1719622835054033,4.976735309642139
Arundel,ARU,1.0,50.84821399905,-0.546174298416944,51.47503531074714,-3.1719622835054033,2.69956802089383
Ascot (Berks),ACT,1.0,51.406243053303,-0.675833255037063,51.47503531074714,-3.1719622835054033,2.497076791259444
Ascott-under-Wychwood,AUW,1.0,51.8673416456497,-1.56405280921503,51.47503531074714,-3.1719622835054033,1.6550761728444485
Ash,ASH,1.0,51.2495967734882,-0.712805474371656,51.47503531074714,-3.1719622835054033,2.4694685148813544
Ash Vale,AHV,2.0,51.2722464128127,-0.72164859629209,51.47503531074714,-3.1719622835054033,2.458690810750788
Ashburys,ABY,1.0,53.471639721401,-2.19443661452133,51.47503531074714,-3.1719622835054033,2.223057715437277
Ashchurch for Tewkesbury,ASC,0.0,51.9989057939667,-2.10876020926952,51.47503531074714,-3.1719622835054033,1.1852590155101883
Ashfield,ASF,2.0,55.8889269328418,-4.24921509407071,51.47503531074714,-3.1719622835054033,4.543447245150787
Ashford (Surrey),AFS,1.0,51.4365062586203,-0.468070995385795,51.47503531074714,-3.1719622835054033,2.704165783717209
Ashford International,AFK,2.0,51.1437026741936,0.876197214386404,51.47503531074714,-3.1719622835054033,4.061696275747014
Ashford International (Eurostar),ASI,-999.0,nan,nan,51.47503531074714,-3.1719622835054033,nan
Ashley,ASY,1.0,53.3557258053839,-2.34146074338483,51.47503531074714,-3.1719622835054033,2.055901151505029
Ashtead,AHD,2.0,51.317872587997,-0.307571763628547,51.47503531074714,-3.1719622835054033,2.868698863907232
Ashton-under-Lyne,AHN,2.0,53.4912746360398,-2.09431253377749,51.47503531074714,-3.1719622835054033,2.2861649109251134
Ashurst (Kent),AHS,2.0,51.1286608253579,0.152652111896866,51.47503531074714,-3.1719622835054033,3.342609184790328
Ashurst New Forest,ANF,1.0,50.8898511647037,-1.52663085660955,51.47503531074714,-3.1719622835054033,1.746297795082996
Ashwell & Morden,AWM,2.0,52.0307706434447,-0.109788918120069,51.47503531074714,-3.1719622835054033,3.112193355124937
Askam,ASK,2.0,54.1889331625586,-3.20451175494515,51.47503531074714,-3.1719622835054033,2.7140930378595836
Aslockton,ALK,1.0,52.9515495737311,-0.898097621841918,51.47503531074714,-3.1719622835054033,2.7111906735523172
Aspatria,ASP,2.0,54.7589599137074,-3.33187421074512,51.47503531074714,-3.1719622835054033,3.287815782917473
Aspley Guise,APG,2.0,52.0212361960308,-0.632334507265971,51.47503531074714,-3.1719622835054033,2.5976998766084387
Aston,AST,1.0,52.5042320347358,-1.8719337575538,51.47503531074714,-3.1719622835054033,1.658107374375041
Atherstone,ATH,1.0,52.5789720633612,-1.55281147568713,51.47503531074714,-3.1719622835054033,1.959674894524764
Atherton,ATN,2.0,53.5291462480773,-2.47897234425216,51.47503531074714,-3.1719622835054033,2.1678576518686885
Attadale,ATT,2.0,57.3950433711996,-5.4555786528295,51.47503531074714,-3.1719622835054033,6.345187086136
Attenborough,ATB,0.0,52.9062133028873,-1.23141560765685,51.47503531074714,-3.1719622835054033,2.4112220649150546
Attleborough,ATL,2.0,52.5145445883409,1.02234755537498,51.47503531074714,-3.1719622835054033,4.321205221085003
Auchinleck,AUK,2.0,55.4702784722357,-4.29535018687193,51.47503531074714,-3.1719622835054033,4.150176899946717
Audley End,AUD,2.0,52.0044405435161,0.207160027997398,51.47503531074714,-3.1719622835054033,3.420341722193733
Aughton Park,AUG,2.0,53.5542504500956,-2.89522128047861,51.47503531074714,-3.1719622835054033,2.0975512338086344
Aviemore,AVM,2.0,57.1885162452285,-3.82886797624022,51.47503531074714,-3.1719622835054033,5.751120714941515
Avoncliff,AVF,0.0,51.3396528744674,-2.28132558221387,51.47503531074714,-3.1719622835054033,0.9008674362748953
Avonmouth,AVN,1.0,51.5003648679963,-2.69946651797304,51.47503531074714,-3.1719622835054033,0.4731742120154612
Axminster,AXM,1.0,50.7792744117621,-3.00472359764506,51.47503531074714,-3.1719622835054033,0.7155780925969993
Aylesbury,AYS,2.0,51.8138902206829,-0.815095998270687,51.47503531074714,-3.1719622835054033,2.381100866503489
Aylesbury Vale Parkway,AVP,2.0,51.8311587338339,-0.860182437861177,51.47503531074714,-3.1719622835054033,2.3390489407444806
Aylesford,AYL,2.0,51.3013153585378,0.466170568242092,51.47503531074714,-3.1719622835054033,3.6422780328744784
Aylesham,AYH,2.0,51.2272505439136,1.2094526827124,51.47503531074714,-3.1719622835054033,4.3884159325287415
Ayr,AYR,2.0,55.4581477383334,-4.62587677242484,51.47503531074714,-3.1719622835054033,4.240171217283803
Bache,BAC,1.0,53.2087886904783,-2.89167051075084,51.47503531074714,-3.1719622835054033,1.7562642909320691
Baglan,BAJ,0.0,51.615545271975,-3.81113654529303,51.47503531074714,-3.1719622835054033,0.6544362353476566
Bagshot,BAG,2.0,51.3643669407293,-0.688661997063008,51.47503531074714,-3.1719622835054033,2.485765033298057
Baildon,BLD,2.0,53.8502255005868,-1.75363638811678,51.47503531074714,-3.1719622835054033,2.7664375618185417
Baillieston,BIO,2.0,55.844505909339,-4.11369931815988,51.47503531074714,-3.1719622835054033,4.4698033462780575
Balcombe,BAB,2.0,51.0555201604538,-0.136933757536862,51.47503531074714,-3.1719622835054033,3.0638849708774014
Baldock,BDK,2.0,51.9928698318742,-0.187563753520231,51.47503531074714,-3.1719622835054033,3.0289911153796
Balham,BAL,2.0,51.4432234163815,-0.152424495700288,51.47503531074714,-3.1719622835054033,3.019705357912613
Balloch,BHC,2.0,56.0029392993731,-4.58348654319574,51.47503531074714,-3.1719622835054033,4.742817228811291
Balmossie,BSI,2.0,56.4745685552318,-2.83895622541232,51.47503531074714,-3.1719622835054033,5.010611309753931
Bamber Bridge,BMB,2.0,53.7268691714662,-2.6607753764786,51.47503531074714,-3.1719622835054033,2.309127062375853
Bamford,BAM,1.0,53.3390008432273,-1.68908191470249,51.47503531074714,-3.1719622835054033,2.3818693697294
Banavie,BNV,2.0,56.8433146084024,-5.09542698683765,51.47503531074714,-3.1719622835054033,5.702467806362355
Banbury,BAN,1.0,52.0603086671337,-1.32813289497966,51.47503531074714,-3.1719622835054033,1.9344900402140104
Bangor (Gwynedd),BNG,0.0,53.2222875881889,-4.1358808597691,51.47503531074714,-3.1719622835054033,1.9955023284104803
Bank Hall,BAH,2.0,53.4374965462522,-2.98751189569183,51.47503531074714,-3.1719622835054033,1.9711103587634622
Banstead,BAD,2.0,51.3293474848423,-0.213158931277083,51.47503531074714,-3.1719622835054033,2.9623879252681315
Barassie,BSS,2.0,55.5610644543682,-4.65113966824502,51.47503531074714,-3.1719622835054033,4.345526423581589
Barbican,ZBB,1.0,nan,nan,51.47503531074714,-3.1719622835054033,nan
Bardon Mill,BLL,2.0,54.9744957852522,-2.34650475516335,51.47503531074714,-3.1719622835054033,3.5954977045910876
Bare Lane,BAR,2.0,54.0745443408907,-2.83533086719705,51.47503531074714,-3.1719622835054033,2.6212149679573535
Bargeddie,BGI,2.0,55.8512961462984,-4.07380825280165,51.47503531074714,-3.1719622835054033,4.468219449972856
Bargoed,BGD,0.0,51.6923127611933,-3.22968013064506,51.47503531074714,-3.1719622835054033,0.22481290076599458
Barking,BKG,2.0,51.5394928787692,0.0809024258638578,51.47503531074714,-3.1719622835054033,3.2535032803941184
Barlaston,BRT,2.0,nan,nan,51.47503531074714,-3.1719622835054033,nan
Barming,BMG,2.0,51.2848926922128,0.478958086821072,51.47503531074714,-3.1719622835054033,3.6558684010571145
Barmouth,BRM,1.0,52.7228954666472,-4.05659664341287,51.47503531074714,-3.1719622835054033,1.5296185535655042
Barnehurst,BNH,2.0,51.4649571594916,0.159646215915891,51.47503531074714,-3.1719622835054033,3.3316237426439583
Barnes,BNS,1.0,51.4670847781107,-0.242164290131055,51.47503531074714,-3.1719622835054033,2.929808780953044
Barnes Bridge,BNI,2.0,51.4720072305495,-0.252630234454485,51.47503531074714,-3.1719622835054033,2.9193336194901596
Barnetby,BTB,1.0,53.575120046432,-0.409679706265516,51.47503531074714,-3.1719622835054033,3.469951142823135
Barnham,BAA,1.0,50.8309058508596,-0.639679954401345,51.47503531074714,-3.1719622835054033,2.6129210771448275
Barnhill,BNL,2.0,55.8774948886876,-4.22300584363342,51.47503531074714,-3.1719622835054033,4.526184143479615
Barnsley,BNY,2.0,53.5543015489003,-1.47716484028851,51.47503531074714,-3.1719622835054033,2.6824776723503425
Barnstaple,BNP,1.0,51.0739744679973,-4.06311775092404,51.47503531074714,-3.1719622835054033,0.9772450392288199
Barnt Green,BTG,1.0,52.3610898378667,-1.99246673824797,51.47503531074714,-3.1719622835054033,1.4752295978291652
Barrhead,BRR,2.0,55.8037583421428,-4.39728431394783,51.47503531074714,-3.1719622835054033,4.498806192849698
Barrhill,BRL,2.0,55.0970106102442,-4.78178229089313,51.47503531074714,-3.1719622835054033,3.96361268621855
Barrow Haven,BAV,2.0,53.697419946542,-0.392955239385703,51.47503531074714,-3.1719622835054033,3.558352655469096
Barrow-in-Furness,BIF,1.0,54.1190037011827,-3.22612090695349,51.47503531074714,-3.1719622835054033,2.6445230205305834
Barrow-Upon-Soar,BWS,1.0,52.7493358553102,-1.14484305880024,51.47503531074714,-3.1719622835054033,2.394379716971178
Barry,BRY,0.0,51.3967862682376,-3.28498495899336,51.47503531074714,-3.1719622835054033,0.13746649711153552
Barry Docks,BYD,0.0,51.4024452836283,-3.26070393235989,51.47503531074714,-3.1719622835054033,0.11464899597696548
Barry Island,BYI,0.0,51.3924170726249,-3.27336400852697,51.47503531074714,-3.1719622835054033,0.13079787118975622
Barry Links,BYL,2.0,56.4931516826701,-2.74544214683501,51.47503531074714,-3.1719622835054033,5.036210018371616
Barton-on-Humber,BAU,2.0,53.6889177395454,-0.44343673614012,51.47503531074714,-3.1719622835054033,3.5137056039410473
Basildon,BSO,2.0,51.5681040297501,0.456788850539816,51.47503531074714,-3.1719622835054033,3.629944431983955
Basingstoke,BSK,1.0,51.2683569850094,-1.08726383162934,51.47503531074714,-3.1719622835054033,2.0949185104877492
Bat & Ball,BBL,2.0,51.2897587469008,0.194227480292899,51.47503531074714,-3.1719622835054033,3.37128475970381
Bath Spa,BTH,0.0,51.3776883852266,-2.3570184714201,51.47503531074714,-3.1719622835054033,0.8207373762443306
Bathgate,BHG,2.0,55.8971563834902,-3.63609679157923,51.47503531074714,-3.1719622835054033,4.446411544558507
Batley,BTL,2.0,53.7099423400798,-1.6229526318262,51.47503531074714,-3.1719622835054033,2.7192352474098054
Battersby,BTT,2.0,54.457680170473,-1.09297186288525,51.47503531074714,-3.1719622835054033,3.635707844186528
Battersea Park,BAK,2.0,51.4769582891996,-0.147533519657093,51.47503531074714,-3.1719622835054033,3.024429375177927
Battle,BAT,2.0,50.9129130238687,0.494702777064857,51.47503531074714,-3.1719622835054033,3.7095032190054993
Battlesbridge,BLB,2.0,51.624822766888,0.56528550890708,51.47503531074714,-3.1719622835054033,3.7402482997668924
Bayford,BAY,2.0,51.7577148923117,-0.0956100209046352,51.47503531074714,-3.1719622835054033,3.089312381330574
Beaconsfield,BCF,2.0,51.6112905925788,-0.643822282354315,51.47503531074714,-3.1719622835054033,2.531809109559259
Bearley,BER,2.0,52.2444115945748,-1.75025547969474,51.47503531074714,-3.1719622835054033,1.6165364524556796
Bearsden,BRN,2.0,55.9171345827093,-4.3320211452141,51.47503531074714,-3.1719622835054033,4.591076399342061
Bearsted,BSD,2.0,51.2758187894535,0.577580355704965,51.47503531074714,-3.1719622835054033,3.7548311847023146
Beasdale,BSL,2.0,56.8995610683265,-5.76380325043513,51.47503531074714,-3.1719622835054033,6.011914777547762
Beaulieu Road,BEU,1.0,50.8550493435382,-1.50474962699015,51.47503531074714,-3.1719622835054033,1.7787581740024847
Beauly,BEL,2.0,57.4782879378611,-4.46986686037102,51.47503531074714,-3.1719622835054033,6.1419539558351754
Bebington,BEB,1.0,53.3576570664328,-3.00363517233964,51.47503531074714,-3.1719622835054033,1.8901319243201982
Beccles,BCC,2.0,52.4585181871493,1.5694932615698,51.47503531074714,-3.1719622835054033,4.842379503312464
Beckenham Hill,BEC,2.0,51.4245808668055,-0.0159511139458484,51.47503531074714,-3.1719622835054033,3.156414445743481
Beckenham Junction,BKJ,2.0,51.4111718661491,-0.0260225635677561,51.47503531074714,-3.1719622835054033,3.146587875943923
Bedford,BDM,2.0,52.1361864656103,-0.479442379912954,51.47503531074714,-3.1719622835054033,2.77250505514749
Bedford St Johns,BSJ,2.0,52.1294772366621,-0.467501028060375,51.47503531074714,-3.1719622835054033,2.7825177297905186
Bedhampton,BDH,1.0,50.8539566355958,-0.99582843515536,51.47503531074714,-3.1719622835054033,2.2630283353644756
Bedminster,BMT,0.0,51.4400904239394,-2.59414932604792,51.47503531074714,-3.1719622835054033,0.5788686888403698
Bedworth,BEH,2.0,52.4792974206142,-1.46739223305473,51.47503531074714,-3.1719622835054033,1.9784088157426052
Bedwyn,BDW,1.0,51.3796409426581,-1.59878627020561,51.47503531074714,-3.1719622835054033,1.576065624993115
Beeston,BEE,0.0,52.9207551214346,-1.20765801407939,51.47503531074714,-3.1719622835054033,2.4389745865628574
Bekesbourne,BKS,2.0,51.2613539349877,1.13670763163281,51.47503531074714,-3.1719622835054033,4.313965248812695
Belle Vue,BLV,1.0,53.4623764935822,-2.18050724055323,51.47503531074714,-3.1719622835054033,2.220925050330954
Bellgrove,BLG,2.0,55.8567093051092,-4.22437490020632,51.47503531074714,-3.1719622835054033,4.506288862097063
Bellingham,BGM,2.0,51.4329113825773,-0.0193308081217253,51.47503531074714,-3.1719622835054033,3.1529128825427963
Bellshill,BLH,2.0,55.8170682424416,-4.02449996284266,51.47503531074714,-3.1719622835054033,4.424937341320096
Belmont,BLM,2.0,51.3438134158344,-0.198855124360003,51.47503531074714,-3.1719622835054033,2.9760015734985963
Belper,BLP,1.0,53.0237591485711,-1.48251049959613,51.47503531074714,-3.1719622835054033,2.2918972175903556
Beltring,BEG,2.0,51.2047063375307,0.403495486821792,51.47503531074714,-3.1719622835054033,3.5856625637604793
Belvedere,BVD,2.0,51.4921162437256,0.152286098901381,51.47503531074714,-3.1719622835054033,3.3242922654612572
Bempton,BEM,2.0,54.1276580609781,-0.18045684367924,51.47503531074714,-3.1719622835054033,3.9981886213074533
Ben Rhydding,BEY,2.0,53.9257153348267,-1.79743026313235,51.47503531074714,-3.1719622835054033,2.8098346669249814
Benfleet,BEF,2.0,51.5439424321207,0.561713345502072,51.47503531074714,-3.1719622835054033,3.7343114350600644
Bentham,BEN,2.0,54.1155197017626,-2.51067651046258,51.47503531074714,-3.1719622835054033,2.72203172149502
Bentley (Hants),BTY,2.0,51.1812327932647,-0.868126900052275,51.47503531074714,-3.1719622835054033,2.322493787576114
Bentley (South Yorks),BYK,2.0,53.543936635355,-1.15094859528964,51.47503531074714,-3.1719622835054033,2.8922048715330764
Bere Alston,BAS,2.0,50.4855988011236,-4.20035543651004,51.47503531074714,-3.1719622835054033,1.427086922273071
Bere Ferrers,BFE,2.0,50.4512820780774,-4.18143518031599,51.47503531074714,-3.1719622835054033,1.437743444011101
Berkhamsted,BKM,2.0,51.7631330812332,-0.562012981628892,51.47503531074714,-3.1719622835054033,2.6258019125068683
Berkswell,BKW,1.0,52.3958819317755,-1.64284047482006,51.47503531074714,-3.1719622835054033,1.7849851554723037
Bermuda Park,BEP,2.0,52.5014343619449,-1.47217775464212,51.47503531074714,-3.1719622835054033,1.9856390550305572
Berney Arms,BYA,-999.0,52.5897827472666,1.63037533346209,51.47503531074714,-3.1719622835054033,4.93002113936317
Berry Brow,BBW,2.0,53.6210419716152,-1.79343228301033,51.47503531074714,-3.1719622835054033,2.5506253254359077
Berrylands,BRS,2.0,51.3990439366779,-0.280713667843256,51.47503531074714,-3.1719622835054033,2.8922470929194852
Berwick (Sussex),BRK,2.0,50.8403762860459,0.166017608785235,51.47503531074714,-3.1719622835054033,3.3977789567556256
Berwick-upon-Tweed,BWK,1.0,55.7743389009866,-2.01097357377303,51.47503531074714,-3.1719622835054033,4.453302835556095
Bescar Lane,BES,2.0,53.623855333027,-2.9146110021991,51.47503531074714,-3.1719622835054033,2.164175863958572
Bescot Stadium,BSC,1.0,52.5630947071172,-1.9911057185482,51.47503531074714,-3.1719622835054033,1.6057071579312687
Betchworth,BTO,1.0,51.2481879331766,-0.266973015200458,51.47503531074714,-3.1719622835054033,2.913832936473457
Bethnal Green,BET,2.0,51.5239156627757,-0.0595680464428894,51.47503531074714,-3.1719622835054033,3.112778047936342
Betws-y-Coed,BYC,1.0,53.0920709395504,-3.80086212197837,51.47503531074714,-3.1719622835054033,1.735027155882724
Beverley,BEV,2.0,53.8422725915824,-0.422980126740875,51.47503531074714,-3.1719622835054033,3.627770009521839
Bexhill,BEX,2.0,50.84103990242,0.477016592346932,51.47503531074714,-3.1719622835054033,3.703646448325821
Bexley,BXY,2.0,51.4402175270263,0.147902494716889,51.47503531074714,-3.1719622835054033,3.3200473526358296
Bexleyheath,BXH,2.0,51.4634982236074,0.133734871030645,51.47503531074714,-3.1719622835054033,3.3057172870479103
Bicester North,BCS,2.0,51.9034829537461,-1.15038352192815,51.47503531074714,-3.1719622835054033,2.0664820521968217
Bicester Village,BIT,2.0,51.8930236127002,-1.14876425178293,51.47503531074714,-3.1719622835054033,2.0659246104675
Bickley,BKL,2.0,51.4001024308637,0.0452405405139698,51.47503531074714,-3.1719622835054033,3.218075348304613
Bidston,BID,1.0,53.4091398593576,-3.07856110228132,51.47503531074714,-3.1719622835054033,1.9363584858206753
Biggleswade,BIW,2.0,52.0846785950736,-0.261187193156868,51.47503531074714,-3.1719622835054033,2.9739328440161317
Bilbrook,BBK,1.0,52.6237197237583,-2.18608801838282,51.47503531074714,-3.1719622835054033,1.513745007366098
Billericay,BIC,2.0,51.6288812691945,0.418629610467223,51.47503531074714,-3.1719622835054033,3.593886298701243
Billingham (Cleveland),BIL,2.0,54.605606575355,-1.27971968622732,51.47503531074714,-3.1719622835054033,3.658012915469566
Billingshurst,BIG,1.0,51.0152034952011,-0.450302232654151,51.47503531074714,-3.1719622835054033,2.760231644443634
Bingham,BIN,1.0,52.9541905628363,-0.95154335353279,51.47503531074714,-3.1719622835054033,2.6679880967432523
Bingley,BIY,2.0,53.8486154371384,-1.8373224993653,51.47503531074714,-3.1719622835054033,2.723076563339543
Birchgrove,BCG,0.0,51.5215597229164,-3.20185379786194,51.47503531074714,-3.1719622835054033,0.05529939925733744
Birchington-on-sea,BCH,2.0,51.3774886896266,1.3014083545974,51.47503531074714,-3.1719622835054033,4.4744340657933845
Birchwood,BWD,1.0,53.4127205850305,-2.5253082468513,51.47503531074714,-3.1719622835054033,2.042739744875893
Birkbeck,BIK,2.0,51.4038899816034,-0.0557387405611835,51.47503531074714,-3.1719622835054033,3.1170355832840273
Birkdale,BDL,2.0,53.6340528065899,-3.01445011129132,51.47503531074714,-3.1719622835054033,2.164755559353237
Birkenhead Central,BKC,1.0,53.3883166263867,-3.02082115838918,51.47503531074714,-3.1719622835054033,1.919241785830237
Birkenhead Hamilton Square,BKQ,1.0,53.3946967251861,-3.01368016573114,51.47503531074714,-3.1719622835054033,1.926175790236422
Birkenhead North,BKN,2.0,53.4044379353974,-3.05753365912751,51.47503531074714,-3.1719622835054033,1.9327929009814586
Birkenhead Park,BKP,2.0,53.3974085855031,-3.03910128885113,51.47503531074714,-3.1719622835054033,1.926959016532652
Birmingham International,BHI,1.0,52.4508081112451,-1.72585685988124,51.47503531074714,-3.1719622835054033,1.7445209813661915
Birmingham Moor Street,BMO,1.0,52.479080623723,-1.89247273057604,51.47503531074714,-3.1719622835054033,1.6264072388440043
Birmingham New Street,BHM,0.0,52.4778198092097,-1.9002055706822,51.47503531074714,-3.1719622835054033,1.6195499025864215
Birmingham Snow Hill,BSW,1.0,52.4833566780576,-1.89908868312646,51.47503531074714,-3.1719622835054033,1.6238593480706698
Bishop Auckland,BIA,2.0,54.6571963763698,-1.67771509725951,51.47503531074714,-3.1719622835054033,3.515526091663736
Bishopbriggs,BBG,2.0,55.9038831792009,-4.22491571705821,51.47503531074714,-3.1719622835054033,4.55229660447758
Bishops Stortford,BIS,2.0,51.8666894209812,0.16489410333554,51.47503531074714,-3.1719622835054033,3.359762415478873
Bishopstone (Sussex),BIP,2.0,50.7801416620368,0.082756921439231,51.47503531074714,-3.1719622835054033,3.3280736599500624
Bishopton (Strathclyde),BPT,2.0,55.9022694882255,-4.5004875625329,51.47503531074714,-3.1719622835054033,4.622270208376787
Bitterne,BTE,1.0,50.9182213632939,-1.37699961416727,51.47503531074714,-3.1719622835054033,1.8793437036359082
Blackburn,BBN,2.0,53.7465184457461,-2.47912240276289,51.47503531074714,-3.1719622835054033,2.3747974088186976
Blackheath,BKH,2.0,51.4657945200002,0.00887187089452019,51.47503531074714,-3.1719622835054033,3.180847577299281
Blackhorse Road,BHO,2.0,51.58660384873,-0.0412357433706351,51.47503531074714,-3.1719622835054033,3.1327138726305424
Blackpool North,BPN,1.0,53.8219180942013,-3.04927516714828,51.47503531074714,-3.1719622835054033,2.3500874298190664
Blackpool Pleasure Beach,BPB,2.0,53.7879555202556,-3.05387646984086,51.47503531074714,-3.1719622835054033,2.3159326749587272
Blackpool South,BPS,2.0,53.7987040263195,-3.04893832565541,51.47503531074714,-3.1719622835054033,2.326923117323557
Blackridge,BKR,2.0,55.8842557507999,-3.75079743413867,51.47503531074714,-3.1719622835054033,4.447052396879052
Blackrod,BLK,1.0,53.5915244932358,-2.56952431744104,51.47503531074714,-3.1719622835054033,2.2005585569457815
Blackwater,BAW,1.0,51.3315811457068,-0.776741026218888,51.47503531074714,-3.1719622835054033,2.3995132774845436
Blaenau Ffestiniog,BFF,1.0,52.9945530771849,-3.93859577234881,51.47503531074714,-3.1719622835054033,1.7019580337764522
Blair Atholl,BLA,2.0,56.7655504660718,-3.85022876626298,51.47503531074714,-3.1719622835054033,5.333816272646844
Blairhill,BAI,2.0,55.8664556230225,-4.0432911996593,51.47503531074714,-3.1719622835054033,4.477028751213307
Blake Street,BKT,1.0,52.6048860712992,-1.84491459685048,51.47503531074714,-3.1719622835054033,1.7428764453558523
Blakedown,BKD,2.0,52.4064026596129,-2.17686566095142,51.47503531074714,-3.1719622835054033,1.3629609043371655
Blantyre,BLT,2.0,55.7973304780703,-4.08697164977011,51.47503531074714,-3.1719622835054033,4.418085292727756
Blaydon,BLO,2.0,54.9657896857216,-1.71258088882198,51.47503531074714,-3.1719622835054033,3.7835380481173306
Bleasby,BSB,1.0,53.0413649497003,-0.943687538181265,51.47503531074714,-3.1719622835054033,2.723710131146944
Bletchley,BLY,1.0,51.9953339717924,-0.736320506839459,51.47503531074714,-3.1719622835054033,2.4905946199504103
Bloxwich,BLX,1.0,52.6182018754768,-2.01147807238452,51.47503531074714,-3.1719622835054033,1.628973111802854
Bloxwich North,BWN,1.0,52.6254378492086,-2.01768461058018,51.47503531074714,-3.1719622835054033,1.6296573095937221
Blundellsands & Crosby,BLN,2.0,53.4876867000616,-3.03986028592851,51.47503531074714,-3.1719622835054033,2.0169820407413757
Blythe Bridge,BYB,1.0,52.9681439666743,-2.06696136521393,51.47503531074714,-3.1719622835054033,1.8575253666719083
Bodmin Parkway,BOD,1.0,50.4458686645733,-4.66292953056928,51.47503531074714,-3.1719622835054033,1.8116752792412743
Bodorgan,BOR,0.0,53.2043074000119,-4.41800424551237,51.47503531074714,-3.1719622835054033,2.1314320373383437
Bognor Regis,BOG,2.0,50.7865584395345,-0.676178286011514,51.47503531074714,-3.1719622835054033,2.589003314857152
Bogston,BGS,2.0,55.9370473872407,-4.71140217696609,51.47503531074714,-3.1719622835054033,4.720108786495568
Bolton,BON,1.0,53.5741455351566,-2.42582497565139,51.47503531074714,-3.1719622835054033,2.227775710522042
Bolton-Upon-Dearne,BTD,2.0,53.5189470302023,-1.31154616002462,51.47503531074714,-3.1719622835054033,2.763824030113606
Bookham,BKA,2.0,51.2887375770933,-0.384020684769355,51.47503531074714,-3.1719622835054033,2.7941591228001794
Bootle (Cumbria),BOC,2.0,54.2913058315169,-3.39386227213438,51.47503531074714,-3.1719622835054033,2.8249989824972204
Bootle New Strand,BNW,2.0,53.4533917659639,-2.99474773972908,51.47503531074714,-3.1719622835054033,1.9862777394975966
Bootle Oriel Road,BOT,2.0,53.4466239167649,-2.9957338918952,51.47503531074714,-3.1719622835054033,1.9794489327559266
Bordesley,BBS,2.0,52.4718743800827,-1.87776885469942,51.47503531074714,-3.1719622835054033,1.6335925934327635
Borough Green & Wrotham,BRG,2.0,51.2932170234776,0.306244959659036,51.47503531074714,-3.1719622835054033,3.482956146147579
Borth,BRH,1.0,52.4910318901744,-4.05017708151719,51.47503531074714,-3.1719622835054033,1.3429483537555622
Bosham,BOH,1.0,50.8427472866996,-0.847431235664145,51.47503531074714,-3.1719622835054033,2.408989982904022
Boston,BSN,1.0,52.9780883520384,-0.03100323679323,51.47503531074714,-3.1719622835054033,3.4820672276763913
Botley,BOE,1.0,50.9164546156522,-1.25923650546392,51.47503531074714,-3.1719622835054033,1.992619455620451
Bottesford,BTF,1.0,52.9446141670485,-0.794842711685305,51.47503531074714,-3.1719622835054033,2.7947020366432955
Bourne End,BNE,2.0,51.5771173647136,-0.710473547391366,51.47503531074714,-3.1719622835054033,2.463604583482969
Bournemouth,BMH,1.0,50.7272746595869,-1.86450316465566,51.47503531074714,-3.1719622835054033,1.5061856920336667
Bournville,BRV,1.0,52.4269645832552,-1.92642405915734,51.47503531074714,-3.1719622835054033,1.5676526427017725
Bow Brickhill,BWB,2.0,52.0043001848605,-0.696077833880482,51.47503531074714,-3.1719622835054033,2.5318224888140812
Bowes Park,BOP,2.0,51.6070103763875,-0.120581954633459,51.47503531074714,-3.1719622835054033,3.054233018185979
Bowling,BWG,2.0,55.9310849001239,-4.49384261915191,51.47503531074714,-3.1719622835054033,4.647982956590281
Box Hill & Westhumble,BXW,2.0,51.2540106794359,-0.328489952956063,51.47503531074714,-3.1719622835054033,2.852049575699196
Bracknell,BCE,1.0,51.4130914141393,-0.751703650172948,51.47503531074714,-3.1719622835054033,2.4210511970107627
Bradford Forster Square,BDQ,1.0,53.7969256219995,-1.75296173787813,51.47503531074714,-3.1719622835054033,2.72116467086762
Bradford Interchange,BDI,1.0,53.7910764525054,-1.74959589964649,51.47503531074714,-3.1719622835054033,2.717935374553412
Bradford-on-Avon,BOA,0.0,51.3449161602034,-2.25232693866303,51.47503531074714,-3.1719622835054033,0.9287950047354775
Brading,BDN,2.0,50.6783720718463,-1.13872244962043,51.47503531074714,-3.1719622835054033,2.1837436979445584
Braintree,BTR,2.0,51.8753890748181,0.556686982906197,51.47503531074714,-3.1719622835054033,3.750081130898044
Braintree Freeport,BTP,2.0,51.8694135093739,0.568434688069829,51.47503531074714,-3.1719622835054033,3.7611306369921875
Bramhall,BML,1.0,53.360614520234,-2.16359288123925,51.47503531074714,-3.1719622835054033,2.1382744928272666
Bramley (Hants),BMY,1.0,51.3302932744388,-1.06100278415591,51.47503531074714,-3.1719622835054033,2.1159159399580476
Bramley (W Yorks),BLE,2.0,53.8053497570895,-1.63720635437646,51.47503531074714,-3.1719622835054033,2.7903120221273396
Brampton (Cumbria),BMP,2.0,54.9323930102284,-2.70294760254176,51.47503531074714,-3.1719622835054033,3.489025226782089
Brampton (Suffolk),BRP,2.0,52.3954307722651,1.54381046672808,51.47503531074714,-3.1719622835054033,4.804751860130504
Branchton,BCN,2.0,55.9406016000061,-4.80354935893801,51.47503531074714,-3.1719622835054033,4.754298967091232
Brandon,BND,2.0,52.4540047306678,0.624731734521936,51.47503531074714,-3.1719622835054033,3.920875742951359
Branksome,BSM,1.0,50.7269660330633,-1.91975842787338,51.47503531074714,-3.1719622835054033,1.458637083127303
Braystones (Cumbria),BYS,2.0,54.4393640536404,-3.54182643942065,51.47503531074714,-3.1719622835054033,2.9873139088107337
Bredbury,BDY,1.0,53.4231550957567,-2.11048830300964,51.47503531074714,-3.1719622835054033,2.218535036463299
Breich,BRC,2.0,55.8273164832767,-3.66812586892786,51.47503531074714,-3.1719622835054033,4.38047140251532
Brentford,BFD,2.0,51.4875457097478,-0.3096509962364,51.47503531074714,-3.1719622835054033,2.8623386269466256
Brentwood,BRE,2.0,51.6136030493508,0.2995857793073,51.47503531074714,-3.1719622835054033,3.474312445736619
Bricket Wood,BWO,2.0,51.7054267834401,-0.359115040469,51.47503531074714,-3.1719622835054033,2.8222667916671393
Bridge of Allan,BEA,2.0,56.1566398048563,-3.95722936202684,51.47503531074714,-3.1719622835054033,4.747005900973019
Bridge of Orchy,BRO,2.0,56.5158728605762,-4.76299400728156,51.47503531074714,-3.1719622835054033,5.285964921358144
Bridgend,BGN,0.0,51.5069776497295,-3.57527638119945,51.47503531074714,-3.1719622835054033,0.40457703150132857
Bridgeton,BDG,2.0,55.8489676845822,-4.22605724682491,51.47503531074714,-3.1719622835054033,4.499155543274533
Bridgwater,BWT,0.0,51.1278595271724,-2.99040597303838,51.47503531074714,-3.1719622835054033,0.3917827440956705
Bridlington,BDT,2.0,54.0841300013586,-0.198720390714093,51.47503531074714,-3.1719622835054033,3.95569746790957
Brierfield,BRF,2.0,53.8239823807197,-2.23649020577414,51.47503531074714,-3.1719622835054033,2.5283710854515644
Brigg,BGG,2.0,53.5491442686681,-0.486124757673641,51.47503531074714,-3.1719622835054033,3.393471848195306
Brighouse,BGH,2.0,53.6981985445311,-1.77943904000537,51.47503531074714,-3.1719622835054033,2.6232757666201674
Brighton (East Sussex),BTN,1.0,50.8290032740444,-0.141280362604851,51.47503531074714,-3.1719622835054033,3.098772385658512
Brimsdown,BMD,2.0,51.6555817179022,-0.0308174334464399,51.47503531074714,-3.1719622835054033,3.1463292857214658
Brinnington,BNT,1.0,53.4321182782686,-2.13512015019042,51.47503531074714,-3.1719622835054033,2.2147720765757732
Bristol Parkway,BPW,0.0,51.5138036668802,-2.54216343130652,51.47503531074714,-3.1719622835054033,0.6309909505438973
Bristol Temple Meads,BRI,0.0,51.449146420501,-2.58131562733598,51.47503531074714,-3.1719622835054033,0.5912137575211671
Brithdir,BHD,0.0,51.7103060616454,-3.22872077880337,51.47503531074714,-3.1719622835054033,0.24202035661638036
Briton Ferry,BNF,0.0,51.6379005035521,-3.81925304025098,51.47503531074714,-3.1719622835054033,0.6674656506485258
Brixton,BRX,2.0,51.4632974069132,-0.114183479348404,51.47503531074714,-3.1719622835054033,3.0578013332357328
Broad Green,BGE,2.0,53.4065063198581,-2.8934843782564,51.47503531074714,-3.1719622835054033,1.9514431077405257
Broadbottom,BDB,1.0,53.4409753914717,-2.01652101691897,51.47503531074714,-3.1719622835054033,2.280343158721987
Broadstairs,BSR,2.0,51.3606706129939,1.43356042841681,51.47503531074714,-3.1719622835054033,4.606942449621389
Brockenhurst,BCU,1.0,50.8168418133325,-1.57353117285741,51.47503531074714,-3.1719622835054033,1.7286412859602447
Brockholes,BHS,2.0,53.5969730380642,-1.76969142002127,51.47503531074714,-3.1719622835054033,2.543419606197143
Brockley,BCY,2.0,51.4646472014469,-0.0375366925196268,51.47503531074714,-3.1719622835054033,3.134442805067811
Bromborough,BOM,1.0,53.3218495381578,-2.98689585549247,51.47503531074714,-3.1719622835054033,1.856063677071426
Bromborough Rake,BMR,1.0,53.3299093778849,-2.98946942122466,51.47503531074714,-3.1719622835054033,1.8638297802437886
Bromley Cross (Lancs),BMC,2.0,53.6140430093272,-2.41089911446368,51.47503531074714,-3.1719622835054033,2.2703680498669354
Bromley North,BMN,2.0,51.4083259856208,0.0169926357417391,51.47503531074714,-3.1719622835054033,3.1896525846946657
Bromley South,BMS,2.0,51.3999745779484,0.0173440284479178,51.47503531074714,-3.1719622835054033,3.1901894716573778
Bromsgrove,BMV,1.0,52.3222879772082,-2.04734524157192,51.47503531074714,-3.1719622835054033,1.4080484976848608
Brondesbury,BSY,2.0,51.5451643215911,-0.202308734122339,51.47503531074714,-3.1719622835054033,2.970481489847292
Brondesbury Park,BSP,2.0,51.5406977630272,-0.210127665126915,51.47503531074714,-3.1719622835054033,2.962562381497591
Brookmans Park,BPK,2.0,51.7210604040222,-0.204548729285783,51.47503531074714,-3.1719622835054033,2.9775949268305997
Brookwood,BKO,2.0,51.3037572593507,-0.635747900032551,51.47503531074714,-3.1719622835054033,2.5419912607687585
Broome,BME,0.0,52.4227745962921,-2.88520796216339,51.47503531074714,-3.1719622835054033,0.9901705884208003
Broomfleet,BMF,2.0,53.7402076992399,-0.671828400321333,51.47503531074714,-3.1719622835054033,3.373673870342994
Brora,BRA,2.0,58.012954677959,-3.85228367382381,51.47503531074714,-3.1719622835054033,6.57322043189552
Brough,BUH,1.0,53.726959736948,-0.578724236728498,51.47503531074714,-3.1719622835054033,3.43453740532424
Broughty Ferry,BYF,2.0,56.4671632427311,-2.87315275743822,51.47503531074714,-3.1719622835054033,5.001062729276941
Broxbourne,BXB,2.0,51.7469087203036,-0.0110867237416249,51.47503531074714,-3.1719622835054033,3.172546210086755
Bruce Grove,BCV,2.0,51.5939575362971,-0.0698670703254643,51.47503531074714,-3.1719622835054033,3.104373883307815
Brundall,BDA,2.0,52.6194794445227,1.43929868679443,51.47503531074714,-3.1719622835054033,4.751155660630776
Brundall Gardens,BGA,2.0,52.623439277351,1.41841612253682,51.47503531074714,-3.1719622835054033,4.731850122433108
Brunstane,BSU,2.0,55.9425140850115,-3.10098653970798,51.47503531074714,-3.1719622835054033,4.468042541730128
Brunswick,BRW,2.0,53.3832435421687,-2.97607735757102,51.47503531074714,-3.1719622835054033,1.9182360539499097
Bruton,BRU,1.0,51.1116412233567,-2.44707381432238,51.47503531074714,-3.1719622835054033,0.8108751787450628
Bryn,BYN,2.0,53.4998691660173,-2.6472139954436,51.47503531074714,-3.1719622835054033,2.0917248641425124
Buckenham (Norfolk),BUC,-999.0,52.5977342869752,1.47032522512213,51.47503531074714,-3.1719622835054033,4.776116236439683
Buckley,BCK,1.0,53.163039091322,-3.05592619131988,51.47503531074714,-3.1719622835054033,1.6919873338546916
Bucknell,BUK,0.0,52.3573820377697,-2.94737831871819,51.47503531074714,-3.1719622835054033,0.9104799305459604
Buckshaw Parkway,BSV,1.0,53.6733436562841,-2.6608302706882,51.47503531074714,-3.1719622835054033,2.256948275123742
Bugle,BGL,2.0,50.4003548175137,-4.79210144517706,51.47503531074714,-3.1719622835054033,1.9441679623218264
Builth Road,BHR,0.0,52.1693260878635,-3.42703322967269,51.47503531074714,-3.1719622835054033,0.7396626736340833
Bulwell,BLW,1.0,52.9996957837852,-1.19623056375416,51.47503531074714,-3.1719622835054033,2.4956172355703607
Bures,BUE,2.0,51.9711590332091,0.769143780923498,51.47503531074714,-3.1719622835054033,3.972210437409853
Burgess Hill,BUG,2.0,50.9536546008005,-0.127412852764647,51.47503531074714,-3.1719622835054033,3.088870194897857
Burley Park,BUY,2.0,53.8120311080587,-1.57776768947798,51.47503531074714,-3.1719622835054033,2.828958423214832
Burley-in-Wharfedale,BUW,2.0,53.9081516997075,-1.75337211508043,51.47503531074714,-3.1719622835054033,2.816461153323354
Burnage,BNA,1.0,53.4211687602571,-2.21567840315285,51.47503531074714,-3.1719622835054033,2.16838978579122
Burneside (Cumbria),BUD,1.0,54.3549826054845,-2.76667730640148,51.47503531074714,-3.1719622835054033,2.908324660888324
Burnham (Bucks),BNM,1.0,51.5235048795581,-0.646373823188634,51.47503531074714,-3.1719622835054033,2.5260535168491485
Burnham-on-Crouch,BUU,2.0,51.6336547723703,0.814027782561537,51.47503531074714,-3.1719622835054033,3.9891448883676754
Burnley Barracks,BUB,2.0,53.7908801067712,-2.25808600820696,51.47503531074714,-3.1719622835054033,2.4896399269422624
Burnley Central,BNC,2.0,53.7935141377532,-2.24497131410056,51.47503531074714,-3.1719622835054033,2.4969293799852514
Burnley Manchester Road,BYM,2.0,53.784967519749,-2.24886752625716,51.47503531074714,-3.1719622835054033,2.4875471334315313
Burnside (Strathclyde),BUI,2.0,55.8169313339993,-4.20239033426663,51.47503531074714,-3.1719622835054033,4.462492918148836
Burntisland,BTS,2.0,56.0570842114504,-3.23319831966981,51.47503531074714,-3.1719622835054033,4.582458071882503
Burscough Bridge,BCB,1.0,53.6052595050232,-2.84088028461687,51.47503531074714,-3.1719622835054033,2.155799250363335
Burscough Junction,BCJ,2.0,53.5975223038556,-2.84060569626726,51.47503531074714,-3.1719622835054033,2.1481965049363385
Bursledon,BUO,1.0,50.8836886125224,-1.30503236047306,51.47503531074714,-3.1719622835054033,1.9583457955669763
Burton Joyce,BUJ,1.0,52.9834418843688,-1.04087761567102,51.47503531074714,-3.1719622835054033,2.6109025743646255
Burton-on-Trent,BUT,0.0,52.8058165084357,-1.64245997205794,51.47503531074714,-3.1719622835054033,2.0274012717872427
Bury St Edmunds,BSE,2.0,52.2537604920335,0.713306656862091,51.47503531074714,-3.1719622835054033,3.9625405546131423
Busby,BUS,2.0,55.7803445376612,-4.26220173231044,51.47503531074714,-3.1719622835054033,4.441205871729216
Bush Hill Park,BHK,2.0,51.6415169536941,-0.0692211146516689,51.47503531074714,-3.1719622835054033,3.107204354132209
Bushey,BSH,2.0,51.6457502336329,-0.385321269560704,51.47503531074714,-3.1719622835054033,2.7918652771032186
Butlers Lane,BUL,1.0,52.5924709448511,-1.83802031828625,51.47503531074714,-3.1719622835054033,1.7401332026422753
Buxted,BXD,2.0,50.9900108378352,0.131438921683175,51.47503531074714,-3.1719622835054033,3.3388183930493818
Buxton,BUX,1.0,53.2607227045765,-1.91286358993768,51.47503531074714,-3.1719622835054033,2.184950568920279
Byfleet & New Haw,BFN,2.0,51.3497957278428,-0.481389767596653,51.47503531074714,-3.1719622835054033,2.6934857371981002
Bynea,BYE,0.0,51.6720366859549,-4.09888164715589,51.47503531074714,-3.1719622835054033,0.9476228408728723
Cadoxton,CAD,0.0,51.4122831697514,-3.24889594393883,51.47503531074714,-3.1719622835054033,0.09928050819388032
Caergwrle,CGW,1.0,53.1078664074892,-3.03291327418616,51.47503531074714,-3.1719622835054033,1.6387409854765147
Caerphilly,CPH,0.0,51.57158067131,-3.21848255919666,51.47503531074714,-3.1719622835054033,0.10716875802492028
Caersws,CWS,1.0,52.5161279090032,-3.43249879239218,51.47503531074714,-3.1719622835054033,1.0731975915955423
Caldercruix,CAC,2.0,55.8879475461776,-3.88771190821316,51.47503531074714,-3.1719622835054033,4.470580714278757
Caldicot,CDT,0.0,51.5847930591881,-2.76057390572724,51.47503531074714,-3.1719622835054033,0.42577829995641936
Caledonian Rd & Barnsbury,CIR,2.0,51.5430392840645,-0.116729249835755,51.47503531074714,-3.1719622835054033,3.0559897628122363
Calstock,CSK,2.0,50.4978023671618,-4.20898850028348,51.47503531074714,-3.1719622835054033,1.4249237173664804
Cam & Dursley,CDU,1.0,51.71762106741,-2.35908298700462,51.47503531074714,-3.1719622835054033,0.8483045443797301
Camberley,CAM,2.0,51.3363271281171,-0.744271720142327,51.47503531074714,-3.1719622835054033,2.4316499401374903
Camborne,CBN,1.0,50.2104431448962,-5.2974123155278,51.47503531074714,-3.1719622835054033,2.4732026169635932
Cambridge,CBG,1.0,52.1940653655991,0.137456461171047,51.47503531074714,-3.1719622835054033,3.386629097996453
Cambridge Heath,CBH,2.0,51.5319710950389,-0.0572790666047599,51.47503531074714,-3.1719622835054033,3.1152035607926907
Cambuslang,CBL,2.0,55.8196110785266,-4.17300936139383,51.47503531074714,-3.1719622835054033,4.458411584199629
Camden Road,CMD,2.0,51.541789311709,-0.138700901327927,51.47503531074714,-3.1719622835054033,3.03399583210881
Camelon,CMO,2.0,56.0060960246981,-3.81760595611437,51.47503531074714,-3.1719622835054033,4.576829355076483
Canada Water,ZCW,2.0,51.4979884652777,-0.0497198367270248,51.47503531074714,-3.1719622835054033,3.122326815656481
Canley,CNL,1.0,52.3992417616656,-1.54757487164278,51.47503531074714,-3.1719622835054033,1.8689012889227323
Cannock,CAO,1.0,52.6861624456421,-2.02214749992606,51.47503531074714,-3.1719622835054033,1.6700008902442187
Canonbury,CNN,2.0,51.5487306960064,-0.0921909296515918,51.47503531074714,-3.1719622835054033,3.0806529505653586
Canterbury East,CBE,2.0,51.2742643010057,1.07596836838028,51.47503531074714,-3.1719622835054033,4.252672550477232
Canterbury West,CBW,2.0,51.2842658182293,1.07530307014886,51.47503531074714,-3.1719622835054033,4.251547481050563
Cantley,CNY,2.0,52.5787439208642,1.51341203393271,51.47503531074714,-3.1719622835054033,4.813616643497403
Capenhurst,CPU,1.0,53.2601766897761,-2.94228526259152,51.47503531074714,-3.1719622835054033,1.7998559045260563
Carbis Bay,CBB,2.0,50.1970567010486,-5.46326466277764,51.47503531074714,-3.1719622835054033,2.623603613373334
Cardenden,CDD,2.0,56.1412590120684,-3.26164246018956,51.47503531074714,-3.1719622835054033,4.667085403639238
Cardiff Bay,CDB,-1.0,51.4671120338694,-3.16640344566505,51.47503531074714,-3.1719622835054033,0.009678790968745826
Cardiff Central,CDF,-1.0,51.4760288851757,-3.17930229689385,51.47503531074714,-3.1719622835054033,0.007406955291323641
Cardiff Queen Street,CDQ,-1.0,51.4819650131963,-3.17018110795731,51.47503531074714,-3.1719622835054033,0.007154953694264149
Cardonald,CDO,2.0,55.8525736689993,-4.34069348123436,51.47503531074714,-3.1719622835054033,4.530869087770466
Cardross,CDR,2.0,55.9603843832927,-4.65307437435214,51.47503531074714,-3.1719622835054033,4.723563202523885
Carfin,CRF,2.0,55.8073437453988,-3.9562545230792,51.47503531074714,-3.1719622835054033,4.402727642043015
Cark & Cartmel,CAK,1.0,54.1779579416092,-2.97406410040301,51.47503531074714,-3.1719622835054033,2.710157641042587
Carlisle,CAR,1.0,54.8906549298,-2.93319211047497,51.47503531074714,-3.1719622835054033,3.4239551074142023
Carlton,CTO,1.0,52.965087366641,-1.07865502808069,51.47503531074714,-3.1719622835054033,2.5694727853953374
Carluke,CLU,2.0,55.7312694028257,-3.84892564535903,51.47503531074714,-3.1719622835054033,4.309734103151145
Carmarthen,CMN,0.0,51.8533578808521,-4.30596190317658,51.47503531074714,-3.1719622835054033,1.1954426395545699
Carmyle,CML,2.0,55.8343417681725,-4.15818113045633,51.47503531074714,-3.1719622835054033,4.4694720497875
Carnforth,CNF,1.0,54.1296807999724,-2.77123283370784,51.47503531074714,-3.1719622835054033,2.684720984646091
Carnoustie,CAN,2.0,56.5005661034066,-2.70660077824166,51.47503531074714,-3.1719622835054033,5.047030917138289
Carntyne,CAY,2.0,55.8548777008205,-4.17857314789674,51.47503531074714,-3.1719622835054033,4.494027680621719
Carpenders Park,CPK,2.0,51.6283500844943,-0.385939110192136,51.47503531074714,-3.1719622835054033,2.790238438214138
Carrbridge,CAG,2.0,57.2795057695212,-3.82820361192189,51.47503531074714,-3.1719622835054033,5.841449305429485
Carshalton,CSH,2.0,51.3684528774191,-0.166368536051504,51.47503531074714,-3.1719622835054033,3.0074829325913224
Carshalton Beeches,CSB,2.0,51.3574095253256,-0.169797044692897,51.47503531074714,-3.1719622835054033,3.0044686629303006
Carstairs,CRS,2.0,55.6910505751263,-3.66847398361363,51.47503531074714,-3.1719622835054033,4.245151184330474
Cartsdyke,CDY,2.0,55.9422189788465,-4.73159192667259,51.47503531074714,-3.1719622835054033,4.731614370210178
Castle Bar Park,CBP,2.0,51.5229293420363,-0.331548940592461,51.47503531074714,-3.1719622835054033,2.840817100207439
Castle Cary,CLC,1.0,51.0998172088069,-2.52279469643867,51.47503531074714,-3.1719622835054033,0.7498047613356974
Castleford,CFD,2.0,53.7240777865092,-1.354652736609,51.47503531074714,-3.1719622835054033,2.8915058441965407
Castleton (Manchester),CAS,2.0,53.5918484863424,-2.17823419505367,51.47503531074714,-3.1719622835054033,2.338459649887428
Castleton Moor,CSM,2.0,54.4671435348016,-0.946648402304519,51.47503531074714,-3.1719622835054033,3.7289051334566947
Caterham,CAT,2.0,51.2821399092314,-0.0783071221606942,51.47503531074714,-3.1719622835054033,3.0996630289824534
Catford,CTF,2.0,51.4444050592825,-0.0263165980978829,51.47503531074714,-3.1719622835054033,3.1457948106047438
Catford Bridge,CFB,2.0,51.4447390713824,-0.0247911767036132,51.47503531074714,-3.1719622835054033,3.1473169267818664
Cathays,CYS,0.0,51.4889025348744,-3.17868388381823,51.47503531074714,-3.1719622835054033,0.015410380130323167
Cathcart,CCT,2.0,55.8176734833053,-4.26053705302787,51.47503531074714,-3.1719622835054033,4.476996909380235
Cattal,CTL,2.0,53.9974405714928,-1.32053513613482,51.47503531074714,-3.1719622835054033,3.1289472321306695
Causeland,CAU,2.0,50.4056959147701,-4.46644892679679,51.47503531074714,-3.1719622835054033,1.6790421118746073
Cefn-y-Bedd,CYB,1.0,53.0988032278231,-3.03105323734973,51.47503531074714,-3.1719622835054033,1.6298704266946196
Chadwell Heath,CTH,2.0,51.5680368465285,0.128958362519305,51.47503531074714,-3.1719622835054033,3.302230518454136
Chafford Hundred Lakeside,CFH,2.0,51.4855550575053,0.28744692045023,51.47503531074714,-3.1719622835054033,3.45942519871218
Chalfont & Latimer,CFO,2.0,51.6681076576697,-0.560526398177912,51.47503531074714,-3.1719622835054033,2.6185634065881174
Chalkwell,CHW,2.0,51.5387163080302,0.670592556917399,51.47503531074714,-3.1719622835054033,3.8430824829909223
Chandlers Ford,CFR,1.0,50.9836845147777,-1.38517039014294,51.47503531074714,-3.1719622835054033,1.853119228459307
Chapel-en-le-Frith,CEF,1.0,53.3122322961308,-1.91876260821786,51.47503531074714,-3.1719622835054033,2.2239159582240564
Chapelton (Devon),CPN,1.0,51.0165400933197,-4.02472276399646,51.47503531074714,-3.1719622835054033,0.9682036467041286
Chapeltown (South Yorks),CLN,2.0,53.4623369950109,-1.46627538451147,51.47503531074714,-3.1719622835054033,2.618918819222377
Chappel & Wakes Colne,CWC,2.0,51.9259030310448,0.758501135970095,51.47503531074714,-3.1719622835054033,3.956238667350775
Charing (Kent),CHG,2.0,51.2080962778901,0.790331124900325,51.47503531074714,-3.1719622835054033,3.9712750473315412
Charing Cross (Glasgow),CHC,2.0,55.8646868840175,-4.2698209416277,51.47503531074714,-3.1719622835054033,4.524857408574227
Charlbury,CBY,1.0,51.8724282813146,-1.48969393048958,51.47503531074714,-3.1719622835054033,1.7285681891713154
Charlton,CTN,2.0,51.4868115310585,0.0312574909275387,51.47503531074714,-3.1719622835054033,3.2032414212299156
Chartham,CRT,2.0,51.2572624478548,1.01803921286391,51.47503531074714,-3.1719622835054033,4.1956569878136385
Chassen Road,CSR,2.0,53.4461614853374,-2.36823319572701,51.47503531074714,-3.1719622835054033,2.1286894660085864
Chatelherault,CTE,2.0,55.7652234915406,-4.00467524821846,51.47503531074714,-3.1719622835054033,4.3702546273897065
Chatham,CTM,2.0,51.3803760158194,0.521150706594487,51.47503531074714,-3.1719622835054033,3.69432591141615
Chathill,CHT,2.0,55.5367340174025,-1.70637532341525,51.47503531074714,-3.1719622835054033,4.31802518765606
Cheadle Hulme,CHU,1.0,53.3759306424827,-2.1883029825707,51.47503531074714,-3.1719622835054033,2.1403244339420606
Cheam,CHE,2.0,51.3554775610295,-0.214167523240628,51.47503531074714,-3.1719622835054033,2.9602101106791907
Cheddington,CED,2.0,51.8579176369762,-0.662151871991779,51.47503531074714,-3.1719622835054033,2.538847608164138
Chelford (Cheshire),CEL,1.0,53.2703118842523,-2.28057730967718,51.47503531074714,-3.1719622835054033,2.0043914654935002
Chelmsford,CHM,2.0,51.736370182895,0.468572080657349,51.47503531074714,-3.1719622835054033,3.6499022414374926
Chelsfield,CLD,2.0,51.3562540463622,0.109069814712519,51.47503531074714,-3.1719622835054033,3.2831814781253237
Cheltenham Spa,CNM,0.0,51.897399026527,-2.09962021886949,51.47503531074714,-3.1719622835054033,1.1525227164767657
Chepstow,CPW,0.0,51.6401819017246,-2.67190561030381,51.47503531074714,-3.1719622835054033,0.5266213753019555
Cherry Tree,CYT,2.0,53.7328728448942,-2.51837919025585,51.47503531074714,-3.1719622835054033,2.3505321079247037
Chertsey,CHY,2.0,51.387067986648,-0.509316626293664,51.47503531074714,-3.1719622835054033,2.6640983739302304
Cheshunt,CHN,2.0,51.7028745312854,-0.0239597248580568,51.47503531074714,-3.1719622835054033,3.1562368129888045
Chessington North,CSN,2.0,51.3640398492818,-0.300699137972596,51.47503531074714,-3.1719622835054033,2.873407740534026
Chessington South,CSS,2.0,51.3565491107847,-0.308157574149904,51.47503531074714,-3.1719622835054033,2.866254767620679
Chester,CTR,0.0,53.1966981459934,-2.879593999182,51.47503531074714,-3.1719622835054033,1.7463110066498502
Chester Road,CRD,1.0,52.5356474587434,-1.83247949958833,51.47503531074714,-3.1719622835054033,1.708540973136867
Chesterfield,CHD,1.0,53.2382208069527,-1.42011597140436,51.47503531074714,-3.1719622835054033,2.485515760411039
Chester-le-Street,CLS,1.0,54.854595364494,-1.57801542177952,51.47503531074714,-3.1719622835054033,3.7365883844607906
Chestfield & Swalecliffe,CSW,2.0,51.360237745381,1.06693052184082,51.47503531074714,-3.1719622835054033,4.240446992503263
Chetnole,CNO,1.0,50.8663655335093,-2.57292595204148,51.47503531074714,-3.1719622835054033,0.8540043466730788
Chichester,CCH,1.0,50.8320529892616,-0.781748952807999,51.47503531074714,-3.1719622835054033,2.475186060074376
Chilham,CIL,2.0,51.2446076985827,0.975895539359203,51.47503531074714,-3.1719622835054033,4.154253411041137
Chilworth,CHL,1.0,51.2152123162868,-0.524824137256049,51.47503531074714,-3.1719622835054033,2.659858709363865
Chingford,CHI,2.0,51.6330849559396,0.00989703968061354,51.47503531074714,-3.1719622835054033,3.1857822340661075
Chinley,CLY,1.0,53.3402914179345,-1.94394095141586,51.47503531074714,-3.1719622835054033,2.233207723761212
Chippenham,CPM,0.0,51.4624897217942,-2.11539415452921,51.47503531074714,-3.1719622835054033,1.0566426089129806
Chipstead,CHP,2.0,51.3092758788923,-0.169503225609274,51.47503531074714,-3.1719622835054033,3.0070311909907668
Chirk,CRK,0.0,52.9330904882563,-3.06564362624753,51.47503531074714,-3.1719622835054033,1.4619263174121955
Chislehurst,CIT,2.0,51.4055547408408,0.0574179687488035,51.47503531074714,-3.1719622835054033,3.230127607888573
Chiswick,CHK,2.0,51.4811353508269,-0.267835206320324,51.47503531074714,-3.1719622835054033,2.9041334836623003
Cholsey,CHO,1.0,51.5702025135637,-1.15802300516055,51.47503531074714,-3.1719622835054033,2.016186552219838
Chorley,CRL,1.0,53.6525386748143,-2.62684103630161,51.47503531074714,-3.1719622835054033,2.244699996586812
Chorleywood,CLW,2.0,51.6542477676637,-0.518320062534133,51.47503531074714,-3.1719622835054033,2.6596868502956146
Christchurch,CHR,1.0,50.7382153631909,-1.78454614689707,51.47503531074714,-3.1719622835054033,1.5709319435411473
Christs Hospital,CHH,2.0,51.0506848896206,-0.363556339669494,51.47503531074714,-3.1719622835054033,2.8402847084901786
Church & Oswaldtwistle,CTW,2.0,53.7505227746877,-2.39121218921604,51.47503531074714,-3.1719622835054033,2.405704451565801
Church Fenton,CHF,2.0,53.8266010051519,-1.22758889955301,51.47503531074714,-3.1719622835054033,3.0513028481820403
Church Stretton,CTT,0.0,52.5374242388884,-2.80369477152189,51.47503531074714,-3.1719622835054033,1.1244070415199572
Cilmeri,CIM,0.0,52.1505334866855,-3.45654171112508,51.47503531074714,-3.1719622835054033,0.7329960684208285
City Thameslink,CTK,2.0,51.5139346019675,-0.103589643870664,51.47503531074714,-3.1719622835054033,3.0686192025920236
Clacton-on-Sea,CLT,2.0,51.7939991870545,1.15409160775521,51.47503531074714,-3.1719622835054033,4.3377967016078705
Clandon,CLA,2.0,51.2640043702166,-0.502766109156909,51.47503531074714,-3.1719622835054033,2.6775254013767715
Clapham (North Yorkshire),CPY,2.0,54.1053880706421,-2.4103762733162,51.47503531074714,-3.1719622835054033,2.738388009834061
Clapham High Street,CLP,2.0,51.465479417202,-0.132521686185382,51.47503531074714,-3.1719622835054033,3.0394556189782627
Clapham Junction,CLJ,1.0,51.4641865965587,-0.170293416365599,51.47503531074714,-3.1719622835054033,3.001688471936403
Clapton,CPT,2.0,51.5616423238882,-0.0570246574503497,51.47503531074714,-3.1719622835054033,3.116141394246851
Clarbeston Road,CLR,0.0,51.8516714049905,-4.8835490247474,51.47503531074714,-3.1719622835054033,1.752536424808994
Clarkston,CKS,2.0,55.7893535486702,-4.27564475472092,51.47503531074714,-3.1719622835054033,4.453252390707711
Claverdon,CLV,2.0,52.277091521558,-1.69656001384624,51.47503531074714,-3.1719622835054033,1.6793171298523952
Claygate,CLG,2.0,51.3612128745663,-0.34824779526903,51.47503531074714,-3.1719622835054033,2.8260076181875635
Cleethorpes,CLE,1.0,53.5619045675724,-0.0292209300100191,51.47503531074714,-3.1719622835054033,3.7725119628773096
Cleland,CEA,2.0,55.804652232152,-3.91024482718574,51.47503531074714,-3.1719622835054033,4.392111542347079
Clifton (Manchester),CLI,2.0,53.522491666707,-2.31474664635258,51.47503531074714,-3.1719622835054033,2.219661275541777
Clifton Down,CFN,1.0,51.4645471476911,-2.61174122454121,51.47503531074714,-3.1719622835054033,0.5603192272903477
Clitheroe,CLH,2.0,53.8734683464237,-2.39433664531423,51.47503531074714,-3.1719622835054033,2.521345406682098
Clock House,CLK,2.0,51.4085847718765,-0.0406570648343016,51.47503531074714,-3.1719622835054033,3.1320102245352066
Clunderwen,CUW,0.0,51.840545791914,-4.73184301881061,51.47503531074714,-3.1719622835054033,1.6021316488413637
Clydebank,CYK,2.0,55.9006964941048,-4.40441492241242,51.47503531074714,-3.1719622835054033,4.594063170770251
Coatbridge Central,CBC,2.0,55.8625102963699,-4.0318976496868,51.47503531074714,-3.1719622835054033,4.470953542978831
Coatbridge Sunnyside,CBS,2.0,55.8668386609231,-4.02828798060081,51.47503531074714,-3.1719622835054033,4.47450895251342
Coatdyke,COA,2.0,55.8643447692187,-4.00498525207608,51.47503531074714,-3.1719622835054033,4.467657640016095
Cobham & Stoke d'Abernon,CSD,2.0,51.3180996661306,-0.389346373427882,51.47503531074714,-3.1719622835054033,2.787037871929221
Codsall,CSL,1.0,52.6272899571536,-2.20176310096144,51.47503531074714,-3.1719622835054033,1.506312458945439
Cogan,CGN,0.0,51.4459958120536,-3.18909039001181,51.47503531074714,-3.1719622835054033,0.033714455606855945
Colchester,COL,2.0,51.90071062168,0.89259805805851,51.47503531074714,-3.1719622835054033,4.086789723065275
Colchester Town,CET,2.0,51.8864527052257,0.9047624659822,51.47503531074714,-3.1719622835054033,4.097431995233635
Coleshill Parkway,CEH,1.0,52.5165275432713,-1.70817740730361,51.47503531074714,-3.1719622835054033,1.796488862811363
Collingham,CLM,1.0,53.1440857576614,-0.750393934928215,51.47503531074714,-3.1719622835054033,2.9410410845779675
Collington,CLL,2.0,50.8392865411482,0.457861387933257,51.47503531074714,-3.1719622835054033,3.6850775275132275
Colne,CNE,2.0,53.8547444008362,-2.18185934114806,51.47503531074714,-3.1719622835054033,2.5774637126285977
Colwall,CWL,1.0,52.0798705537891,-2.35695037506955,51.47503531074714,-3.1719622835054033,1.0149236829032418
Colwyn Bay,CWB,0.0,53.2963632033856,-3.72541732837559,51.47503531074714,-3.1719622835054033,1.903561866395503
Combe (Oxon),CME,1.0,51.8325940324182,-1.39407333584626,51.47503531074714,-3.1719622835054033,1.8134876204847885
Commondale,COM,2.0,54.4812740872027,-0.975148019682156,51.47503531074714,-3.1719622835054033,3.723367359098791
Congleton,CNG,1.0,53.1578561862417,-2.19258027037562,51.47503531074714,-3.1719622835054033,1.9470683672235127
Conisbrough,CNS,2.0,53.4893094105923,-1.23433150755602,51.47503531074714,-3.1719622835054033,2.794944216476107
Connel Ferry,CON,2.0,56.4523594657108,-5.38544247761732,51.47503531074714,-3.1719622835054033,5.447315881542987
Conon Bridge,CBD,2.0,57.5617567994351,-4.44040638557,51.47503531074714,-3.1719622835054033,6.2174857395026075
Cononley,CEY,2.0,53.9175717411782,-2.01206789209741,51.47503531074714,-3.1719622835054033,2.7039488185249794
Conway Park,CNP,2.0,53.3933615887328,-3.02267129068915,51.47503531074714,-3.1719622835054033,1.9241266874471628
Conwy,CNW,0.0,53.280106240192,-3.83052500023981,51.47503531074714,-3.1719622835054033,1.92145411399792
Cooden Beach,COB,2.0,50.8333700419813,0.426858738350685,51.47503531074714,-3.1719622835054033,3.655577528174398
Cookham,COO,2.0,51.557462203665,-0.722079072881563,51.47503531074714,-3.1719622835054033,2.4512694544608244
Cooksbridge,CBR,2.0,50.9037547738731,-0.0092027514388362,51.47503531074714,-3.1719622835054033,3.21393984223243
Coombe Junction Halt,COE,2.0,50.4459252926848,-4.48185232237372,51.47503531074714,-3.1719622835054033,1.6657969093508096
Copplestone,COP,1.0,50.8144709700958,-3.75157247453534,51.47503531074714,-3.1719622835054033,0.8788021516165627
Corbridge,CRB,2.0,54.9662625268169,-2.01840032187859,51.47503531074714,-3.1719622835054033,3.676869956027614
Corby,COR,2.0,52.4888508478421,-0.6883354035657,51.47503531074714,-3.1719622835054033,2.6825779433250725
Corkerhill,CKH,2.0,55.8375061471062,-4.33429351905428,51.47503531074714,-3.1719622835054033,4.5146611942886565
Corkickle,CKL,2.0,54.5416834476749,-3.58216474823985,51.47503531074714,-3.1719622835054033,3.0939613536365833
Corpach,CPA,2.0,56.8428332781627,-5.12195790866533,51.47503531074714,-3.1719622835054033,5.711018994639529
Corrour,CRR,2.0,56.7602193492772,-4.69060138585505,51.47503531074714,-3.1719622835054033,5.49903946560836
Coryton,COY,0.0,51.5204395971461,-3.23181845626842,51.47503531074714,-3.1719622835054033,0.07512862730833791
Coseley,CSY,1.0,52.5450842204875,-2.08577774384501,51.47503531074714,-3.1719622835054033,1.5247299837787032
Cosford,COS,1.0,52.6448359469502,-2.30027497544232,51.47503531074714,-3.1719622835054033,1.4588599286769643
Cosham,CSA,0.0,50.8419241447189,-1.06732879438891,51.47503531074714,-3.1719622835054033,2.1977970497887873
Cottingham,CGM,2.0,53.7816479755855,-0.406433983012819,51.47503531074714,-3.1719622835054033,3.6011954635118224
Cottingley,COT,2.0,53.7678175756796,-1.58770821538294,51.47503531074714,-3.1719622835054033,2.7868820331602495
Coulsdon South,CDS,2.0,51.3158366640872,-0.137887293899879,51.47503531074714,-3.1719622835054033,3.03824871458018
Coulsdon Town,CDN,2.0,51.3220411523246,-0.134464231082376,51.47503531074714,-3.1719622835054033,3.0413486533091048
Coventry,COV,1.0,52.4008144382941,-1.51345977599177,51.47503531074714,-3.1719622835054033,1.899393998208539
Coventry Arena,CAA,2.0,52.4477337100526,-1.49412470531811,51.47503531074714,-3.1719622835054033,1.9394022570856244
Cowden (Kent),CWN,2.0,51.1556353416943,0.110032723034128,51.47503531074714,-3.1719622835054033,3.297500199117715
Cowdenbeath,COW,2.0,56.1120953327991,-3.34318635187069,51.47503531074714,-3.1719622835054033,4.6402201811659864
Cradley Heath,CRA,2.0,52.4696552938033,-2.09048839521938,51.47503531074714,-3.1719622835054033,1.4693041488198173
Craigendoran,CGD,2.0,55.9948018624344,-4.71124492675969,51.47503531074714,-3.1719622835054033,4.774691690316231
Cramlington,CRM,2.0,55.0877690033603,-1.59859511992401,51.47503531074714,-3.1719622835054033,3.9404731905163994
Cranbrook (Devon),CBK,1.0,50.7500952464281,-3.42041599201744,51.47503531074714,-3.1719622835054033,0.7663337015480081
Craven Arms,CRV,0.0,52.4425417003323,-2.83742232035607,51.47503531074714,-3.1719622835054033,1.0237116785658305
Crawley,CRW,2.0,51.1122123903253,-0.186672935434113,51.47503531074714,-3.1719622835054033,3.0072567172244113
Crayford,CRY,2.0,51.4482779041524,0.178936075571555,51.47503531074714,-3.1719622835054033,3.3510051882490917
Crediton,CDI,1.0,50.7833069483759,-3.64677829535681,51.47503531074714,-3.1719622835054033,0.8390103529869389
Cressing (Essex),CES,2.0,51.8523340604127,0.577961040362359,51.47503531074714,-3.1719622835054033,3.7688564951967387
Cressington,CSG,2.0,53.3587520488864,-2.91200333610422,51.47503531074714,-3.1719622835054033,1.9015697210147084
Creswell,CWD,1.0,53.264112781138,-1.21639486472377,51.47503531074714,-3.1719622835054033,2.650479602724842
Crewe,CRE,0.0,53.0896271575516,-2.4329691730368,51.47503531074714,-3.1719622835054033,1.7756738577473885
Crewkerne,CKN,1.0,50.8735384311373,-2.77849644743115,51.47503531074714,-3.1719622835054033,0.7187585549668162
Crews Hill,CWH,2.0,51.684484296328,-0.106887096068869,51.47503531074714,-3.1719622835054033,3.07222310098078
Crianlarich,CNR,2.0,56.3904817962502,-4.61843468589525,51.47503531074714,-3.1719622835054033,5.123855634453399
Criccieth,CCC,1.0,52.9184156772103,-4.23751289496718,51.47503531074714,-3.1719622835054033,1.794086114955994
Cricklewood,CRI,2.0,51.5584516063089,-0.21267663535896,51.47503531074714,-3.1719622835054033,2.960461083292729
Croftfoot,CFF,2.0,55.8182615046635,-4.2283256121718,51.47503531074714,-3.1719622835054033,4.469845327712394
Crofton Park,CFT,2.0,51.4551875557246,-0.0365030454664447,51.47503531074714,-3.1719622835054033,3.135522056497655
Cromer,CMR,2.0,52.930080690008,1.29282430287158,51.47503531074714,-3.1719622835054033,4.695899947571308
Cromford,CMF,1.0,53.1129329746475,-1.5491620139343,51.47503531074714,-3.1719622835054033,2.305686334333078
Crookston,CKT,2.0,55.842318324364,-4.3646760010174,51.47503531074714,-3.1719622835054033,4.527220663162739
Cross Gates,CRG,1.0,53.8049143949973,-1.45158048553366,51.47503531074714,-3.1719622835054033,2.896213058118972
Crossflatts,CFL,2.0,53.85846717734,-1.84488619236594,51.47503531074714,-3.1719622835054033,2.72798064772541
Crosshill,COI,2.0,55.833290292641,-4.25681226287329,51.47503531074714,-3.1719622835054033,4.491245480369248
Crosskeys,CKY,0.0,51.6209052713811,-3.12617046220163,51.47503531074714,-3.1719622835054033,0.15288864023749293
Crossmyloof,CMY,2.0,55.8339508036377,-4.28431839013047,51.47503531074714,-3.1719622835054033,4.4986087162707795
Croston,CSO,2.0,53.6675629248262,-2.7777501372441,51.47503531074714,-3.1719622835054033,2.227685021442476
Crouch Hill,CRH,2.0,51.5713003694514,-0.117148819750171,51.47503531074714,-3.1719622835054033,3.0563298676464186
Crowborough,COH,2.0,51.0463795309772,0.188012411090755,51.47503531074714,-3.1719622835054033,3.3872076590986744
Crowhurst,CWU,2.0,50.8885767869689,0.501336510177375,51.47503531074714,-3.1719622835054033,3.719819569251109
Crowle,CWE,1.0,53.5897328427991,-0.81735865187716,51.47503531074714,-3.1719622835054033,3.1648228882740934
Crowthorne,CRN,1.0,51.366727169526,-0.819273411974494,51.47503531074714,-3.1719622835054033,2.355180583242007
Croy,CRO,2.0,55.9556821274184,-4.0359768431357,51.47503531074714,-3.1719622835054033,4.563191542659528
Crystal Palace,CYP,2.0,51.4181074460731,-0.072609878955063,51.47503531074714,-3.1719622835054033,3.099875176417322
Cuddington,CUD,1.0,53.2399218257185,-2.59930662534034,51.47503531074714,-3.1719622835054033,1.8554673032840567
Cuffley,CUF,2.0,51.7087202077633,-0.10978341309134,51.47503531074714,-3.1719622835054033,3.071082555957069
Culham,CUM,1.0,51.6537935596445,-1.23651383491957,51.47503531074714,-3.1719622835054033,1.9436859851020587
Culrain,CUA,2.0,57.9195183107936,-4.40427167605383,51.47503531074714,-3.1719622835054033,6.561245886022784
Cumbernauld,CUB,2.0,55.9420305501203,-3.98033519205288,51.47503531074714,-3.1719622835054033,4.539549892649711
Cupar,CUP,1.0,56.3169904139478,-3.00875666756718,51.47503531074714,-3.1719622835054033,4.844704871763057
Curriehill,CUH,2.0,55.9005690535793,-3.3187519699346,51.47503531074714,-3.1719622835054033,4.427967493217174
Cuxton,CUX,2.0,51.3739241251142,0.46170858180193,51.47503531074714,-3.1719622835054033,3.6350773622088766
Cwmbach,CMH,0.0,51.7019311514616,-3.41372372042933,51.47503531074714,-3.1719622835054033,0.331557408176992
Cwmbran,CWM,0.0,51.656589162343,-3.01620383997003,51.47503531074714,-3.1719622835054033,0.23921223581133028
Cynghordy,CYN,0.0,52.0515022362178,-3.7482113284355,51.47503531074714,-3.1719622835054033,0.815093294012683
Dagenham Dock,DDK,2.0,51.5260877297843,0.146102888033722,51.47503531074714,-3.1719622835054033,3.318457899698369
Daisy Hill,DSY,2.0,53.5394553429484,-2.51586138257427,51.47503531074714,-3.1719622835054033,2.166171383237371
Dalgety Bay,DAG,2.0,56.0420983541516,-3.36772120470528,51.47503531074714,-3.1719622835054033,4.571256544721609
Dalmally,DAL,2.0,56.4011953995722,-4.98355341151622,51.47503531074714,-3.1719622835054033,5.2487060915829975
Dalmarnock,DAK,2.0,55.8420903351636,-4.2177095618254,51.47503531074714,-3.1719622835054033,4.490518562081078
Dalmeny,DAM,2.0,55.9863224095627,-3.38162023146767,51.47503531074714,-3.1719622835054033,4.51615630188809
Dalmuir,DMR,2.0,55.9119346513924,-4.42668195442919,51.47503531074714,-3.1719622835054033,4.610899826673906
Dalreoch,DLR,2.0,55.9474206110829,-4.57786407515961,51.47503531074714,-3.1719622835054033,4.688154234070791
Dalry,DLY,2.0,55.7062259599313,-4.71108082709015,51.47503531074714,-3.1719622835054033,4.50242825605805
Dalston (Cumbria),DLS,2.0,54.8461793005894,-2.98885243258072,51.47503531074714,-3.1719622835054033,3.3761133004914465
Dalston Junction,DLJ,2.0,51.5461140533343,-0.075137571913028,51.47503531074714,-3.1719622835054033,3.0976403086828803
Dalston Kingsland,DLK,2.0,51.548146614991,-0.0757008270787684,51.47503531074714,-3.1719622835054033,3.097124516283035
Dalton (Cumbria),DLT,1.0,54.1542402484565,-3.17900332996882,51.47503531074714,-3.1719622835054033,2.67921418975444
Dalwhinnie,DLW,2.0,56.9351747606959,-4.24619941232607,51.47503531074714,-3.1719622835054033,5.564809810031574
Danby,DNY,2.0,54.4661531404483,-0.910955849347219,51.47503531074714,-3.1719622835054033,3.7495247654150634
Danescourt,DCT,0.0,51.5005094348701,-3.2339173943314,51.47503531074714,-3.1719622835054033,0.06698781051275969
Danzey,DZY,2.0,52.3248139247282,-1.82087736085094,51.47503531074714,-3.1719622835054033,1.5961059366482495
Darlington,DAR,1.0,54.5204487638895,-1.5473239913848,51.47503531074714,-3.1719622835054033,3.4516652040435525
Darnall,DAN,2.0,53.3845848539264,-1.4125672166063,51.47503531074714,-3.1719622835054033,2.5965073578337923
Darsham,DSM,2.0,52.2729949292624,1.52346982245693,51.47503531074714,-3.1719622835054033,4.7627536378111035
Dartford,DFD,2.0,51.4473686091583,0.219247795125754,51.47503531074714,-3.1719622835054033,3.3913229341639446
Darton,DRT,2.0,53.5883685698073,-1.53165757467506,51.47503531074714,-3.1719622835054033,2.6752153187474175
Darwen,DWN,2.0,53.6980382551398,-2.46494001713562,51.47503531074714,-3.1719622835054033,2.3327285688483146
Datchet,DAT,2.0,51.4830761133821,-0.579421910690656,51.47503531074714,-3.1719622835054033,2.592552842119413
Davenport,DVN,1.0,53.3909022414929,-2.15295802817964,51.47503531074714,-3.1719622835054033,2.170003633337329
Dawlish,DWL,0.0,50.5808243984253,-3.46462586729764,51.47503531074714,-3.1719622835054033,0.940885290029327
Dawlish Warren,DWW,1.0,50.5987145190544,-3.44356213176095,51.47503531074714,-3.1719622835054033,0.9174446073335594
Deal,DEA,2.0,51.2230404404227,1.39884675211659,51.47503531074714,-3.1719622835054033,4.577750173916603
Dean (Wilts),DEN,1.0,51.0424618999667,-1.63486720856804,51.47503531074714,-3.1719622835054033,1.5968033770977934
Deansgate,DGT,1.0,53.4741857640751,-2.25105124318295,51.47503531074714,-3.1719622835054033,2.2010633065019247
Deganwy,DGY,0.0,53.2947519812566,-3.83338710286836,51.47503531074714,-3.1719622835054033,1.9361951225533471
Deighton,DHN,2.0,53.6684837829464,-1.75189659292689,51.47503531074714,-3.1719622835054033,2.6130064611002246
Delamere,DLM,1.0,53.2287779256449,-2.66656070710605,51.47503531074714,-3.1719622835054033,1.8251147670038137
Denby Dale,DBD,2.0,53.5726320929315,-1.66321052492305,51.47503531074714,-3.1719622835054033,2.5838428995694627
Denham,DNM,2.0,51.578836362709,-0.497436854492594,51.47503531074714,-3.1719622835054033,2.676538983243947
Denham Golf Club,DGC,2.0,51.580596815156,-0.51778668246761,51.47503531074714,-3.1719622835054033,2.656273960335679
Denmark Hill,DMK,2.0,51.4682011118168,-0.0893608845630425,51.47503531074714,-3.1719622835054033,3.0826089747219676
Dent,DNT,2.0,54.2824108456213,-2.36359889232972,51.47503531074714,-3.1719622835054033,2.9214395023691715
Denton,DTN,1.0,53.4568674739172,-2.13165979003999,51.47503531074714,-3.1719622835054033,2.23827790966307
Deptford,DEP,2.0,51.4788463642079,-0.026270214115525,51.47503531074714,-3.1719622835054033,3.1456943779634496
Derby,DBY,0.0,52.9165485818253,-1.46335478012848,51.47503531074714,-3.1719622835054033,2.2354641825111834
Derby Road (Ipswich),DBR,2.0,52.050551175491,1.18264326424955,51.47503531074714,-3.1719622835054033,4.392471740046838
Devonport (Devon),DPT,1.0,50.3785384996853,-4.17071080992923,51.47503531074714,-3.1719622835054033,1.483173582458422
Devonport Dockyard,DOC,1.0,50.3821742019037,-4.1758986568326,51.47503531074714,-3.1719622835054033,1.483992467943106
Dewsbury,DEW,1.0,53.6921323675954,-1.63310655566078,51.47503531074714,-3.1719622835054033,2.6988138710562133
Didcot Parkway,DID,0.0,51.6109546860743,-1.24289356096081,51.47503531074714,-3.1719622835054033,1.933851135141781
Digby & Sowton,DIG,2.0,50.713993328666,-3.47356109719659,51.47503531074714,-3.1719622835054033,0.818624909778538
Dilton Marsh,DMH,0.0,51.2489890910928,-2.20791557793657,51.47503531074714,-3.1719622835054033,0.9901933871411872
Dinas (Rhondda),DMG,0.0,51.6178378851192,-3.43754173872447,51.47503531074714,-3.1719622835054033,0.30153776261315046
Dinas Powys,DNS,0.0,51.4316678020878,-3.21835212130232,51.47503531074714,-3.1719622835054033,0.0635039987571011
Dingle Road,DGL,0.0,51.4400570944876,-3.18059109298652,51.47503531074714,-3.1719622835054033,0.03602682286519976
Dingwall,DIN,2.0,57.59424066943,-4.42219986587001,51.47503531074714,-3.1719622835054033,6.24561992392188
Dinsdale,DND,2.0,54.5147295901116,-1.46706513570219,51.47503531074714,-3.1719622835054033,3.485170813114985
Dinting,DTG,1.0,53.4493321635491,-1.97029878612479,51.47503531074714,-3.1719622835054033,2.3112427877487782
Disley,DSL,1.0,53.3581843467523,-2.04248177088045,51.47503531074714,-3.1719622835054033,2.195899934014915
Diss,DIS,2.0,52.3736543722193,1.12369734579394,51.47503531074714,-3.1719622835054033,4.388645334090382
Dodworth,DOD,2.0,53.5443255754093,-1.53169088048623,51.47503531074714,-3.1719622835054033,2.6405401862096514
Dolau,DOL,0.0,52.29535399865,-3.26362091602153,51.47503531074714,-3.1719622835054033,0.8254235607476925
Doleham,DLH,2.0,50.9185854757412,0.609974730800684,51.47503531074714,-3.1719622835054033,3.8226540517102214
Dolgarrog,DLG,1.0,53.1863525124092,-3.82263691779208,51.47503531074714,-3.1719622835054033,1.8308424411752564
Dolwyddelan,DWD,1.0,53.0520169904365,-3.88513298649778,51.47503531074714,-3.1719622835054033,1.7307465642555868
Doncaster,DON,1.0,53.5221497040669,-1.13984532561563,51.47503531074714,-3.1719622835054033,2.8844716448389836
Dorchester South,DCH,1.0,50.7092941817416,-2.43724302167314,51.47503531074714,-3.1719622835054033,1.0612124529791505
Dorchester West,DCW,1.0,50.7109558301461,-2.44254130185048,51.47503531074714,-3.1719622835054033,1.0563486267108921
Dore & Totley,DOR,1.0,53.3276351284421,-1.51529775653157,51.47503531074714,-3.1719622835054033,2.4852894075855287
Dorking (Main),DKG,2.0,51.2409286574082,-0.324250782074152,51.47503531074714,-3.1719622835054033,2.8573180992884555
Dorking Deepdene,DPD,1.0,51.2388030074627,-0.324643185528021,51.47503531074714,-3.1719622835054033,2.857101983972887
Dorking West,DKT,1.0,51.2362248191187,-0.339978560509645,51.47503531074714,-3.1719622835054033,2.8420348798395723
Dormans,DMS,2.0,51.1557900843982,-0.00430826569700688,51.47503531074714,-3.1719622835054033,3.1837005969601258
Dorridge,DDG,2.0,52.3720695979365,-1.7529004491151,51.47503531074714,-3.1719622835054033,1.6788111871847
Dove Holes,DVH,1.0,53.3000293384446,-1.88975176117671,51.47503531074714,-3.1719622835054033,2.2303961586906107
Dover Priory,DVP,2.0,51.1256965964877,1.30529347028767,51.47503531074714,-3.1719622835054033,4.490863683319014
Dovercourt,DVC,2.0,51.9387345600673,1.28061089295205,51.47503531074714,-3.1719622835054033,4.476653313082051
Dovey Junction,DVY,1.0,52.5643635350253,-3.92390297461625,51.47503531074714,-3.1719622835054033,1.3236505517534725
Downham Market,DOW,2.0,52.6041065863828,0.365681057551921,51.47503531074714,-3.1719622835054033,3.7134515418937086
Drayton Green,DRG,2.0,51.516615460614,-0.33019425245541,51.47503531074714,-3.1719622835054033,2.84207221075762
Drayton Park,DYP,2.0,51.5527683445258,-0.105509008966857,51.47503531074714,-3.1719622835054033,3.0674383627823083
Drem,DRM,2.0,56.0051254677484,-2.78604825861367,51.47503531074714,-3.1719622835054033,4.546498264067396
Driffield,DRF,2.0,54.0015272627459,-0.434665009990613,51.47503531074714,-3.1719622835054033,3.725044690618628
Drigg,DRI,2.0,54.3769633209494,-3.44341362306065,51.47503531074714,-3.1719622835054033,2.9145963710508522
Droitwich Spa,DTW,1.0,52.2682048110456,-2.15836341611519,51.47503531074714,-3.1719622835054033,1.2870510946261744
Dronfield,DRO,1.0,53.301369608262,-1.46877868224617,51.47503531074714,-3.1719622835054033,2.4972647728820174
Drumchapel,DMC,2.0,55.9048173082117,-4.36287986166729,51.47503531074714,-3.1719622835054033,4.587074582240414
Drumfrochar,DFR,2.0,55.941253590074,-4.7747672712099,51.47503531074714,-3.1719622835054033,4.745112174354131
Drumgelloch,DRU,2.0,55.8673580650901,-3.94888294626481,51.47503531074714,-3.1719622835054033,4.460505004429596
Drumry,DMY,2.0,55.9045972303031,-4.38547328830428,51.47503531074714,-3.1719622835054033,4.592779959670204
Dublin Ferryport,DFP,1.0,nan,nan,51.47503531074714,-3.1719622835054033,nan
Dublin Port - Stena,DPS,1.0,nan,nan,51.47503531074714,-3.1719622835054033,nan
Duddeston,DUD,1.0,52.4883642047734,-1.87139067866748,51.47503531074714,-3.1719622835054033,1.6487334371508247
Dudley Port,DDP,1.0,52.5246530129006,-2.04947980373852,51.47503531074714,-3.1719622835054033,1.536770717464881
Duffield,DFI,1.0,52.9884014400862,-1.48597186949023,51.47503531074714,-3.1719622835054033,2.265577347516908
Duirinish,DRN,2.0,57.319983293958,-5.69131781581449,51.47503531074714,-3.1719622835054033,6.364791373220112
Duke Street,DST,2.0,55.8584414373244,-4.2130485563449,51.47503531074714,-3.1719622835054033,4.505342373006731
Dullingham,DUL,2.0,52.2016485756332,0.366663821056869,51.47503531074714,-3.1719622835054033,3.6124564418962817
Dumbarton Central,DBC,2.0,55.9466604798905,-4.566921701259,51.47503531074714,-3.1719622835054033,4.684158775115957
Dumbarton East,DBE,2.0,55.9422524714118,-4.55413782204535,51.47503531074714,-3.1719622835054033,4.676156368201882
Dumbreck,DUM,2.0,55.8446540909046,-4.30124003607443,51.47503531074714,-3.1719622835054033,4.513184743210953
Dumfries,DMF,2.0,55.072560279693,-3.60430398071058,51.47503531074714,-3.1719622835054033,3.6234107199338
Dumpton Park,DMP,2.0,51.3456955683759,1.42581850787212,51.47503531074714,-3.1719622835054033,4.5995996537217
Dunbar,DUN,1.0,55.9982961094783,-2.51334649990357,51.47503531074714,-3.1719622835054033,4.570958652596575
Dunblane,DBL,1.0,56.1858943626205,-3.96548684337943,51.47503531074714,-3.1719622835054033,4.777224532481227
Duncraig,DCG,2.0,57.3370088020812,-5.63713233286221,51.47503531074714,-3.1719622835054033,6.359229244597893
Dundee,DEE,1.0,56.4564890772048,-2.97120503713119,51.47503531074714,-3.1719622835054033,4.985497477617152
Dunfermline Queen Margaret,DFL,2.0,56.0805782860466,-3.42146840922136,51.47503531074714,-3.1719622835054033,4.612296543382703
Dunfermline Town,DFE,2.0,56.068193893139,-3.45252931740364,51.47503531074714,-3.1719622835054033,4.601719637647478
Dunkeld & Birnam,DKD,2.0,56.5570605801315,-3.57839962708896,51.47503531074714,-3.1719622835054033,5.098251872251942
Dunlop,DNL,2.0,55.7118854515322,-4.53238991249355,51.47503531074714,-3.1719622835054033,4.4499058921717305
Dunrobin Castle,DNO,-999.0,57.9855381206844,-3.94892170714185,51.47503531074714,-3.1719622835054033,6.556699839414528
Dunston,DOT,2.0,54.9500563207881,-1.64204458851339,51.47503531074714,-3.1719622835054033,3.7968959919486576
Dunton Green,DNG,2.0,51.2964882631909,0.170937116397448,51.47503531074714,-3.1719622835054033,3.3476641776112928
Durham,DHM,1.0,54.7793912284615,-1.58175210120156,51.47503531074714,-3.1719622835054033,3.6670882802077096
Durrington-on-Sea,DUR,1.0,50.8175268119417,-0.411468707281776,51.47503531074714,-3.1719622835054033,2.837717782016615
Dyce,DYC,2.0,57.2056516865783,-2.19232258891137,51.47503531074714,-3.1719622835054033,5.813747326653315
Dyffryn Ardudwy,DYF,1.0,52.7888563835265,-4.10464455585967,51.47503531074714,-3.1719622835054033,1.6112175621073126
Eaglescliffe,EAG,2.0,54.5294320938467,-1.34943715428009,51.47503531074714,-3.1719622835054033,3.5568156481980764
Ealing Broadway,EAL,1.0,51.5148402459065,-0.301751768794788,51.47503531074714,-3.1719622835054033,2.870486514794733
Earlestown,ERL,1.0,53.4511393445328,-2.63766364961555,51.47503531074714,-3.1719622835054033,2.047061841401114
Earley,EAR,1.0,51.4410997593376,-0.917988243278776,51.47503531074714,-3.1719622835054033,2.254229490461212
Earlsfield,EAD,2.0,51.4423355716453,-0.187714934858848,51.47503531074714,-3.1719622835054033,2.984426496136456
Earlswood (Surrey),ELD,2.0,51.2273270225923,-0.170823068766138,51.47503531074714,-3.1719622835054033,3.0113445472523424
Earlswood (West Midlands),EWD,2.0,52.3665825052423,-1.8611697000963,51.47503531074714,-3.1719622835054033,1.5852550573117574
East Croydon,ECR,2.0,51.375452247008,-0.0927797007945513,51.47503531074714,-3.1719622835054033,3.080792457185902
East Didsbury,EDY,1.0,53.4093102676041,-2.22199660364924,51.47503531074714,-3.1719622835054033,2.1549604176477533
East Dulwich,EDW,2.0,51.4614929058056,-0.0805717011574361,51.47503531074714,-3.1719622835054033,3.091420244703283
East Farleigh,EFL,2.0,51.2552351625774,0.48472893141574,51.47503531074714,-3.1719622835054033,3.663291245098717
East Garforth,EGF,2.0,53.791978068865,-1.37053696173991,51.47503531074714,-3.1719622835054033,2.9348521145524034
East Grinstead,EGR,2.0,51.1262718897162,-0.0179000957224751,51.47503531074714,-3.1719622835054033,3.1732860268578427
East Kilbride,EKL,2.0,55.7660084213155,-4.18022795719083,51.47503531074714,-3.1719622835054033,4.407839596032622
East Malling,EML,2.0,51.2858073765709,0.439280267235468,51.47503531074714,-3.1719622835054033,3.6161968933333872
East Midlands Parkway,EMD,1.0,52.8625009507858,-1.26323198480542,51.47503531074714,-3.1719622835054033,2.359727156995745
East Tilbury,ETL,2.0,51.4848289691417,0.412927781783206,51.47503531074714,-3.1719622835054033,3.5849034430441384
East Worthing,EWR,1.0,50.8216440311297,-0.354893751833792,51.47503531074714,-3.1719622835054033,2.891849801842164
Eastbourne,EBN,2.0,50.769375796356,0.281246925814933,51.47503531074714,-3.1719622835054033,3.5245722000812405
Eastbrook,EBK,0.0,51.4376389302109,-3.20613799233607,51.47503531074714,-3.1719622835054033,0.05066032324501623
Easterhouse,EST,2.0,55.8597611434519,-4.10717729312099,51.47503531074714,-3.1719622835054033,4.483352288433146
Eastham Rake,ERA,1.0,53.307541541813,-2.98113292052366,51.47503531074714,-3.1719622835054033,1.8424155157486148
Eastleigh,ESL,1.0,50.9692506626551,-1.35008459359062,51.47503531074714,-3.1719622835054033,1.8907819618493336
Eastrington,EGN,2.0,53.7551607566439,-0.787630411364113,51.47503531074714,-3.1719622835054033,3.2990923790543834
Ebbsfleet International,EBD,2.0,51.4429709652907,0.32092083234529,51.47503531074714,-3.1719622835054033,3.4930302866199714
Ebbw Vale Parkway,EBV,0.0,51.7571470124788,-3.19610327359543,51.47503531074714,-3.1719622835054033,0.2831427195893597
Ebbw Vale Town,EBB,0.0,51.7766914366017,-3.20257748551815,51.47503531074714,-3.1719622835054033,0.30320572036138366
Eccles (Manchester),ECC,1.0,53.4853606544673,-2.33451459617625,51.47503531074714,-3.1719622835054033,2.1777802039270475
Eccles Road,ECS,2.0,52.470880756208,0.9699171605498,51.47503531074714,-3.1719622835054033,4.2599147268850555
Eccleston Park,ECL,2.0,53.4307889509427,-2.78004194630839,51.47503531074714,-3.1719622835054033,1.9946362705633338
Edale,EDL,1.0,53.3649724276593,-1.81662641323107,51.47503531074714,-3.1719622835054033,2.325682185324244
Eden Park,EDN,2.0,51.3900893651293,-0.0263551602667185,51.47503531074714,-3.1719622835054033,3.146753880977485
Edenbridge,EBR,2.0,51.2084338014699,0.0606462610283875,51.47503531074714,-3.1719622835054033,3.243583568669347
Edenbridge Town,EBT,2.0,51.2000809020151,0.0671730164326339,51.47503531074714,-3.1719622835054033,3.250784123590163
Edge Hill,EDG,2.0,53.4026192646978,-2.94648344109004,51.47503531074714,-3.1719622835054033,1.940726824647155
Edinburgh,EDB,1.0,55.9523963079519,-3.18822824323027,51.47503531074714,-3.1719622835054033,4.477390543691291
Edinburgh Gateway,EGY,2.0,55.9409436079933,-3.32025199802754,51.47503531074714,-3.1719622835054033,4.468369586196418
Edinburgh Park,EDP,2.0,55.9275544602882,-3.30766474611863,51.47503531074714,-3.1719622835054033,4.454586617789483
Edmonton Green,EDR,2.0,51.6249271577681,-0.061112495341183,51.47503531074714,-3.1719622835054033,3.1144588567397595
Effingham Junction,EFF,2.0,51.2914943131304,-0.419965418267021,51.47503531074714,-3.1719622835054033,2.758110593157575
Eggesford,EGG,1.0,50.8877413451847,-3.8747459315936,51.47503531074714,-3.1719622835054033,0.9158706557184852
Egham,EGH,1.0,51.4296459643391,-0.546512233572854,51.47503531074714,-3.1719622835054033,2.6258423710227117
Egton,EGT,2.0,54.4374810712663,-0.761464966771902,51.47503531074714,-3.1719622835054033,3.8192384316768373
Elephant & Castle,EPH,1.0,51.4940272342536,-0.098725576447673,51.47503531074714,-3.1719622835054033,3.07329538944201
Elephant & Castle (Underground),ZEL,-999.0,nan,nan,51.47503531074714,-3.1719622835054033,nan
Elgin,ELG,2.0,57.6429130327793,-3.3112465068439,51.47503531074714,-3.1719622835054033,6.1694501933974335
Ellesmere Port,ELP,2.0,53.2821939982944,-2.89642303912049,51.47503531074714,-3.1719622835054033,1.8280438717858392
Elmers End,ELE,2.0,51.3984907228231,-0.0495703490218307,51.47503531074714,-3.1719622835054033,3.1233300284261554
Elmstead Woods,ESD,2.0,51.4171158227735,0.0442740591944571,51.47503531074714,-3.1719622835054033,3.216757821035103
Elmswell,ESW,2.0,52.2380370806758,0.912589403049404,51.47503531074714,-3.1719622835054033,4.15520567253319
Elsecar,ELR,2.0,53.4986597288227,-1.42742391502071,51.47503531074714,-3.1719622835054033,2.6717915159208996
Elsenham (Essex),ESM,2.0,51.9205434621908,0.228070270071964,51.47503531074714,-3.1719622835054033,3.4290959272654624
Elstree & Borehamwood,ELS,2.0,51.653068116385,-0.280081540392811,51.47503531074714,-3.1719622835054033,2.8973556758307613
Eltham,ELW,2.0,51.4556417308034,0.0524723310748576,51.47503531074714,-3.1719622835054033,3.224492936051557
Elton & Orston,ELO,1.0,52.9521360042829,-0.855512437952713,51.47503531074714,-3.1719622835054033,2.7473198477434164
Ely,ELY,1.0,52.3912277010784,0.266827583237292,51.47503531074714,-3.1719622835054033,3.5587475667309074
Emerson Park,EMP,2.0,51.5686403621106,0.220113229215512,51.47503531074714,-3.1719622835054033,3.393366792676798
Emsworth,EMS,1.0,50.8516141341351,-0.938429764103964,51.47503531074714,-3.1719622835054033,2.318905232792423
Energlyn & Churchill Park,ECP,0.0,51.5832164323409,-3.22879606589368,51.47503531074714,-3.1719622835054033,0.1222016116499356
Enfield Chase,ENC,2.0,51.6532525338014,-0.0906963712828411,51.47503531074714,-3.1719622835054033,3.0864155586080613
Enfield Lock,ENL,2.0,51.6709204354558,-0.0285324658222715,51.47503531074714,-3.1719622835054033,3.1495272662387817
Enfield Town,ENF,2.0,51.6520239893496,-0.0793276428368423,51.47503531074714,-3.1719622835054033,3.097694951575543
Entwistle,ENT,2.0,53.6559786935683,-2.41454505509583,51.47503531074714,-3.1719622835054033,2.308721485360037
Epsom (Surrey),EPS,2.0,51.3343914612577,-0.268777680483958,51.47503531074714,-3.1719622835054033,2.906589329716187
Epsom Downs,EPD,2.0,51.3236861855796,-0.2389548499911,51.47503531074714,-3.1719622835054033,2.9369097981959102
Erdington,ERD,1.0,52.5282854859969,-1.83950909009634,51.47503531074714,-3.1719622835054033,1.6984603157829952
Eridge,ERI,2.0,51.0889635853662,0.201431713057724,51.47503531074714,-3.1719622835054033,3.3954143242300727
Erith,ERH,2.0,51.481668933412,0.175054448859463,51.47503531074714,-3.1719622835054033,3.3470233061154575
Esher,ESH,2.0,51.3798899750361,-0.353337838372063,51.47503531074714,-3.1719622835054033,2.8202298483653414
Eskbank,EKB,2.0,55.8818057426337,-3.08307353739981,51.47503531074714,-3.1719622835054033,4.407666825944755
Essex Road,EXR,2.0,51.5407037990573,-0.0962760595924929,51.47503531074714,-3.1719622835054033,3.076387182772123
Etchingham,ETC,2.0,51.0105437070136,0.442356266553348,51.47503531074714,-3.1719622835054033,3.6440432257641713
Euxton Balshaw Lane,EBA,2.0,53.6604819715387,-2.67202385840804,51.47503531074714,-3.1719622835054033,2.2418999835081457
Evesham,EVE,1.0,52.0983985539654,-1.94731370609441,51.47503531074714,-3.1719622835054033,1.3741709759525425
Ewell East,EWE,2.0,51.3452982319215,-0.241529638967969,51.47503531074714,-3.1719622835054033,2.9333031199984894
Ewell West,EWW,2.0,51.3500435722978,-0.256986619886036,51.47503531074714,-3.1719622835054033,2.917654204009406
Exeter Central,EXC,0.0,50.726488241429,-3.53327709081269,51.47503531074714,-3.1719622835054033,0.8311865644753115
Exeter St David's,EXD,0.0,50.729278976491,-3.54328686333265,51.47503531074714,-3.1719622835054033,0.8330873025481966
Exeter St Thomas,EXT,1.0,50.7171518711947,-3.53883698274128,51.47503531074714,-3.1719622835054033,0.8420120859508176
Exhibition Centre (Glasgow),EXG,2.0,55.8615560763509,-4.28358973053668,51.47503531074714,-3.1719622835054033,4.525182870124288
Exmouth,EXM,2.0,50.6216387262065,-3.41497227480739,51.47503531074714,-3.1719622835054033,0.8873215800250894
Exton,EXN,2.0,50.6683075102992,-3.44409684947275,51.47503531074714,-3.1719622835054033,0.8513911944633934
Eynsford,EYN,2.0,51.3627183040984,0.204393120925889,51.47503531074714,-3.1719622835054033,3.3782230428162863
Fairbourne,FRB,1.0,52.6960464630273,-4.04941426648684,51.47503531074714,-3.1719622835054033,1.503592436942467
Fairfield,FRF,1.0,53.471295546374,-2.14577519882972,51.47503531074714,-3.1719622835054033,2.2445745389940157
Fairlie,FRL,2.0,55.7519484298977,-4.85326868616408,51.47503531074714,-3.1719622835054033,4.5955170599599855
Fairwater,FRW,0.0,51.4939101690858,-3.23383998994953,51.47503531074714,-3.1719622835054033,0.0646924325720567
Falconwood,FCN,2.0,51.4591526356848,0.0793044770026859,51.47503531074714,-3.1719622835054033,3.251305554289215
Falkirk Grahamston,FKG,1.0,56.0026177290346,-3.78504688532692,51.47503531074714,-3.1719622835054033,4.568903072223831
Falkirk High,FKK,2.0,55.9918195759738,-3.79224489222847,51.47503531074714,-3.1719622835054033,4.5591765279799645
Falls of Cruachan,FOC,-999.0,56.393889401057,-5.11247911920548,51.47503531074714,-3.1719622835054033,5.287790762822742
Falmer,FMR,2.0,50.8621274713423,-0.0873855066246158,51.47503531074714,-3.1719622835054033,3.144879951933965
Falmouth Docks,FAL,2.0,50.1507142799667,-5.05602948101336,51.47503531074714,-3.1719622835054033,2.302940597864576
Falmouth Town,FMT,2.0,50.1483473407862,-5.06493628645553,51.47503531074714,-3.1719622835054033,2.311590695924366
Fareham,FRM,0.0,50.8530338308312,-1.19203724188042,51.47503531074714,-3.1719622835054033,2.0753286514360343
Farnborough (Main),FNB,2.0,51.296604884603,-0.755725724931643,51.47503531074714,-3.1719622835054033,2.422815825431712
Farnborough North,FNN,1.0,51.3020444491095,-0.743026929007782,51.47503531074714,-3.1719622835054033,2.4350878412366606
Farncombe,FNC,2.0,51.1971531239671,-0.604548878459314,51.47503531074714,-3.1719622835054033,2.582407810966349
Farnham,FNH,2.0,51.2119042298562,-0.792427196436538,51.47503531074714,-3.1719622835054033,2.3940395143611695
Farningham Road,FNR,2.0,51.4016634815392,0.235452055986937,51.47503531074714,-3.1719622835054033,3.4082042054870096
Farnworth,FNW,2.0,53.5500060922431,-2.38784997242115,51.47503531074714,-3.1719622835054033,2.2181830087835084
Farringdon,ZFD,1.0,51.5201655608346,-0.105204669877814,51.47503531074714,-3.1719622835054033,3.0670896628914748
Fauldhouse,FLD,2.0,55.8224777300448,-3.71931936502271,51.47503531074714,-3.1719622835054033,4.381763955736989
Faversham,FAV,2.0,51.3117105445912,0.891044848807162,51.47503531074714,-3.1719622835054033,4.066288471869976
Faygate,FGT,2.0,51.095889351236,-0.263018670595782,51.47503531074714,-3.1719622835054033,2.933548125001753
Fazakerley,FAZ,2.0,53.4690878780859,-2.93672370069026,51.47503531074714,-3.1719622835054033,2.0078801837149514
Fearn,FRN,2.0,57.7781470089061,-3.99393654949616,51.47503531074714,-3.1719622835054033,6.356481634789755
Featherstone,FEA,2.0,53.6790669195959,-1.35844424440448,51.47503531074714,-3.1719622835054033,2.854225466032581
Felixstowe,FLX,2.0,51.9670684291527,1.35043499148186,51.47503531074714,-3.1719622835054033,4.54908493022719
Feltham,FEL,1.0,51.4478973442697,-0.409838240699482,51.47503531074714,-3.1719622835054033,2.7622573553293432
Feniton,FNT,1.0,50.7866805768598,-3.28541829669429,51.47503531074714,-3.1719622835054033,0.697642104946242
Fenny Stratford,FEN,2.0,52.0000683454646,-0.715997362186537,51.47503531074714,-3.1719622835054033,2.5114584173928525
Fernhill,FER,0.0,51.6864988102667,-3.39588328122109,51.47503531074714,-3.1719622835054033,0.3079893258654389
Ferriby,FRY,2.0,53.7171537976793,-0.507830473428837,51.47503531074714,-3.1719622835054033,3.482053074107977
Ferryside,FYS,0.0,51.7683725332786,-4.36945917743674,51.47503531074714,-3.1719622835054033,1.2329012681872267
Ffairfach,FFA,0.0,51.8724792728464,-3.9928602757854,51.47503531074714,-3.1719622835054033,0.9120500078057604
Filey,FIL,2.0,54.2098572113142,-0.293849397915568,51.47503531074714,-3.1719622835054033,3.970237349330578
Filton Abbey Wood,FIT,0.0,51.5049414768014,-2.56243092363725,51.47503531074714,-3.1719622835054033,0.6102645798592489
Finchley Road & Frognal,FNY,2.0,51.5502644624917,-0.183140600658463,51.47503531074714,-3.1719622835054033,2.9897682982345346
Finsbury Park,FPK,2.0,51.5643002449157,-0.106284978884699,51.47503531074714,-3.1719622835054033,3.0669766162360257
Finstock,FIN,1.0,51.852782857678,-1.4693431033147,51.47503531074714,-3.1719622835054033,1.7440198628357266
Fishbourne (Sussex),FSB,1.0,50.839050994238,-0.815084252072113,51.47503531074714,-3.1719622835054033,2.441178016019818
Fishersgate,FSG,1.0,50.8342331969519,-0.219423238635621,51.47503531074714,-3.1719622835054033,3.0212769089451257
Fishguard & Goodwick,FGW,0.0,52.0041205147366,-4.99483911549407,51.47503531074714,-3.1719622835054033,1.898107240827453
Fishguard Harbour,FGH,0.0,52.0115490590944,-4.98564336378428,51.47503531074714,-3.1719622835054033,1.8913714767668406
Fiskerton,FSK,1.0,53.060273739149,-0.912187610219373,51.47503531074714,-3.1719622835054033,2.760355493212238
Fitzwilliam,FZW,2.0,53.6325012276325,-1.37427316573517,51.47503531074714,-3.1719622835054033,2.8082637601677525
Five Ways,FWY,1.0,52.471096381369,-1.91295451976274,51.47503531074714,-3.1719622835054033,1.6053779011723919
Fleet,FLE,2.0,51.290634463196,-0.830805697283605,51.47503531074714,-3.1719622835054033,2.3484075101624255
Flimby,FLM,2.0,54.6896909968798,-3.5207407041013,51.47503531074714,-3.1719622835054033,3.2335209241720397
Flint,FLN,0.0,53.249527518706,-3.13299365746619,51.47503531074714,-3.1719622835054033,1.7749200404305856
Flitwick,FLT,2.0,52.0036411879386,-0.495257873996204,51.47503531074714,-3.1719622835054033,2.7284007530579784
Flixton,FLI,2.0,53.443809978016,-2.38424675876937,51.47503531074714,-3.1719622835054033,2.1205115982681577
Flowery Field,FLF,1.0,53.4618562073799,-2.08105317397333,51.47503531074714,-3.1719622835054033,2.266614206378466
