Name,Code,Changes,lat,lon,terminal lat,terminal lon,linear distance
Abbey Wood,ABW,2.0,51.4910605627019,0.121394025366647,55.94910381337705,-3.203339129953465,5.561294829351804
Aber,ABE,2.0,51.5749691125956,-3.22982905106563,55.94910381337705,-3.203339129953465,4.374214912015747
Abercynon,ACY,2.0,51.6447124034837,-3.32698855170195,55.94910381337705,-3.203339129953465,4.306167041472309
Aberdare,ABA,2.0,51.7150618291708,-3.44308409477462,55.94910381337705,-3.203339129953465,4.2408241147421215
Aberdeen,ABD,0.0,57.1437058328662,-2.09868538622245,55.94910381337705,-3.203339129953465,1.627062960830499
Aberdour,AUR,0.0,56.0545955695197,-3.30056061487314,55.94910381337705,-3.203339129953465,0.14345915008826185
Aberdovey,AVY,1.0,52.5439615025967,-4.05706796158074,55.94910381337705,-3.203339129953465,3.5105337307335764
Abererch,ABH,1.0,52.8985884658899,-4.37417647351973,55.94910381337705,-3.203339129953465,3.267492000042839
Abergavenny,AGV,1.0,51.8166930409601,-3.00964730040687,55.94910381337705,-3.203339129953465,4.136947584490381
Abergele & Pensarn,AGL,1.0,53.2945771647609,-3.58262268840784,55.94910381337705,-3.203339129953465,2.6814861077259176
Aberystwyth,AYW,1.0,52.4140498933205,-4.08189442746786,55.94910381337705,-3.203339129953465,3.642590510680246
Accrington,ACR,1.0,53.7529733751372,-2.36954810226505,55.94910381337705,-3.203339129953465,2.3490841576276593
Achanalt,AAT,1.0,57.6096018732679,-4.91385256332031,55.94910381337705,-3.203339129953465,2.383927434430357
Achnasheen,ACN,1.0,57.5792959197415,-5.07233352893289,55.94910381337705,-3.203339129953465,2.480053702456746
Achnashellach,ACH,1.0,57.4820809030767,-5.33305678830677,55.94910381337705,-3.203339129953465,2.624064797569963
Acklington,ACK,1.0,55.3070993237817,-1.65183479633575,55.94910381337705,-3.203339129953465,1.6790876873752416
Acle,ACL,2.0,52.6346777628319,1.54391497575916,55.94910381337705,-3.203339129953465,5.7898049698360055
Acocks Green,ACG,2.0,52.4493240670217,-1.81897562150643,55.94910381337705,-3.203339129953465,3.7636313045407235
Acton Bridge (Cheshire),ACB,1.0,53.2665097605329,-2.60312690733168,55.94910381337705,-3.203339129953465,2.7489207999757648
Acton Central,ACC,2.0,51.5087150057177,-0.262970693276422,55.94910381337705,-3.203339129953465,5.325675478903409
Acton Main Line,AML,2.0,51.5171788796431,-0.266756440210259,55.94910381337705,-3.203339129953465,5.316528614796702
Adderley Park,ADD,1.0,52.4830872932844,-1.85594463679675,55.94910381337705,-3.203339129953465,3.7187017140050656
Addiewell,ADW,0.0,55.8434130805542,-3.60652712168835,55.94910381337705,-3.203339129953465,0.4168106136890479
Addlestone,ASN,2.0,51.3730447500684,-0.48445679693337,55.94910381337705,-3.203339129953465,5.322841129669193
Adisham,ADM,2.0,51.2411978022143,1.19908904695378,55.94910381337705,-3.203339129953465,6.44559949599486
Adlington (Cheshire),ADC,1.0,53.3195557900317,-2.13356274381038,55.94910381337705,-3.203339129953465,2.838827984121052
Adlington (Lancs),ADL,1.0,53.6132468473224,-2.6030711963325,55.94910381337705,-3.203339129953465,2.411752341763062
Adwick,AWK,1.0,53.5723210050351,-1.180356329611,55.94910381337705,-3.203339129953465,3.1211465727375396
Aigburth,AIG,2.0,53.3645680055959,-2.92715540113816,55.94910381337705,-3.203339129953465,2.5992504292132557
Ainsdale,ANS,2.0,53.6020355257546,-3.04265252059266,55.94910381337705,-3.203339129953465,2.3525623760467744
Aintree,AIN,2.0,53.4739127558616,-2.95628079876913,55.94910381337705,-3.203339129953465,2.4874904201246792
Airbles,AIR,1.0,55.7828378389089,-3.99419330717581,55.94910381337705,-3.203339129953465,0.8081427497019796
Airdrie,ADR,0.0,55.8639835131324,-3.98291292517007,55.94910381337705,-3.203339129953465,0.7842070949067983
Albany Park,AYP,2.0,51.4354507399114,0.12573706592842,55.94910381337705,-3.203339129953465,5.608548153095709
Albrighton,ALB,1.0,52.6379442676754,-2.26890024505565,55.94910381337705,-3.203339129953465,3.4404874024911387
Alderley Edge,ALD,1.0,53.3037821045932,-2.23679936267512,55.94910381337705,-3.203339129953465,2.816367530116332
Aldermaston,AMT,1.0,51.4019618556841,-1.1374239270022,55.94910381337705,-3.203339129953465,4.994447477869484
Aldershot,AHT,2.0,51.2464179114788,-0.759859888333875,55.94910381337705,-3.203339129953465,5.299608051180615
Aldrington,AGT,2.0,50.8363824121951,-0.183821512855377,55.94910381337705,-3.203339129953465,5.937794772983455
Alexandra Palace,AAP,1.0,51.5979224924556,-0.120235220128854,55.94910381337705,-3.203339129953465,5.33275806748361
Alexandra Parade,AXP,1.0,55.8631759802332,-4.21064896878422,55.94910381337705,-3.203339129953465,1.0109682012378225
Alexandria,ALX,1.0,55.9850887680667,-4.57748537031666,55.94910381337705,-3.203339129953465,1.3746173310664755
Alfreton,ALF,1.0,53.1004322999438,-1.36969621564025,55.94910381337705,-3.203339129953465,3.387798064917264
Allens West,ALW,1.0,54.5246233650745,-1.36111683481751,55.94910381337705,-3.203339129953465,2.3287180018826303
Alloa,ALO,0.0,56.1177936041036,-3.79005640302655,55.94910381337705,-3.203339129953465,0.6104862029707837
Alness,ASS,1.0,57.6943991747966,-4.24971726526612,55.94910381337705,-3.203339129953465,2.0349356502486726
Alnmouth,ALM,0.0,55.3927786386397,-1.63663783937358,55.94910381337705,-3.203339129953465,1.6625434231776393
Alresford (Essex),ALR,2.0,51.8539974379073,0.997436403040026,55.94910381337705,-3.203339129953465,5.86655020476342
Alsager,ASG,1.0,53.0930054110113,-2.29905784069112,55.94910381337705,-3.203339129953465,2.995834230077855
Althorne (Essex),ALN,2.0,51.6478675266105,0.75248341471277,55.94910381337705,-3.203339129953465,5.843728741093907
Althorpe,ALP,1.0,53.5855003548442,-0.733182290833722,55.94910381337705,-3.203339129953465,3.418815016791416
Altnabreac,ABC,1.0,58.3881525009701,-3.7062809681672,55.94910381337705,-3.203339129953465,2.490363225129056
Alton,AON,2.0,51.1519686627366,-0.966913302570746,55.94910381337705,-3.203339129953465,5.292835358755707
Altrincham,ALT,1.0,53.3877187203289,-2.34688910433965,55.94910381337705,-3.203339129953465,2.7007777104499353
Alvechurch,ALV,1.0,52.3460721156993,-1.96766073187852,55.94910381337705,-3.203339129953465,3.809033803727616
Ambergate,AMB,1.0,53.0605170840145,-1.48069758186533,55.94910381337705,-3.203339129953465,3.3632465262375466
Amberley,AMY,2.0,50.8966791881016,-0.541992407726222,55.94910381337705,-3.203339129953465,5.710495685139729
Amersham,AMR,2.0,51.6742050968552,-0.607596139216709,55.94910381337705,-3.203339129953465,5.001263911300741
Ammanford,AMF,1.0,51.7959795450084,-3.99673575596767,55.94910381337705,-3.203339129953465,4.228228872079107
Ancaster,ANC,1.0,52.9876865844111,-0.535623734022494,55.94910381337705,-3.203339129953465,3.985812017356501
Anderston,AND,1.0,55.8599021238713,-4.27098003165416,55.94910381337705,-3.203339129953465,1.0713608338906893
Andover,ADV,2.0,51.2115476149434,-1.49223307188506,55.94910381337705,-3.203339129953465,5.037094666102227
Anerley,ANZ,2.0,51.4121513855632,-0.0658859220340606,55.94910381337705,-3.203339129953465,5.516117290642917
Angel Road,AGR,2.0,51.61240330726,-0.0487914234374522,55.94910381337705,-3.203339129953465,5.36266188682834
Angmering,ANG,2.0,50.8165743892467,-0.489394019247872,55.94910381337705,-3.203339129953465,5.8058897985999165
Annan,ANN,1.0,54.9838388790739,-3.2625810423293,55.94910381337705,-3.203339129953465,0.9670811742440292
Anniesland,ANL,0.0,55.8893555064876,-4.32195784208586,55.94910381337705,-3.203339129953465,1.120213231179178
Ansdell & Fairhaven,AFV,1.0,53.7414654744213,-2.99303444657805,55.94910381337705,-3.203339129953465,2.2176327683989863
Apperley Bridge,APY,1.0,53.8417501065548,-1.70582867126391,55.94910381337705,-3.203339129953465,2.5852421974627617
Appleby,APP,1.0,54.5803488158896,-2.48669258391647,55.94910381337705,-3.203339129953465,1.5450153769764312
Appledore (Kent),APD,2.0,51.0332342031393,0.816341504124954,55.94910381337705,-3.203339129953465,6.350087119468844
Appleford,APF,1.0,51.6396415502262,-1.24214153179695,55.94910381337705,-3.203339129953465,4.734739804523171
Appley Bridge,APB,2.0,53.5786734960166,-2.71925251339081,55.94910381337705,-3.203339129953465,2.4193552326594476
Apsley,APS,1.0,51.7325208234117,-0.462934812195194,55.94910381337705,-3.203339129953465,5.028855529447364
Arbroath,ARB,0.0,56.5595762979872,-2.58893177406225,55.94910381337705,-3.203339129953465,0.8661253104714831
Ardgay,ARD,1.0,57.8814576101148,-4.36209023833324,55.94910381337705,-3.203339129953465,2.253152308863774
Ardlui,AUI,1.0,56.3019723653141,-4.72165858161935,55.94910381337705,-3.203339129953465,1.5587848383446457
Ardrossan Harbour,ADS,1.0,55.6398782290401,-4.82111163323781,55.94910381337705,-3.203339129953465,1.6470605132755214
Ardrossan South Beach,ASB,1.0,55.641422142645,-4.80121264089138,55.94910381337705,-3.203339129953465,1.6272270178009964
Ardrossan Town,ADN,1.0,55.6397124556587,-4.81267645169651,55.94910381337705,-3.203339129953465,1.638807379586106
Ardwick,ADK,1.0,53.471345820655,-2.21388417456067,55.94910381337705,-3.203339129953465,2.6680153259022608
Argyle Street,AGS,1.0,55.8573090626122,-4.25069486323156,55.94910381337705,-3.203339129953465,1.0513706807299112
Arisaig,ARG,1.0,56.9125537431151,-5.83907949880085,55.94910381337705,-3.203339129953465,2.8063077270826873
Arlesey,ARL,1.0,52.0260300130868,-0.266319838272065,55.94910381337705,-3.203339129953465,4.900672439801753
Armadale (West Lothian),ARM,0.0,55.8857140292087,-3.69541334262219,55.94910381337705,-3.203339129953465,0.49614039899050316
Armathwaite,AWT,1.0,54.8094679848183,-2.77207147292765,55.94910381337705,-3.203339129953465,1.2185079456988905
Arnside,ARN,1.0,54.2027315043991,-2.82824189170434,55.94910381337705,-3.203339129953465,1.7862010468329452
Arram,ARR,1.0,53.8843427696163,-0.426570132093475,55.94910381337705,-3.203339129953465,3.46030117696543
Arrochar & Tarbet,ART,1.0,56.2039766194239,-4.72277124702392,55.94910381337705,-3.203339129953465,1.5406602823618838
Arundel,ARU,2.0,50.84821399905,-0.546174298416944,55.94910381337705,-3.203339129953465,5.751486924253582
Ascot (Berks),ACT,1.0,51.406243053303,-0.675833255037063,55.94910381337705,-3.203339129953465,5.198641152566457
Ascott-under-Wychwood,AUW,1.0,51.8673416456497,-1.56405280921503,55.94910381337705,-3.203339129953465,4.39864093047505
Ash,ASH,1.0,51.2495967734882,-0.712805474371656,55.94910381337705,-3.203339129953465,5.3186581303511655
Ash Vale,AHV,2.0,51.2722464128127,-0.72164859629209,55.94910381337705,-3.203339129953465,5.294504986311565
Ashburys,ABY,1.0,53.471639721401,-2.19443661452133,55.94910381337705,-3.203339129953465,2.675016376150998
Ashchurch for Tewkesbury,ASC,1.0,51.9989057939667,-2.10876020926952,55.94910381337705,-3.203339129953465,4.0990446943353875
Ashfield,ASF,1.0,55.8889269328418,-4.24921509407071,55.94910381337705,-3.203339129953465,1.0476057413307405
Ashford (Surrey),AFS,2.0,51.4365062586203,-0.468070995385795,55.94910381337705,-3.203339129953465,5.276857820633214
Ashford International,AFK,2.0,51.1437026741936,0.876197214386404,55.94910381337705,-3.203339129953465,6.3035305102185015
Ashford International (Eurostar),ASI,-999.0,nan,nan,55.94910381337705,-3.203339129953465,nan
Ashley,ASY,1.0,53.3557258053839,-2.34146074338483,55.94910381337705,-3.203339129953465,2.7328453753508786
Ashtead,AHD,2.0,51.317872587997,-0.307571763628547,55.94910381337705,-3.203339129953465,5.4620299617273735
Ashton-under-Lyne,AHN,1.0,53.4912746360398,-2.09431253377749,55.94910381337705,-3.203339129953465,2.6964540151829004
Ashurst (Kent),AHS,2.0,51.1286608253579,0.152652111896866,55.94910381337705,-3.203339129953465,5.873614544394204
Ashurst New Forest,ANF,1.0,50.8898511647037,-1.52663085660955,55.94910381337705,-3.203339129953465,5.329858159182873
Ashwell & Morden,AWM,1.0,52.0307706434447,-0.109788918120069,55.94910381337705,-3.203339129953465,4.992332895924166
Askam,ASK,1.0,54.1889331625586,-3.20451175494515,55.94910381337705,-3.203339129953465,1.7601710414195617
Aslockton,ALK,1.0,52.9515495737311,-0.898097621841918,55.94910381337705,-3.203339129953465,3.781463979775533
Aspatria,ASP,1.0,54.7589599137074,-3.33187421074512,55.94910381337705,-3.203339129953465,1.1970646469238821
Aspley Guise,APG,2.0,52.0212361960308,-0.632334507265971,55.94910381337705,-3.203339129953465,4.6944870634903
Aston,AST,1.0,52.5042320347358,-1.8719337575538,55.94910381337705,-3.203339129953465,3.693207526924749
Atherstone,ATH,1.0,52.5789720633612,-1.55281147568713,55.94910381337705,-3.203339129953465,3.7526030365551364
Atherton,ATN,2.0,53.5291462480773,-2.47897234425216,55.94910381337705,-3.203339129953465,2.5260447062707976
Attadale,ATT,1.0,57.3950433711996,-5.4555786528295,55.94910381337705,-3.203339129953465,2.6764386922328214
Attenborough,ATB,1.0,52.9062133028873,-1.23141560765685,55.94910381337705,-3.203339129953465,3.625970909510341
Attleborough,ATL,1.0,52.5145445883409,1.02234755537498,55.94910381337705,-3.203339129953465,5.445422392509423
Auchinleck,AUK,1.0,55.4702784722357,-4.29535018687193,55.94910381337705,-3.203339129953465,1.1923765578672352
Audley End,AUD,1.0,52.0044405435161,0.207160027997398,55.94910381337705,-3.203339129953465,5.214582708038454
Aughton Park,AUG,2.0,53.5542504500956,-2.89522128047861,55.94910381337705,-3.203339129953465,2.4145929762147236
Aviemore,AVM,0.0,57.1885162452285,-3.82886797624022,55.94910381337705,-3.203339129953465,1.3883189524618471
Avoncliff,AVF,2.0,51.3396528744674,-2.28132558221387,55.94910381337705,-3.203339129953465,4.700760251324294
Avonmouth,AVN,2.0,51.5003648679963,-2.69946651797304,55.94910381337705,-3.203339129953465,4.477182798730847
Axminster,AXM,1.0,50.7792744117621,-3.00472359764506,55.94910381337705,-3.203339129953465,5.17364322035029
Aylesbury,AYS,1.0,51.8138902206829,-0.815095998270687,55.94910381337705,-3.203339129953465,4.775321634532319
Aylesbury Vale Parkway,AVP,2.0,51.8311587338339,-0.860182437861177,55.94910381337705,-3.203339129953465,4.737916732260128
Aylesford,AYL,2.0,51.3013153585378,0.466170568242092,55.94910381337705,-3.203339129953465,5.921759784564744
Aylesham,AYH,2.0,51.2272505439136,1.2094526827124,55.94910381337705,-3.203339129953465,6.462865454291431
Ayr,AYR,0.0,55.4581477383334,-4.62587677242484,55.94910381337705,-3.203339129953465,1.5048758127733608
Bache,BAC,2.0,53.2087886904783,-2.89167051075084,55.94910381337705,-3.203339129953465,2.7579819254272246
Baglan,BAJ,1.0,51.615545271975,-3.81113654529303,55.94910381337705,-3.203339129953465,4.375973872162871
Bagshot,BAG,2.0,51.3643669407293,-0.688661997063008,55.94910381337705,-3.203339129953465,5.229092968584329
Baildon,BLD,2.0,53.8502255005868,-1.75363638811678,55.94910381337705,-3.203339129953465,2.550868129008248
Baillieston,BIO,1.0,55.844505909339,-4.11369931815988,55.94910381337705,-3.203339129953465,0.9163494932613719
Balcombe,BAB,2.0,51.0555201604538,-0.136933757536862,55.94910381337705,-3.203339129953465,5.774946136211405
Baldock,BDK,1.0,51.9928698318742,-0.187563753520231,55.94910381337705,-3.203339129953465,4.974604349845211
Balham,BAL,2.0,51.4432234163815,-0.152424495700288,55.94910381337705,-3.203339129953465,5.441602544979648
Balloch,BHC,1.0,56.0029392993731,-4.58348654319574,55.94910381337705,-3.203339129953465,1.3811969960261905
Balmossie,BSI,1.0,56.4745685552318,-2.83895622541232,55.94910381337705,-3.203339129953465,0.6394435831676771
Bamber Bridge,BMB,1.0,53.7268691714662,-2.6607753764786,55.94910381337705,-3.203339129953465,2.287510050315274
Bamford,BAM,1.0,53.3390008432273,-1.68908191470249,55.94910381337705,-3.203339129953465,3.0175507334134695
Banavie,BNV,1.0,56.8433146084024,-5.09542698683765,55.94910381337705,-3.203339129953465,2.0927516345970103
Banbury,BAN,0.0,52.0603086671337,-1.32813289497966,55.94910381337705,-3.203339129953465,4.317305422729611
Bangor (Gwynedd),BNG,1.0,53.2222875881889,-4.1358808597691,55.94910381337705,-3.203339129953465,2.8818675895670327
Bank Hall,BAH,2.0,53.4374965462522,-2.98751189569183,55.94910381337705,-3.203339129953465,2.520863435278356
Banstead,BAD,2.0,51.3293474848423,-0.213158931277083,55.94910381337705,-3.203339129953465,5.503028816533054
Barassie,BSS,0.0,55.5610644543682,-4.65113966824502,55.94910381337705,-3.203339129953465,1.4988999108737433
Barbican,ZBB,1.0,nan,nan,55.94910381337705,-3.203339129953465,nan
Bardon Mill,BLL,1.0,54.9744957852522,-2.34650475516335,55.94910381337705,-3.203339129953465,1.2977002559556547
Bare Lane,BAR,1.0,54.0745443408907,-2.83533086719705,55.94910381337705,-3.203339129953465,1.9103411468492508
Bargeddie,BGI,1.0,55.8512961462984,-4.07380825280165,55.94910381337705,-3.203339129953465,0.875946821200612
Bargoed,BGD,2.0,51.6923127611933,-3.22968013064506,55.94910381337705,-3.203339129953465,4.256872550390613
Barking,BKG,2.0,51.5394928787692,0.0809024258638578,55.94910381337705,-3.203339129953465,5.4982643799266775
Barlaston,BRT,2.0,nan,nan,55.94910381337705,-3.203339129953465,nan
Barming,BMG,2.0,51.2848926922128,0.478958086821072,55.94910381337705,-3.203339129953465,5.942573363069048
Barmouth,BRM,1.0,52.7228954666472,-4.05659664341287,55.94910381337705,-3.203339129953465,3.337134801110717
Barnehurst,BNH,2.0,51.4649571594916,0.159646215915891,55.94910381337705,-3.203339129953465,5.6051085315169535
Barnes,BNS,2.0,51.4670847781107,-0.242164290131055,55.94910381337705,-3.203339129953465,5.371875935321585
Barnes Bridge,BNI,2.0,51.4720072305495,-0.252630234454485,55.94910381337705,-3.203339129953465,5.362003058367547
Barnetby,BTB,1.0,53.575120046432,-0.409679706265516,55.94910381337705,-3.203339129953465,3.6661058224332677
Barnham,BAA,2.0,50.8309058508596,-0.639679954401345,55.94910381337705,-3.203339129953465,5.72436011724545
Barnhill,BNL,1.0,55.8774948886876,-4.22300584363342,55.94910381337705,-3.203339129953465,1.0221780887311458
Barnsley,BNY,1.0,53.5543015489003,-1.47716484028851,55.94910381337705,-3.203339129953465,2.9520764834677458
Barnstaple,BNP,1.0,51.0739744679973,-4.06311775092404,55.94910381337705,-3.203339129953465,4.950364169559733
Barnt Green,BTG,1.0,52.3610898378667,-1.99246673824797,55.94910381337705,-3.203339129953465,3.7868266711657363
Barrhead,BRR,1.0,55.8037583421428,-4.39728431394783,55.94910381337705,-3.203339129953465,1.202759497319246
Barrhill,BRL,1.0,55.0970106102442,-4.78178229089313,55.94910381337705,-3.203339129953465,1.79375183320949
Barrow Haven,BAV,2.0,53.697419946542,-0.392955239385703,55.94910381337705,-3.203339129953465,3.60115784832157
Barrow-in-Furness,BIF,1.0,54.1190037011827,-3.22612090695349,55.94910381337705,-3.203339129953465,1.830241904781184
Barrow-Upon-Soar,BWS,2.0,52.7493358553102,-1.14484305880024,55.94910381337705,-3.203339129953465,3.8047235195772853
Barry,BRY,2.0,51.3967862682376,-3.28498495899336,55.94910381337705,-3.203339129953465,4.553049645367827
Barry Docks,BYD,2.0,51.4024452836283,-3.26070393235989,55.94910381337705,-3.203339129953465,4.547020398754789
Barry Island,BYI,2.0,51.3924170726249,-3.27336400852697,55.94910381337705,-3.203339129953465,4.557224762612184
Barry Links,BYL,1.0,56.4931516826701,-2.74544214683501,55.94910381337705,-3.203339129953465,0.7110961476701256
Barton-on-Humber,BAU,2.0,53.6889177395454,-0.44343673614012,55.94910381337705,-3.203339129953465,3.5672822024223354
Basildon,BSO,2.0,51.5681040297501,0.456788850539816,55.94910381337705,-3.203339129953465,5.7087385592378626
Basingstoke,BSK,0.0,51.2683569850094,-1.08726383162934,55.94910381337705,-3.203339129953465,5.136843927885232
Bat & Ball,BBL,2.0,51.2897587469008,0.194227480292899,55.94910381337705,-3.203339129953465,5.766537550346614
Bath Spa,BTH,1.0,51.3776883852266,-2.3570184714201,55.94910381337705,-3.203339129953465,4.649096436275798
Bathgate,BHG,0.0,55.8971563834902,-3.63609679157923,55.94910381337705,-3.203339129953465,0.4358643472086807
Batley,BTL,1.0,53.7099423400798,-1.6229526318262,55.94910381337705,-3.203339129953465,2.7407053083032618
Battersby,BTT,1.0,54.457680170473,-1.09297186288525,55.94910381337705,-3.203339129953465,2.584181588922528
Battersea Park,BAK,2.0,51.4769582891996,-0.147533519657093,55.94910381337705,-3.203339129953465,5.416459500202985
Battle,BAT,2.0,50.9129130238687,0.494702777064857,55.94910381337705,-3.203339129953465,6.248098239816055
Battlesbridge,BLB,2.0,51.624822766888,0.56528550890708,55.94910381337705,-3.203339129953465,5.736021115516504
Bayford,BAY,1.0,51.7577148923117,-0.0956100209046352,55.94910381337705,-3.203339129953465,5.217827258817488
Beaconsfield,BCF,2.0,51.6112905925788,-0.643822282354315,55.94910381337705,-3.203339129953465,5.0366407487209175
Bearley,BER,2.0,52.2444115945748,-1.75025547969474,55.94910381337705,-3.203339129953465,3.979471890930147
Bearsden,BRN,0.0,55.9171345827093,-4.3320211452141,55.94910381337705,-3.203339129953465,1.1291346789831127
Bearsted,BSD,2.0,51.2758187894535,0.577580355704965,55.94910381337705,-3.203339129953465,6.011234904065862
Beasdale,BSL,1.0,56.8995610683265,-5.76380325043513,55.94910381337705,-3.203339129953465,2.7311802404381855
Beaulieu Road,BEU,1.0,50.8550493435382,-1.50474962699015,55.94910381337705,-3.203339129953465,5.369785586153543
Beauly,BEL,1.0,57.4782879378611,-4.46986686037102,55.94910381337705,-3.203339129953465,1.9855721035738503
Bebington,BEB,2.0,53.3576570664328,-3.00363517233964,55.94910381337705,-3.203339129953465,2.5991302223887436
Beccles,BCC,2.0,52.4585181871493,1.5694932615698,55.94910381337705,-3.203339129953465,5.913046342757805
Beckenham Hill,BEC,2.0,51.4245808668055,-0.0159511139458484,55.94910381337705,-3.203339129953465,5.5345054213218985
Beckenham Junction,BKJ,2.0,51.4111718661491,-0.0260225635677561,55.94910381337705,-3.203339129953465,5.539690146632856
Bedford,BDM,1.0,52.1361864656103,-0.479442379912954,55.94910381337705,-3.203339129953465,4.685931306131352
Bedford St Johns,BSJ,2.0,52.1294772366621,-0.467501028060375,55.94910381337705,-3.203339129953465,4.698335588835389
Bedhampton,BDH,1.0,50.8539566355958,-0.99582843515536,55.94910381337705,-3.203339129953465,5.552803636983776
Bedminster,BMT,1.0,51.4400904239394,-2.59414932604792,55.94910381337705,-3.203339129953465,4.549979556361815
Bedworth,BEH,1.0,52.4792974206142,-1.46739223305473,55.94910381337705,-3.203339129953465,3.8798283508565525
Bedwyn,BDW,1.0,51.3796409426581,-1.59878627020561,55.94910381337705,-3.203339129953465,4.842992959586468
Beeston,BEE,1.0,52.9207551214346,-1.20765801407939,55.94910381337705,-3.203339129953465,3.626794578721812
Bekesbourne,BKS,2.0,51.2613539349877,1.13670763163281,55.94910381337705,-3.203339129953465,6.388349146304924
Belle Vue,BLV,1.0,53.4623764935822,-2.18050724055323,55.94910381337705,-3.203339129953465,2.688865529733338
Bellgrove,BLG,0.0,55.8567093051092,-4.22437490020632,55.94910381337705,-3.203339129953465,1.0252076810548678
Bellingham,BGM,2.0,51.4329113825773,-0.0193308081217253,55.94910381337705,-3.203339129953465,5.525749095417445
Bellshill,BLH,0.0,55.8170682424416,-4.02449996284266,55.94910381337705,-3.203339129953465,0.8317081852810678
Belmont,BLM,2.0,51.3438134158344,-0.198855124360003,55.94910381337705,-3.203339129953465,5.498692916099744
Belper,BLP,1.0,53.0237591485711,-1.48251049959613,55.94910381337705,-3.203339129953465,3.3939494078383263
Beltring,BEG,2.0,51.2047063375307,0.403495486821792,55.94910381337705,-3.203339129953465,5.959745243010436
Belvedere,BVD,2.0,51.4921162437256,0.152286098901381,55.94910381337705,-3.203339129953465,5.578974715174349
Bempton,BEM,1.0,54.1276580609781,-0.18045684367924,55.94910381337705,-3.203339129953465,3.5292324867600695
Ben Rhydding,BEY,1.0,53.9257153348267,-1.79743026313235,55.94910381337705,-3.203339129953465,2.4638751342015164
Benfleet,BEF,2.0,51.5439424321207,0.561713345502072,55.94910381337705,-3.203339129953465,5.794917336584381
Bentham,BEN,1.0,54.1155197017626,-2.51067651046258,55.94910381337705,-3.203339129953465,1.9600541316006872
Bentley (Hants),BTY,2.0,51.1812327932647,-0.868126900052275,55.94910381337705,-3.203339129953465,5.309031006041242
Bentley (South Yorks),BYK,1.0,53.543936635355,-1.15094859528964,55.94910381337705,-3.203339129953465,3.161824799227845
Bere Alston,BAS,1.0,50.4855988011236,-4.20035543651004,55.94910381337705,-3.203339129953465,5.553731046283955
Bere Ferrers,BFE,1.0,50.4512820780774,-4.18143518031599,55.94910381337705,-3.203339129953465,5.584148611638846
Berkhamsted,BKM,1.0,51.7631330812332,-0.562012981628892,55.94910381337705,-3.203339129953465,4.949641885246654
Berkswell,BKW,1.0,52.3958819317755,-1.64284047482006,55.94910381337705,-3.203339129953465,3.880791387406084
Bermuda Park,BEP,1.0,52.5014343619449,-1.47217775464212,55.94910381337705,-3.203339129953465,3.8578937716982717
Berney Arms,BYA,-999.0,52.5897827472666,1.63037533346209,55.94910381337705,-3.203339129953465,5.886410921694662
Berry Brow,BBW,2.0,53.6210419716152,-1.79343228301033,55.94910381337705,-3.203339129953465,2.721710722344444
Berrylands,BRS,2.0,51.3990439366779,-0.280713667843256,55.94910381337705,-3.203339129953465,5.40784471608814
Berwick (Sussex),BRK,2.0,50.8403762860459,0.166017608785235,55.94910381337705,-3.203339129953465,6.119776285240737
Berwick-upon-Tweed,BWK,0.0,55.7743389009866,-2.01097357377303,55.94910381337705,-3.203339129953465,1.2051051382216909
Bescar Lane,BES,2.0,53.623855333027,-2.9146110021991,55.94910381337705,-3.203339129953465,2.343105722567112
Bescot Stadium,BSC,1.0,52.5630947071172,-1.9911057185482,55.94910381337705,-3.203339129953465,3.5964659752876664
Betchworth,BTO,2.0,51.2481879331766,-0.266973015200458,55.94910381337705,-3.203339129953465,5.542639810829351
Bethnal Green,BET,2.0,51.5239156627757,-0.0595680464428894,55.94910381337705,-3.203339129953465,5.428221328735579
Betws-y-Coed,BYC,2.0,53.0920709395504,-3.80086212197837,55.94910381337705,-3.203339129953465,2.9188474725693605
Beverley,BEV,1.0,53.8422725915824,-0.422980126740875,55.94910381337705,-3.203339129953465,3.4884285837428353
Bexhill,BEX,2.0,50.84103990242,0.477016592346932,55.94910381337705,-3.203339129953465,6.295818863427625
Bexley,BXY,2.0,51.4402175270263,0.147902494716889,55.94910381337705,-3.203339129953465,5.61790672494347
Bexleyheath,BXH,2.0,51.4634982236074,0.133734871030645,55.94910381337705,-3.203339129953465,5.590771001840158
Bicester North,BCS,2.0,51.9034829537461,-1.15038352192815,55.94910381337705,-3.203339129953465,4.536703083562299
Bicester Village,BIT,1.0,51.8930236127002,-1.14876425178293,55.94910381337705,-3.203339129953465,4.546764181737629
Bickley,BKL,2.0,51.4001024308637,0.0452405405139698,55.94910381337705,-3.203339129953465,5.58987329493994
Bidston,BID,2.0,53.4091398593576,-3.07856110228132,55.94910381337705,-3.203339129953465,2.543027023825713
Biggleswade,BIW,1.0,52.0846785950736,-0.261187193156868,55.94910381337705,-3.203339129953465,4.85695792518894
Bilbrook,BBK,1.0,52.6237197237583,-2.18608801838282,55.94910381337705,-3.203339129953465,3.477496106033944
Billericay,BIC,2.0,51.6288812691945,0.418629610467223,55.94910381337705,-3.203339129953465,5.637639611384162
Billingham (Cleveland),BIL,1.0,54.605606575355,-1.27971968622732,55.94910381337705,-3.203339129953465,2.346336845564628
Billingshurst,BIG,2.0,51.0152034952011,-0.450302232654151,55.94910381337705,-3.203339129953465,5.650007478542677
Bingham,BIN,1.0,52.9541905628363,-0.95154335353279,55.94910381337705,-3.203339129953465,3.7470107548511966
Bingley,BIY,1.0,53.8486154371384,-1.8373224993653,55.94910381337705,-3.203339129953465,2.5056042891400727
Birchgrove,BCG,2.0,51.5215597229164,-3.20185379786194,55.94910381337705,-3.203339129953465,4.427544339606826
Birchington-on-sea,BCH,2.0,51.3774886896266,1.3014083545974,55.94910381337705,-3.203339129953465,6.418131717195524
Birchwood,BWD,1.0,53.4127205850305,-2.5253082468513,55.94910381337705,-3.203339129953465,2.6254458210898153
Birkbeck,BIK,2.0,51.4038899816034,-0.0557387405611835,55.94910381337705,-3.203339129953465,5.528684923908123
Birkdale,BDL,2.0,53.6340528065899,-3.01445011129132,55.94910381337705,-3.203339129953465,2.3227441153509245
Birkenhead Central,BKC,2.0,53.3883166263867,-3.02082115838918,55.94910381337705,-3.203339129953465,2.5672833554163645
Birkenhead Hamilton Square,BKQ,2.0,53.3946967251861,-3.01368016573114,55.94910381337705,-3.203339129953465,2.5614382863754592
Birkenhead North,BKN,2.0,53.4044379353974,-3.05753365912751,55.94910381337705,-3.203339129953465,2.5488396704925833
Birkenhead Park,BKP,2.0,53.3974085855031,-3.03910128885113,55.94910381337705,-3.203339129953465,2.556975284277234
Birmingham International,BHI,0.0,52.4508081112451,-1.72585685988124,55.94910381337705,-3.203339129953465,3.7975026896544306
Birmingham Moor Street,BMO,1.0,52.479080623723,-1.89247273057604,55.94910381337705,-3.203339129953465,3.709370789467346
Birmingham New Street,BHM,0.0,52.4778198092097,-1.9002055706822,55.94910381337705,-3.203339129953465,3.707825469313128
Birmingham Snow Hill,BSW,1.0,52.4833566780576,-1.89908868312646,55.94910381337705,-3.203339129953465,3.703035570180685
Bishop Auckland,BIA,1.0,54.6571963763698,-1.67771509725951,55.94910381337705,-3.203339129953465,1.9991381930542014
Bishopbriggs,BBG,1.0,55.9038831792009,-4.22491571705821,55.94910381337705,-3.203339129953465,1.0225769550874264
Bishops Stortford,BIS,2.0,51.8666894209812,0.16489410333554,55.94910381337705,-3.203339129953465,5.29255159493729
Bishopstone (Sussex),BIP,2.0,50.7801416620368,0.082756921439231,55.94910381337705,-3.203339129953465,6.125079344871112
Bishopton (Strathclyde),BPT,1.0,55.9022694882255,-4.5004875625329,55.94910381337705,-3.203339129953465,1.2979936479643057
Bitterne,BTE,1.0,50.9182213632939,-1.37699961416727,55.94910381337705,-3.203339129953465,5.3521298801016375
Blackburn,BBN,1.0,53.7465184457461,-2.47912240276289,55.94910381337705,-3.203339129953465,2.318592713187162
Blackheath,BKH,2.0,51.4657945200002,0.00887187089452019,55.94910381337705,-3.203339129953465,5.515284374721582
Blackhorse Road,BHO,1.0,51.58660384873,-0.0412357433706351,55.94910381337705,-3.203339129953465,5.387977706800958
Blackpool North,BPN,1.0,53.8219180942013,-3.04927516714828,55.94910381337705,-3.203339129953465,2.1327575550213123
Blackpool Pleasure Beach,BPB,1.0,53.7879555202556,-3.05387646984086,55.94910381337705,-3.203339129953465,2.1663104651987655
Blackpool South,BPS,1.0,53.7987040263195,-3.04893832565541,55.94910381337705,-3.203339129953465,2.1559357255134137
Blackridge,BKR,0.0,55.8842557507999,-3.75079743413867,55.94910381337705,-3.203339129953465,0.5512856483179568
Blackrod,BLK,1.0,53.5915244932358,-2.56952431744104,55.94910381337705,-3.203339129953465,2.441290942783721
Blackwater,BAW,1.0,51.3315811457068,-0.776741026218888,55.94910381337705,-3.203339129953465,5.216310376453537
Blaenau Ffestiniog,BFF,2.0,52.9945530771849,-3.93859577234881,55.94910381337705,-3.203339129953465,3.044662934204717
Blair Atholl,BLA,0.0,56.7655504660718,-3.85022876626298,55.94910381337705,-3.203339129953465,1.0416579756624147
Blairhill,BAI,0.0,55.8664556230225,-4.0432911996593,55.94910381337705,-3.203339129953465,0.8440084139225135
Blake Street,BKT,1.0,52.6048860712992,-1.84491459685048,55.94910381337705,-3.203339129953465,3.609585782131289
Blakedown,BKD,2.0,52.4064026596129,-2.17686566095142,55.94910381337705,-3.203339129953465,3.6884114802238273
Blantyre,BLT,1.0,55.7973304780703,-4.08697164977011,55.94910381337705,-3.203339129953465,0.8965721250338137
Blaydon,BLO,1.0,54.9657896857216,-1.71258088882198,55.94910381337705,-3.203339129953465,1.7858518435604427
Bleasby,BSB,1.0,53.0413649497003,-0.943687538181265,55.94910381337705,-3.203339129953465,3.6825223170450414
Bletchley,BLY,1.0,51.9953339717924,-0.736320506839459,55.94910381337705,-3.203339129953465,4.660308664349997
Bloxwich,BLX,1.0,52.6182018754768,-2.01147807238452,55.94910381337705,-3.203339129953465,3.5377168485418684
Bloxwich North,BWN,1.0,52.6254378492086,-2.01768461058018,55.94910381337705,-3.203339129953465,3.5288145432541618
Blundellsands & Crosby,BLN,2.0,53.4876867000616,-3.03986028592851,55.94910381337705,-3.203339129953465,2.4668399903856537
Blythe Bridge,BYB,1.0,52.9681439666743,-2.06696136521393,55.94910381337705,-3.203339129953465,3.1902156716824837
Bodmin Parkway,BOD,1.0,50.4458686645733,-4.66292953056928,55.94910381337705,-3.203339129953465,5.693505180519194
Bodorgan,BOR,1.0,53.2043074000119,-4.41800424551237,55.94910381337705,-3.203339129953465,3.0015527138096254
Bognor Regis,BOG,2.0,50.7865584395345,-0.676178286011514,55.94910381337705,-3.203339129953465,5.7479054157263665
Bogston,BGS,1.0,55.9370473872407,-4.71140217696609,55.94910381337705,-3.203339129953465,1.5081112396558105
Bolton,BON,1.0,53.5741455351566,-2.42582497565139,55.94910381337705,-3.203339129953465,2.4989908129938976
Bolton-Upon-Dearne,BTD,1.0,53.5189470302023,-1.31154616002462,55.94910381337705,-3.203339129953465,3.079698464441358
Bookham,BKA,2.0,51.2887375770933,-0.384020684769355,55.94910381337705,-3.203339129953465,5.446794465706312
Bootle (Cumbria),BOC,1.0,54.2913058315169,-3.39386227213438,55.94910381337705,-3.203339129953465,1.6687100456238861
Bootle New Strand,BNW,2.0,53.4533917659639,-2.99474773972908,55.94910381337705,-3.203339129953465,2.5044139018299028
Bootle Oriel Road,BOT,2.0,53.4466239167649,-2.9957338918952,55.94910381337705,-3.203339129953465,2.5110765754586595
Bordesley,BBS,2.0,52.4718743800827,-1.87776885469942,55.94910381337705,-3.203339129953465,3.721325178804671
Borough Green & Wrotham,BRG,2.0,51.2932170234776,0.306244959659036,55.94910381337705,-3.203339129953465,5.830477020143497
Borth,BRH,1.0,52.4910318901744,-4.05017708151719,55.94910381337705,-3.203339129953465,3.5602522301448163
Bosham,BOH,2.0,50.8427472866996,-0.847431235664145,55.94910381337705,-3.203339129953465,5.623626853189688
Boston,BSN,1.0,52.9780883520384,-0.03100323679323,55.94910381337705,-3.203339129953465,4.346337295993728
Botley,BOE,2.0,50.9164546156522,-1.25923650546392,55.94910381337705,-3.203339129953465,5.395098976099301
Bottesford,BTF,1.0,52.9446141670485,-0.794842711685305,55.94910381337705,-3.203339129953465,3.850689942296837
Bourne End,BNE,2.0,51.5771173647136,-0.710473547391366,55.94910381337705,-3.203339129953465,5.032757129051581
Bournemouth,BMH,1.0,50.7272746595869,-1.86450316465566,55.94910381337705,-3.203339129953465,5.390731068542346
Bournville,BRV,1.0,52.4269645832552,-1.92642405915734,55.94910381337705,-3.203339129953465,3.7464619115092606
Bow Brickhill,BWB,2.0,52.0043001848605,-0.696077833880482,55.94910381337705,-3.203339129953465,4.674166757224536
Bowes Park,BOP,1.0,51.6070103763875,-0.120581954633459,55.94910381337705,-3.203339129953465,5.325144807189257
Bowling,BWG,1.0,55.9310849001239,-4.49384261915191,55.94910381337705,-3.203339129953465,1.2906292794091516
Box Hill & Westhumble,BXW,2.0,51.2540106794359,-0.328489952956063,55.94910381337705,-3.203339129953465,5.505329901728321
Bracknell,BCE,1.0,51.4130914141393,-0.751703650172948,55.94910381337705,-3.203339129953465,5.156154091157211
Bradford Forster Square,BDQ,1.0,53.7969256219995,-1.75296173787813,55.94910381337705,-3.203339129953465,2.595277547177642
Bradford Interchange,BDI,1.0,53.7910764525054,-1.74959589964649,55.94910381337705,-3.203339129953465,2.6020091218006933
Bradford-on-Avon,BOA,1.0,51.3449161602034,-2.25232693866303,55.94910381337705,-3.203339129953465,4.701379386267369
Brading,BDN,2.0,50.6783720718463,-1.13872244962043,55.94910381337705,-3.203339129953465,5.66067620765304
Braintree,BTR,2.0,51.8753890748181,0.556686982906197,55.94910381337705,-3.203339129953465,5.543730525606285
Braintree Freeport,BTP,2.0,51.8694135093739,0.568434688069829,55.94910381337705,-3.203339129953465,5.556091315925553
Bramhall,BML,1.0,53.360614520234,-2.16359288123925,55.94910381337705,-3.203339129953465,2.7895069604558222
Bramley (Hants),BMY,1.0,51.3302932744388,-1.06100278415591,55.94910381337705,-3.203339129953465,5.091464996750175
Bramley (W Yorks),BLE,1.0,53.8053497570895,-1.63720635437646,55.94910381337705,-3.203339129953465,2.6548923376637803
Brampton (Cumbria),BMP,1.0,54.9323930102284,-2.70294760254176,55.94910381337705,-3.203339129953465,1.1331780698304161
Brampton (Suffolk),BRP,2.0,52.3954307722651,1.54381046672808,55.94910381337705,-3.203339129953465,5.929925916602973
Branchton,BCN,1.0,55.9406016000061,-4.80354935893801,55.94910381337705,-3.203339129953465,1.6002328157424393
Brandon,BND,2.0,52.4540047306678,0.624731734521936,55.94910381337705,-3.203339129953465,5.183613039319245
Branksome,BSM,2.0,50.7269660330633,-1.91975842787338,55.94910381337705,-3.203339129953465,5.377574026950502
Braystones (Cumbria),BYS,1.0,54.4393640536404,-3.54182643942065,55.94910381337705,-3.203339129953465,1.5472193770761795
Bredbury,BDY,1.0,53.4231550957567,-2.11048830300964,55.94910381337705,-3.203339129953465,2.7522245282679436
Breich,BRC,0.0,55.8273164832767,-3.66812586892786,55.94910381337705,-3.203339129953465,0.4804777481834357
Brentford,BFD,2.0,51.4875457097478,-0.3096509962364,55.94910381337705,-3.203339129953465,5.31779387784773
Brentwood,BRE,2.0,51.6136030493508,0.2995857793073,55.94910381337705,-3.203339129953465,5.573782359833557
Bricket Wood,BWO,2.0,51.7054267834401,-0.359115040469,55.94910381337705,-3.203339129953465,5.108659844383672
Bridge of Allan,BEA,0.0,56.1566398048563,-3.95722936202684,55.94910381337705,-3.203339129953465,0.7819345687299681
Bridge of Orchy,BRO,1.0,56.5158728605762,-4.76299400728156,55.94910381337705,-3.203339129953465,1.6594428249374398
Bridgend,BGN,1.0,51.5069776497295,-3.57527638119945,55.94910381337705,-3.203339129953465,4.457670038554506
Bridgeton,BDG,1.0,55.8489676845822,-4.22605724682491,55.94910381337705,-3.203339129953465,1.0276086759399676
Bridgwater,BWT,1.0,51.1278595271724,-2.99040597303838,55.94910381337705,-3.203339129953465,4.825944155973506
Bridlington,BDT,1.0,54.0841300013586,-0.198720390714093,55.94910381337705,-3.203339129953465,3.5363626917643805
Brierfield,BRF,1.0,53.8239823807197,-2.23649020577414,55.94910381337705,-3.203339129953465,2.3347243832466296
Brigg,BGG,2.0,53.5491442686681,-0.486124757673641,55.94910381337705,-3.203339129953465,3.6253358135714304
Brighouse,BGH,1.0,53.6981985445311,-1.77943904000537,55.94910381337705,-3.203339129953465,2.6634687900316463
Brighton (East Sussex),BTN,2.0,50.8290032740444,-0.141280362604851,55.94910381337705,-3.203339129953465,5.965872394509538
Brimsdown,BMD,2.0,51.6555817179022,-0.0308174334464399,55.94910381337705,-3.203339129953465,5.338466624334983
Brinnington,BNT,1.0,53.4321182782686,-2.13512015019042,55.94910381337705,-3.203339129953465,2.7342838134822784
Bristol Parkway,BPW,0.0,51.5138036668802,-2.54216343130652,55.94910381337705,-3.203339129953465,4.484310503744835
Bristol Temple Meads,BRI,0.0,51.449146420501,-2.58131562733598,55.94910381337705,-3.203339129953465,4.5427447402983505
Brithdir,BHD,2.0,51.7103060616454,-3.22872077880337,55.94910381337705,-3.203339129953465,4.238873742892522
Briton Ferry,BNF,1.0,51.6379005035521,-3.81925304025098,55.94910381337705,-3.203339129953465,4.354976914237727
Brixton,BRX,2.0,51.4632974069132,-0.114183479348404,55.94910381337705,-3.203339129953465,5.4465899193841745
Broad Green,BGE,1.0,53.4065063198581,-2.8934843782564,55.94910381337705,-3.203339129953465,2.5614082027662213
Broadbottom,BDB,1.0,53.4409753914717,-2.01652101691897,55.94910381337705,-3.203339129953465,2.7747514148471333
Broadstairs,BSR,2.0,51.3606706129939,1.43356042841681,55.94910381337705,-3.203339129953465,6.523385374848922
Brockenhurst,BCU,1.0,50.8168418133325,-1.57353117285741,55.94910381337705,-3.203339129953465,5.384829357938363
Brockholes,BHS,2.0,53.5969730380642,-1.76969142002127,55.94910381337705,-3.203339129953465,2.754607946762599
Brockley,BCY,2.0,51.4646472014469,-0.0375366925196268,55.94910381337705,-3.203339129953465,5.489322014342578
Bromborough,BOM,2.0,53.3218495381578,-2.98689585549247,55.94910381337705,-3.203339129953465,2.6361549115553182
Bromborough Rake,BMR,2.0,53.3299093778849,-2.98946942122466,55.94910381337705,-3.203339129953465,2.627911669600935
Bromley Cross (Lancs),BMC,2.0,53.6140430093272,-2.41089911446368,55.94910381337705,-3.203339129953465,2.4658609321613003
Bromley North,BMN,2.0,51.4083259856208,0.0169926357417391,55.94910381337705,-3.203339129953465,5.566794406315754
Bromley South,BMS,2.0,51.3999745779484,0.0173440284479178,55.94910381337705,-3.203339129953465,5.573811694652231
Bromsgrove,BMV,1.0,52.3222879772082,-2.04734524157192,55.94910381337705,-3.203339129953465,3.80658836485647
Brondesbury,BSY,2.0,51.5451643215911,-0.202308734122339,55.94910381337705,-3.203339129953465,5.329246333583596
Brondesbury Park,BSP,2.0,51.5406977630272,-0.210127665126915,55.94910381337705,-3.203339129953465,5.328541899800572
Brookmans Park,BPK,1.0,51.7210604040222,-0.204548729285783,55.94910381337705,-3.203339129953465,5.183540772341398
Brookwood,BKO,2.0,51.3037572593507,-0.635747900032551,55.94910381337705,-3.203339129953465,5.3077084821014155
Broome,BME,1.0,52.4227745962921,-2.88520796216339,55.94910381337705,-3.203339129953465,3.540650390420725
Broomfleet,BMF,1.0,53.7402076992399,-0.671828400321333,55.94910381337705,-3.203339129953465,3.3597274617582893
Brora,BRA,1.0,58.012954677959,-3.85228367382381,55.94910381337705,-3.203339129953465,2.163471611150643
Brough,BUH,1.0,53.726959736948,-0.578724236728498,55.94910381337705,-3.203339129953465,3.4389718862106213
Broughty Ferry,BYF,0.0,56.4671632427311,-2.87315275743822,55.94910381337705,-3.203339129953465,0.6143359121339209
Broxbourne,BXB,2.0,51.7469087203036,-0.0110867237416249,55.94910381337705,-3.203339129953465,5.277207502573293
Bruce Grove,BCV,2.0,51.5939575362971,-0.0698670703254643,55.94910381337705,-3.203339129953465,5.365253604745327
Brundall,BDA,2.0,52.6194794445227,1.43929868679443,55.94910381337705,-3.203339129953465,5.713185130482502
Brundall Gardens,BGA,2.0,52.623439277351,1.41841612253682,55.94910381337705,-3.203339129953465,5.69391484131111
Brunstane,BSU,0.0,55.9425140850115,-3.10098653970798,55.94910381337705,-3.203339129953465,0.102564502874493
Brunswick,BRW,2.0,53.3832435421687,-2.97607735757102,55.94910381337705,-3.203339129953465,2.5759050534815526
Bruton,BRU,1.0,51.1116412233567,-2.44707381432238,55.94910381337705,-3.203339129953465,4.8962211487506355
Bryn,BYN,1.0,53.4998691660173,-2.6472139954436,55.94910381337705,-3.203339129953465,2.511578293237355
Buckenham (Norfolk),BUC,-999.0,52.5977342869752,1.47032522512213,55.94910381337705,-3.203339129953465,5.751070874750124
Buckley,BCK,2.0,53.163039091322,-3.05592619131988,55.94910381337705,-3.203339129953465,2.7899618653229443
Bucknell,BUK,1.0,52.3573820377697,-2.94737831871819,55.94910381337705,-3.203339129953465,3.6008306333761677
Buckshaw Parkway,BSV,1.0,53.6733436562841,-2.6608302706882,55.94910381337705,-3.203339129953465,2.339529900427223
Bugle,BGL,2.0,50.4003548175137,-4.79210144517706,55.94910381337705,-3.203339129953465,5.771722542999547
Builth Road,BHR,1.0,52.1693260878635,-3.42703322967269,55.94910381337705,-3.203339129953465,3.7863912508531867
Bulwell,BLW,2.0,52.9996957837852,-1.19623056375416,55.94910381337705,-3.203339129953465,3.5675611447502216
Bures,BUE,2.0,51.9711590332091,0.769143780923498,55.94910381337705,-3.203339129953465,5.621802660292779
Burgess Hill,BUG,2.0,50.9536546008005,-0.127412852764647,55.94910381337705,-3.203339129953465,5.866501112088224
Burley Park,BUY,1.0,53.8120311080587,-1.57776768947798,55.94910381337705,-3.203339129953465,2.6850628029724457
Burley-in-Wharfedale,BUW,1.0,53.9081516997075,-1.75337211508043,55.94910381337705,-3.203339129953465,2.5035754181793712
Burnage,BNA,1.0,53.4211687602571,-2.21567840315285,55.94910381337705,-3.203339129953465,2.7140245658536086
Burneside (Cumbria),BUD,1.0,54.3549826054845,-2.76667730640148,55.94910381337705,-3.203339129953465,1.652844812316191
Burnham (Bucks),BNM,2.0,51.5235048795581,-0.646373823188634,55.94910381337705,-3.203339129953465,5.111164006664081
Burnham-on-Crouch,BUU,2.0,51.6336547723703,0.814027782561537,55.94910381337705,-3.203339129953465,5.895959407534655
Burnley Barracks,BUB,1.0,53.7908801067712,-2.25808600820696,55.94910381337705,-3.203339129953465,2.3561479223357384
Burnley Central,BNC,1.0,53.7935141377532,-2.24497131410056,55.94910381337705,-3.203339129953465,2.359032793353837
Burnley Manchester Road,BYM,1.0,53.784967519749,-2.24886752625716,55.94910381337705,-3.203339129953465,2.3652699506950023
Burnside (Strathclyde),BUI,2.0,55.8169313339993,-4.20239033426663,55.94910381337705,-3.203339129953465,1.0077563560426928
Burntisland,BTS,0.0,56.0570842114504,-3.23319831966981,55.94910381337705,-3.203339129953465,0.11203275225841838
Burscough Bridge,BCB,2.0,53.6052595050232,-2.84088028461687,55.94910381337705,-3.203339129953465,2.3717045676823836
Burscough Junction,BCJ,1.0,53.5975223038556,-2.84060569626726,55.94910381337705,-3.203339129953465,2.3793930192040524
Bursledon,BUO,1.0,50.8836886125224,-1.30503236047306,55.94910381337705,-3.203339129953465,5.409436176544141
Burton Joyce,BUJ,1.0,52.9834418843688,-1.04087761567102,55.94910381337705,-3.203339129953465,3.6703392864858766
Burton-on-Trent,BUT,1.0,52.8058165084357,-1.64245997205794,55.94910381337705,-3.203339129953465,3.5095012219627617
Bury St Edmunds,BSE,1.0,52.2537604920335,0.713306656862091,55.94910381337705,-3.203339129953465,5.384763363600896
Busby,BUS,1.0,55.7803445376612,-4.26220173231044,55.94910381337705,-3.203339129953465,1.0722265170244223
Bush Hill Park,BHK,2.0,51.6415169536941,-0.0692211146516689,55.94910381337705,-3.203339129953465,5.327100551665275
Bushey,BSH,1.0,51.6457502336329,-0.385321269560704,55.94910381337705,-3.203339129953465,5.143935914626986
Butlers Lane,BUL,1.0,52.5924709448511,-1.83802031828625,55.94910381337705,-3.203339129953465,3.6236831637935896
Buxted,BXD,2.0,50.9900108378352,0.131438921683175,55.94910381337705,-3.203339129953465,5.976064574094392
Buxton,BUX,1.0,53.2607227045765,-1.91286358993768,55.94910381337705,-3.203339129953465,2.9820664153460266
Byfleet & New Haw,BFN,2.0,51.3497957278428,-0.481389767596653,55.94910381337705,-3.203339129953465,5.344402978527663
Bynea,BYE,1.0,51.6720366859549,-4.09888164715589,55.94910381337705,-3.203339129953465,4.369816885476143
Cadoxton,CAD,2.0,51.4122831697514,-3.24889594393883,55.94910381337705,-3.203339129953465,4.537049368888153
Caergwrle,CGW,2.0,53.1078664074892,-3.03291327418616,55.94910381337705,-3.203339129953465,2.8463441409868824
Caerphilly,CPH,2.0,51.57158067131,-3.21848255919666,55.94910381337705,-3.203339129953465,4.377549335276737
Caersws,CWS,1.0,52.5161279090032,-3.43249879239218,55.94910381337705,-3.203339129953465,3.440615891217801
Caldercruix,CAC,0.0,55.8879475461776,-3.88771190821316,55.94910381337705,-3.203339129953465,0.6870998389176528
Caldicot,CDT,1.0,51.5847930591881,-2.76057390572724,55.94910381337705,-3.203339129953465,4.386712824304027
Caledonian Rd & Barnsbury,CIR,2.0,51.5430392840645,-0.116729249835755,55.94910381337705,-3.203339129953465,5.379643593074406
Calstock,CSK,1.0,50.4978023671618,-4.20898850028348,55.94910381337705,-3.203339129953465,5.543285858906574
Cam & Dursley,CDU,2.0,51.71762106741,-2.35908298700462,55.94910381337705,-3.203339129953465,4.314882925911629
Camberley,CAM,2.0,51.3363271281171,-0.744271720142327,55.94910381337705,-3.203339129953465,5.22730535496761
Camborne,CBN,1.0,50.2104431448962,-5.2974123155278,55.94910381337705,-3.203339129953465,6.108794379786447
Cambridge,CBG,1.0,52.1940653655991,0.137456461171047,55.94910381337705,-3.203339129953465,5.026055006261631
Cambridge Heath,CBH,2.0,51.5319710950389,-0.0572790666047599,55.94910381337705,-3.203339129953465,5.422983991642521
Cambuslang,CBL,0.0,55.8196110785266,-4.17300936139383,55.94910381337705,-3.203339129953465,0.9782784501974171
Camden Road,CMD,2.0,51.541789311709,-0.138700901327927,55.94910381337705,-3.203339129953465,5.368093571182095
Camelon,CMO,0.0,56.0060960246981,-3.81760595611437,55.94910381337705,-3.203339129953465,0.6169050541801832
Canada Water,ZCW,2.0,51.4979884652777,-0.0497198367270248,55.94910381337705,-3.203339129953465,5.455065763920325
Canley,CNL,1.0,52.3992417616656,-1.54757487164278,55.94910381337705,-3.203339129953465,3.9170238530394683
Cannock,CAO,1.0,52.6861624456421,-2.02214749992606,55.94910381337705,-3.203339129953465,3.470158503025884
Canonbury,CNN,2.0,51.5487306960064,-0.0921909296515918,55.94910381337705,-3.203339129953465,5.389111865263131
Canterbury East,CBE,2.0,51.2742643010057,1.07596836838028,55.94910381337705,-3.203339129953465,6.337712294805106
Canterbury West,CBW,2.0,51.2842658182293,1.07530307014886,55.94910381337705,-3.203339129953465,6.329888829787657
Cantley,CNY,2.0,52.5787439208642,1.51341203393271,55.94910381337705,-3.203339129953465,5.797160283024856
Capenhurst,CPU,2.0,53.2601766897761,-2.94228526259152,55.94910381337705,-3.203339129953465,2.7015695803923863
Carbis Bay,CBB,2.0,50.1970567010486,-5.46326466277764,55.94910381337705,-3.203339129953465,6.180073575319041
Cardenden,CDD,0.0,56.1412590120684,-3.26164246018956,55.94910381337705,-3.203339129953465,0.20080562417604844
Cardiff Bay,CDB,2.0,51.4671120338694,-3.16640344566505,55.94910381337705,-3.203339129953465,4.482143968721668
Cardiff Central,CDF,1.0,51.4760288851757,-3.17930229689385,55.94910381337705,-3.203339129953465,4.473139510751597
Cardiff Queen Street,CDQ,2.0,51.4819650131963,-3.17018110795731,55.94910381337705,-3.203339129953465,4.4672618587343855
Cardonald,CDO,1.0,55.8525736689993,-4.34069348123436,55.94910381337705,-3.203339129953465,1.1414433797395185
Cardross,CDR,0.0,55.9603843832927,-4.65307437435214,55.94910381337705,-3.203339129953465,1.449779131491865
Carfin,CRF,0.0,55.8073437453988,-3.9562545230792,55.94910381337705,-3.203339129953465,0.7661445725702669
Cark & Cartmel,CAK,1.0,54.1779579416092,-2.97406410040301,55.94910381337705,-3.203339129953465,1.78592405724758
Carlisle,CAR,0.0,54.8906549298,-2.93319211047497,55.94910381337705,-3.203339129953465,1.0923797193643874
Carlton,CTO,1.0,52.965087366641,-1.07865502808069,55.94910381337705,-3.203339129953465,3.663145736541499
Carluke,CLU,0.0,55.7312694028257,-3.84892564535903,55.94910381337705,-3.203339129953465,0.6813470329382472
Carmarthen,CMN,1.0,51.8533578808521,-4.30596190317658,55.94910381337705,-3.203339129953465,4.24156948827022
Carmyle,CML,1.0,55.8343417681725,-4.15818113045633,55.94910381337705,-3.203339129953465,0.9617138727001107
Carnforth,CNF,1.0,54.1296807999724,-2.77123283370784,55.94910381337705,-3.203339129953465,1.8700310032086571
Carnoustie,CAN,0.0,56.5005661034066,-2.70660077824166,55.94910381337705,-3.203339129953465,0.7421991965678716
Carntyne,CAY,0.0,55.8548777008205,-4.17857314789674,55.94910381337705,-3.203339129953465,0.9797754589911424
Carpenders Park,CPK,1.0,51.6283500844943,-0.385939110192136,55.94910381337705,-3.203339129953465,5.1581639812054565
Carrbridge,CAG,0.0,57.2795057695212,-3.82820361192189,55.94910381337705,-3.203339129953465,1.469838421642954
Carshalton,CSH,2.0,51.3684528774191,-0.166368536051504,55.94910381337705,-3.203339129953465,5.4959579133502885
Carshalton Beeches,CSB,2.0,51.3574095253256,-0.169797044692897,55.94910381337705,-3.203339129953465,5.50327484485114
Carstairs,CRS,0.0,55.6910505751263,-3.66847398361363,55.94910381337705,-3.203339129953465,0.5319228382586736
Cartsdyke,CDY,1.0,55.9422189788465,-4.73159192667259,55.94910381337705,-3.203339129953465,1.5282683048556431
Castle Bar Park,CBP,2.0,51.5229293420363,-0.331548940592461,55.94910381337705,-3.203339129953465,5.276191746180069
Castle Cary,CLC,1.0,51.0998172088069,-2.52279469643867,55.94910381337705,-3.203339129953465,4.89680725567706
Castleford,CFD,1.0,53.7240777865092,-1.354652736609,55.94910381337705,-3.203339129953465,2.8928156182474374
Castleton (Manchester),CAS,1.0,53.5918484863424,-2.17823419505367,55.94910381337705,-3.203339129953465,2.570504387156176
Castleton Moor,CSM,1.0,54.4671435348016,-0.946648402304519,55.94910381337705,-3.203339129953465,2.6997887523901114
Caterham,CAT,2.0,51.2821399092314,-0.0783071221606942,55.94910381337705,-3.203339129953465,5.6166161638773
Catford,CTF,2.0,51.4444050592825,-0.0263165980978829,55.94910381337705,-3.203339129953465,5.512330091082992
Catford Bridge,CFB,2.0,51.4447390713824,-0.0247911767036132,55.94910381337705,-3.203339129953465,5.512936497007139
Cathays,CYS,2.0,51.4889025348744,-3.17868388381823,55.94910381337705,-3.203339129953465,4.4602694230190485
Cathcart,CCT,1.0,55.8176734833053,-4.26053705302787,55.94910381337705,-3.203339129953465,1.0653362756499027
Cattal,CTL,1.0,53.9974405714928,-1.32053513613482,55.94910381337705,-3.203339129953465,2.7118149436975916
Causeland,CAU,2.0,50.4056959147701,-4.46644892679679,55.94910381337705,-3.203339129953465,5.685491842331631
Cefn-y-Bedd,CYB,2.0,53.0988032278231,-3.03105323734973,55.94910381337705,-3.203339129953465,2.8555027327599376
Chadwell Heath,CTH,2.0,51.5680368465285,0.128958362519305,55.94910381337705,-3.203339129953465,5.504357759662054
Chafford Hundred Lakeside,CFH,2.0,51.4855550575053,0.28744692045023,55.94910381337705,-3.203339129953465,5.666467572106741
Chalfont & Latimer,CFO,2.0,51.6681076576697,-0.560526398177912,55.94910381337705,-3.203339129953465,5.031042359234919
Chalkwell,CHW,2.0,51.5387163080302,0.670592556917399,55.94910381337705,-3.203339129953465,5.870167345303004
Chandlers Ford,CFR,2.0,50.9836845147777,-1.38517039014294,55.94910381337705,-3.203339129953465,5.287828134246333
Chapel-en-le-Frith,CEF,1.0,53.3122322961308,-1.91876260821786,55.94910381337705,-3.203339129953465,2.9331260182029135
Chapelton (Devon),CPN,1.0,51.0165400933197,-4.02472276399646,55.94910381337705,-3.203339129953465,5.000485569092236
Chapeltown (South Yorks),CLN,1.0,53.4623369950109,-1.46627538451147,55.94910381337705,-3.203339129953465,3.033380896731545
Chappel & Wakes Colne,CWC,2.0,51.9259030310448,0.758501135970095,55.94910381337705,-3.203339129953465,5.646443378592592
Charing (Kent),CHG,2.0,51.2080962778901,0.790331124900325,55.94910381337705,-3.203339129953465,6.1989155951704955
Charing Cross (Glasgow),CHC,0.0,55.8646868840175,-4.2698209416277,55.94910381337705,-3.203339129953465,1.0698175884675172
Charlbury,CBY,1.0,51.8724282813146,-1.48969393048958,55.94910381337705,-3.203339129953465,4.422201178526628
Charlton,CTN,2.0,51.4868115310585,0.0312574909275387,55.94910381337705,-3.203339129953465,5.511321775459541
Chartham,CRT,2.0,51.2572624478548,1.01803921286391,55.94910381337705,-3.203339129953465,6.311371523879201
Chassen Road,CSR,2.0,53.4461614853374,-2.36823319572701,55.94910381337705,-3.203339129953465,2.6385833734928275
Chatelherault,CTE,1.0,55.7652234915406,-4.00467524821846,55.94910381337705,-3.203339129953465,0.8221627254958018
Chatham,CTM,2.0,51.3803760158194,0.521150706594487,55.94910381337705,-3.203339129953465,5.894497283969597
Chathill,CHT,1.0,55.5367340174025,-1.70637532341525,55.94910381337705,-3.203339129953465,1.5527232485918003
Cheadle Hulme,CHU,1.0,53.3759306424827,-2.1883029825707,55.94910381337705,-3.203339129953465,2.7661378396428713
Cheam,CHE,2.0,51.3554775610295,-0.214167523240628,55.94910381337705,-3.203339129953465,5.480561015136569
Cheddington,CED,1.0,51.8579176369762,-0.662151871991779,55.94910381337705,-3.203339129953465,4.816164138606601
Chelford (Cheshire),CEL,1.0,53.2703118842523,-2.28057730967718,55.94910381337705,-3.203339129953465,2.8332694147404154
Chelmsford,CHM,2.0,51.736370182895,0.468572080657349,55.94910381337705,-3.203339129953465,5.588385865346436
Chelsfield,CLD,2.0,51.3562540463622,0.109069814712519,55.94910381337705,-3.203339129953465,5.662713307158641
Cheltenham Spa,CNM,0.0,51.897399026527,-2.09962021886949,55.94910381337705,-3.203339129953465,4.199346034142462
Chepstow,CPW,1.0,51.6401819017246,-2.67190561030381,55.94910381337705,-3.203339129953465,4.341569949514324
Cherry Tree,CYT,1.0,53.7328728448942,-2.51837919025585,55.94910381337705,-3.203339129953465,2.3196658864269613
Chertsey,CHY,2.0,51.387067986648,-0.509316626293664,55.94910381337705,-3.203339129953465,5.298106089404481
Cheshunt,CHN,2.0,51.7028745312854,-0.0239597248580568,55.94910381337705,-3.203339129953465,5.304612758499661
Chessington North,CSN,2.0,51.3640398492818,-0.300699137972596,55.94910381337705,-3.203339129953465,5.426613168256194
Chessington South,CSS,2.0,51.3565491107847,-0.308157574149904,55.94910381337705,-3.203339129953465,5.428962602318076
Chester,CTR,1.0,53.1966981459934,-2.879593999182,55.94910381337705,-3.203339129953465,2.771380137683003
Chester Road,CRD,1.0,52.5356474587434,-1.83247949958833,55.94910381337705,-3.203339129953465,3.6784426611208305
Chesterfield,CHD,0.0,53.2382208069527,-1.42011597140436,55.94910381337705,-3.203339129953465,3.2448068521417706
Chester-le-Street,CLS,1.0,54.854595364494,-1.57801542177952,55.94910381337705,-3.203339129953465,1.9594963386106845
Chestfield & Swalecliffe,CSW,2.0,51.360237745381,1.06693052184082,55.94910381337705,-3.203339129953465,6.268404477140959
Chetnole,CNO,1.0,50.8663655335093,-2.57292595204148,55.94910381337705,-3.203339129953465,5.121684214837736
Chichester,CCH,2.0,50.8320529892616,-0.781748952807999,55.94910381337705,-3.203339129953465,5.661122514363034
Chilham,CIL,2.0,51.2446076985827,0.975895539359203,55.94910381337705,-3.203339129953465,6.29271691046881
Chilworth,CHL,1.0,51.2152123162868,-0.524824137256049,55.94910381337705,-3.203339129953465,5.439133319962675
Chingford,CHI,2.0,51.6330849559396,0.00989703968061354,55.94910381337705,-3.203339129953465,5.380790412160684
Chinley,CLY,1.0,53.3402914179345,-1.94394095141586,55.94910381337705,-3.203339129953465,2.896892453426348
Chippenham,CPM,2.0,51.4624897217942,-2.11539415452921,55.94910381337705,-3.203339129953465,4.61663625124838
Chipstead,CHP,2.0,51.3092758788923,-0.169503225609274,55.94910381337705,-3.203339129953465,5.543659761936419
Chirk,CRK,2.0,52.9330904882563,-3.06564362624753,55.94910381337705,-3.203339129953465,3.019154919683117
Chislehurst,CIT,2.0,51.4055547408408,0.0574179687488035,55.94910381337705,-3.203339129953465,5.592528500712559
Chiswick,CHK,2.0,51.4811353508269,-0.267835206320324,55.94910381337705,-3.203339129953465,5.34601959106103
Cholsey,CHO,2.0,51.5702025135637,-1.15802300516055,55.94910381337705,-3.203339129953465,4.833021274921616
Chorley,CRL,1.0,53.6525386748143,-2.62684103630161,55.94910381337705,-3.203339129953465,2.367817874678278
Chorleywood,CLW,2.0,51.6542477676637,-0.518320062534133,55.94910381337705,-3.203339129953465,5.065087940579701
Christchurch,CHR,2.0,50.7382153631909,-1.78454614689707,55.94910381337705,-3.203339129953465,5.400586261606554
Christs Hospital,CHH,2.0,51.0506848896206,-0.363556339669494,55.94910381337705,-3.203339129953465,5.662055655732142
Church & Oswaldtwistle,CTW,1.0,53.7505227746877,-2.39121218921604,55.94910381337705,-3.203339129953465,2.343780866795328
Church Fenton,CHF,1.0,53.8266010051519,-1.22758889955301,55.94910381337705,-3.203339129953465,2.8997598424440425
Church Stretton,CTT,1.0,52.5374242388884,-2.80369477152189,55.94910381337705,-3.203339129953465,3.435007006136851
Cilmeri,CIM,1.0,52.1505334866855,-3.45654171112508,55.94910381337705,-3.203339129953465,3.806999878373198
City Thameslink,CTK,2.0,51.5139346019675,-0.103589643870664,55.94910381337705,-3.203339129953465,5.411023268320495
Clacton-on-Sea,CLT,2.0,51.7939991870545,1.15409160775521,55.94910381337705,-3.203339129953465,6.020971440690896
Clandon,CLA,2.0,51.2640043702166,-0.502766109156909,55.94910381337705,-3.203339129953465,5.407702971961074
Clapham (North Yorkshire),CPY,1.0,54.1053880706421,-2.4103762733162,55.94910381337705,-3.203339129953465,2.007007182850879
Clapham High Street,CLP,2.0,51.465479417202,-0.132521686185382,55.94910381337705,-3.203339129953465,5.434409581447322
Clapham Junction,CLJ,1.0,51.4641865965587,-0.170293416365599,55.94910381337705,-3.203339129953465,5.414226513771603
Clapton,CPT,2.0,51.5616423238882,-0.0570246574503497,55.94910381337705,-3.203339129953465,5.398991857896275
Clarbeston Road,CLR,1.0,51.8516714049905,-4.8835490247474,55.94910381337705,-3.203339129953465,4.428550285574262
Clarkston,CKS,2.0,55.7893535486702,-4.27564475472092,55.94910381337705,-3.203339129953465,1.0841399817282966
Claverdon,CLV,2.0,52.277091521558,-1.69656001384624,55.94910381337705,-3.203339129953465,3.969138140202111
Claygate,CLG,2.0,51.3612128745663,-0.34824779526903,55.94910381337705,-3.203339129953465,5.403729248936511
Cleethorpes,CLE,1.0,53.5619045675724,-0.0292209300100191,55.94910381337705,-3.203339129953465,3.9716176284207574
Cleland,CEA,0.0,55.804652232152,-3.91024482718574,55.94910381337705,-3.203339129953465,0.7215136340346352
Clifton (Manchester),CLI,1.0,53.522491666707,-2.31474664635258,55.94910381337705,-3.203339129953465,2.584190997639035
Clifton Down,CFN,2.0,51.4645471476911,-2.61174122454121,55.94910381337705,-3.203339129953465,4.52340983876505
Clitheroe,CLH,2.0,53.8734683464237,-2.39433664531423,55.94910381337705,-3.203339129953465,2.2277225167931283
Clock House,CLK,2.0,51.4085847718765,-0.0406570648343016,55.94910381337705,-3.203339129953465,5.533432118609165
Clunderwen,CUW,1.0,51.840545791914,-4.73184301881061,55.94910381337705,-3.203339129953465,4.383671195924686
Clydebank,CYK,0.0,55.9006964941048,-4.40441492241242,55.94910381337705,-3.203339129953465,1.2020508840269752
Coatbridge Central,CBC,1.0,55.8625102963699,-4.0318976496868,55.94910381337705,-3.203339129953465,0.8330712201308863
Coatbridge Sunnyside,CBS,0.0,55.8668386609231,-4.02828798060081,55.94910381337705,-3.203339129953465,0.829040506545155
Coatdyke,COA,0.0,55.8643447692187,-4.00498525207608,55.94910381337705,-3.203339129953465,0.8061145084172989
Cobham & Stoke d'Abernon,CSD,2.0,51.3180996661306,-0.389346373427882,55.94910381337705,-3.203339129953465,5.418925598824205
Codsall,CSL,1.0,52.6272899571536,-2.20176310096144,55.94910381337705,-3.203339129953465,3.469524727862527
Cogan,CGN,2.0,51.4459958120536,-3.18909039001181,55.94910381337705,-3.203339129953465,4.503130544207349
Colchester,COL,1.0,51.90071062168,0.89259805805851,55.94910381337705,-3.203339129953465,5.759009366437815
Colchester Town,CET,2.0,51.8864527052257,0.9047624659822,55.94910381337705,-3.203339129953465,5.777684029876724
Coleshill Parkway,CEH,1.0,52.5165275432713,-1.70817740730361,55.94910381337705,-3.203339129953465,3.7440737742424863
Collingham,CLM,1.0,53.1440857576614,-0.750393934928215,55.94910381337705,-3.203339129953465,3.7262670895533323
Collington,CLL,2.0,50.8392865411482,0.457861387933257,55.94910381337705,-3.203339129953465,6.286065684332476
Colne,CNE,1.0,53.8547444008362,-2.18185934114806,55.94910381337705,-3.203339129953465,2.330185037252702
Colwall,CWL,1.0,52.0798705537891,-2.35695037506955,55.94910381337705,-3.203339129953465,3.960724673780739
Colwyn Bay,CWB,1.0,53.2963632033856,-3.72541732837559,55.94910381337705,-3.203339129953465,2.7036268953325435
Combe (Oxon),CME,1.0,51.8325940324182,-1.39407333584626,55.94910381337705,-3.203339129953465,4.496564854470161
Commondale,COM,1.0,54.4812740872027,-0.975148019682156,55.94910381337705,-3.203339129953465,2.6682128342643807
Congleton,CNG,1.0,53.1578561862417,-2.19258027037562,55.94910381337705,-3.203339129953465,2.968618666687222
Conisbrough,CNS,1.0,53.4893094105923,-1.23433150755602,55.94910381337705,-3.203339129953465,3.150806170019101
Connel Ferry,CON,1.0,56.4523594657108,-5.38544247761732,55.94910381337705,-3.203339129953465,2.2393841277216535
Conon Bridge,CBD,1.0,57.5617567994351,-4.44040638557,55.94910381337705,-3.203339129953465,2.0324824841460694
Cononley,CEY,1.0,53.9175717411782,-2.01206789209741,55.94910381337705,-3.203339129953465,2.355047711303457
Conway Park,CNP,2.0,53.3933615887328,-3.02267129068915,55.94910381337705,-3.203339129953465,2.56212005709607
Conwy,CNW,1.0,53.280106240192,-3.83052500023981,55.94910381337705,-3.203339129953465,2.7416984082051292
Cooden Beach,COB,2.0,50.8333700419813,0.426858738350685,55.94910381337705,-3.203339129953465,6.2728835939174745
Cookham,COO,2.0,51.557462203665,-0.722079072881563,55.94910381337705,-3.203339129953465,5.044122074154702
Cooksbridge,CBR,2.0,50.9037547738731,-0.0092027514388362,55.94910381337705,-3.203339129953465,5.971436521891022
Coombe Junction Halt,COE,2.0,50.4459252926848,-4.48185232237372,55.94910381337705,-3.203339129953465,5.6497406855360355
Copplestone,COP,1.0,50.8144709700958,-3.75157247453534,55.94910381337705,-3.203339129953465,5.163817796496498
Corbridge,CRB,1.0,54.9662625268169,-2.01840032187859,55.94910381337705,-3.203339129953465,1.5394989358389048
Corby,COR,2.0,52.4888508478421,-0.6883354035657,55.94910381337705,-3.203339129953465,4.277685627677395
Corkerhill,CKH,1.0,55.8375061471062,-4.33429351905428,55.94910381337705,-3.203339129953465,1.136447037632418
Corkickle,CKL,1.0,54.5416834476749,-3.58216474823985,55.94910381337705,-3.203339129953465,1.4575118987038285
Corpach,CPA,1.0,56.8428332781627,-5.12195790866533,55.94910381337705,-3.203339129953465,2.116565702795888
Corrour,CRR,1.0,56.7602193492772,-4.69060138585505,55.94910381337705,-3.203339129953465,1.6940653560025538
Coryton,COY,2.0,51.5204395971461,-3.23181845626842,55.94910381337705,-3.203339129953465,4.4287557860139275
Coseley,CSY,1.0,52.5450842204875,-2.08577774384501,55.94910381337705,-3.203339129953465,3.582777252425354
Cosford,COS,1.0,52.6448359469502,-2.30027497544232,55.94910381337705,-3.203339129953465,3.4254504813621174
Cosham,CSA,2.0,50.8419241447189,-1.06732879438891,55.94910381337705,-3.203339129953465,5.535867079473075
Cottingham,CGM,1.0,53.7816479755855,-0.406433983012819,55.94910381337705,-3.203339129953465,3.5384379618356667
Cottingley,COT,1.0,53.7678175756796,-1.58770821538294,55.94910381337705,-3.203339129953465,2.714456281262287
Coulsdon South,CDS,1.0,51.3158366640872,-0.137887293899879,55.94910381337705,-3.203339129953465,5.555552127003471
Coulsdon Town,CDN,2.0,51.3220411523246,-0.134464231082376,55.94910381337705,-3.203339129953465,5.552269987512027
Coventry,COV,0.0,52.4008144382941,-1.51345977599177,55.94910381337705,-3.203339129953465,3.930146272121759
Coventry Arena,CAA,1.0,52.4477337100526,-1.49412470531811,55.94910381337705,-3.203339129953465,3.8962811179169066
Cowden (Kent),CWN,2.0,51.1556353416943,0.110032723034128,55.94910381337705,-3.203339129953465,5.827158228947194
Cowdenbeath,COW,0.0,56.1120953327991,-3.34318635187069,55.94910381337705,-3.203339129953465,0.21476377925868728
Cradley Heath,CRA,2.0,52.4696552938033,-2.09048839521938,55.94910381337705,-3.203339129953465,3.6530807215502583
Craigendoran,CGD,0.0,55.9948018624344,-4.71124492675969,55.94910381337705,-3.203339129953465,1.508598092180109
Cramlington,CRM,1.0,55.0877690033603,-1.59859511992401,55.94910381337705,-3.203339129953465,1.8212910236071573
Cranbrook (Devon),CBK,2.0,50.7500952464281,-3.42041599201744,55.94910381337705,-3.203339129953465,5.203538454095645
Craven Arms,CRV,1.0,52.4425417003323,-2.83742232035607,55.94910381337705,-3.203339129953465,3.5256024966219326
Crawley,CRW,1.0,51.1122123903253,-0.186672935434113,55.94910381337705,-3.203339129953465,5.700508185025917
Crayford,CRY,2.0,51.4482779041524,0.178936075571555,55.94910381337705,-3.203339129953465,5.630028368583699
Crediton,CDI,1.0,50.7833069483759,-3.64677829535681,55.94910381337705,-3.203339129953465,5.184794648187072
Cressing (Essex),CES,2.0,51.8523340604127,0.577961040362359,55.94910381337705,-3.203339129953465,5.57510119969441
Cressington,CSG,2.0,53.3587520488864,-2.91200333610422,55.94910381337705,-3.203339129953465,2.6066834883770578
Creswell,CWD,2.0,53.264112781138,-1.21639486472377,55.94910381337705,-3.203339129953465,3.340228189260919
Crewe,CRE,0.0,53.0896271575516,-2.4329691730368,55.94910381337705,-3.203339129953465,2.9614315146108825
Crewkerne,CKN,1.0,50.8735384311373,-2.77849644743115,55.94910381337705,-3.203339129953465,5.0933147609669005
Crews Hill,CWH,1.0,51.684484296328,-0.106887096068869,55.94910381337705,-3.203339129953465,5.270198746095228
Crianlarich,CNR,1.0,56.3904817962502,-4.61843468589525,55.94910381337705,-3.203339129953465,1.4823326064724334
Criccieth,CCC,1.0,52.9184156772103,-4.23751289496718,55.94910381337705,-3.203339129953465,3.2022782444604254
Cricklewood,CRI,2.0,51.5584516063089,-0.21267663535896,55.94910381337705,-3.203339129953465,5.312427783980376
Croftfoot,CFF,2.0,55.8182615046635,-4.2283256121718,55.94910381337705,-3.203339129953465,1.0333039235770909
Crofton Park,CFT,2.0,51.4551875557246,-0.0365030454664447,55.94910381337705,-3.203339129953465,5.497648053195302
Cromer,CMR,2.0,52.930080690008,1.29282430287158,55.94910381337705,-3.203339129953465,5.415716594700107
Cromford,CMF,1.0,53.1129329746475,-1.5491620139343,55.94910381337705,-3.203339129953465,3.2833164571240108
Crookston,CKT,1.0,55.842318324364,-4.3646760010174,55.94910381337705,-3.203339129953465,1.1662360261783744
Cross Gates,CRG,1.0,53.8049143949973,-1.45158048553366,55.94910381337705,-3.203339129953465,2.7687915432894576
Crossflatts,CFL,1.0,53.85846717734,-1.84488619236594,55.94910381337705,-3.203339129953465,2.4932219972518443
Crosshill,COI,1.0,55.833290292641,-4.25681226287329,55.94910381337705,-3.203339129953465,1.0598199910216783
Crosskeys,CKY,2.0,51.6209052713811,-3.12617046220163,55.94910381337705,-3.203339129953465,4.328886418262609
Crossmyloof,CMY,2.0,55.8339508036377,-4.28431839013047,55.94910381337705,-3.203339129953465,1.0870953852283876
Croston,CSO,1.0,53.6675629248262,-2.7777501372441,55.94910381337705,-3.203339129953465,2.3208952619290635
Crouch Hill,CRH,2.0,51.5713003694514,-0.117148819750171,55.94910381337705,-3.203339129953465,5.35627983066979
Crowborough,COH,2.0,51.0463795309772,0.188012411090755,55.94910381337705,-3.203339129953465,5.961373219668112
Crowhurst,CWU,2.0,50.8885767869689,0.501336510177375,55.94910381337705,-3.203339129953465,6.271646943473954
Crowle,CWE,1.0,53.5897328427991,-0.81735865187716,55.94910381337705,-3.203339129953465,3.3555229426375806
Crowthorne,CRN,1.0,51.366727169526,-0.819273411974494,55.94910381337705,-3.203339129953465,5.165456906581856
Croy,CRO,0.0,55.9556821274184,-4.0359768431357,55.94910381337705,-3.203339129953465,0.8326636989979616
Crystal Palace,CYP,2.0,51.4181074460731,-0.072609878955063,55.94910381337705,-3.203339129953465,5.5073944586872114
Cuddington,CUD,1.0,53.2399218257185,-2.59930662534034,55.94910381337705,-3.203339129953465,2.775702128990565
Cuffley,CUF,1.0,51.7087202077633,-0.10978341309134,55.94910381337705,-3.203339129953465,5.248898941310284
Culham,CUM,1.0,51.6537935596445,-1.23651383491957,55.94910381337705,-3.203339129953465,4.724202781105524
Culrain,CUA,1.0,57.9195183107936,-4.40427167605383,55.94910381337705,-3.203339129953465,2.3075468081736537
Cumbernauld,CUB,0.0,55.9420305501203,-3.98033519205288,55.94910381337705,-3.203339129953465,0.7770282566104642
Cupar,CUP,0.0,56.3169904139478,-3.00875666756718,55.94910381337705,-3.203339129953465,0.4161765076837132
Curriehill,CUH,0.0,55.9005690535793,-3.3187519699346,55.94910381337705,-3.203339129953465,0.12520282161811175
Cuxton,CUX,2.0,51.3739241251142,0.46170858180193,55.94910381337705,-3.203339129953465,5.862153521474545
Cwmbach,CMH,2.0,51.7019311514616,-3.41372372042933,55.94910381337705,-3.203339129953465,4.252380191849227
Cwmbran,CWM,1.0,51.656589162343,-3.01620383997003,55.94910381337705,-3.203339129953465,4.296591864035858
Cynghordy,CYN,1.0,52.0515022362178,-3.7482113284355,55.94910381337705,-3.203339129953465,3.935502987796213
Dagenham Dock,DDK,2.0,51.5260877297843,0.146102888033722,55.94910381337705,-3.203339129953465,5.548137805388238
Daisy Hill,DSY,2.0,53.5394553429484,-2.51586138257427,55.94910381337705,-3.203339129953465,2.5057995538711197
Dalgety Bay,DAG,0.0,56.0420983541516,-3.36772120470528,55.94910381337705,-3.203339129953465,0.18886357804929
Dalmally,DAL,1.0,56.4011953995722,-4.98355341151622,55.94910381337705,-3.203339129953465,1.836722540447643
Dalmarnock,DAK,1.0,55.8420903351636,-4.2177095618254,55.94910381337705,-3.203339129953465,1.019999636066306
Dalmeny,DAM,0.0,55.9863224095627,-3.38162023146767,55.94910381337705,-3.203339129953465,0.18212461409471548
Dalmuir,DMR,0.0,55.9119346513924,-4.42668195442919,55.94910381337705,-3.203339129953465,1.2239073546632875
Dalreoch,DLR,0.0,55.9474206110829,-4.57786407515961,55.94910381337705,-3.203339129953465,1.374525975805448
Dalry,DLY,0.0,55.7062259599313,-4.71108082709015,55.94910381337705,-3.203339129953465,1.5271786657032063
Dalston (Cumbria),DLS,1.0,54.8461793005894,-2.98885243258072,55.94910381337705,-3.203339129953465,1.1235866785690134
Dalston Junction,DLJ,2.0,51.5461140533343,-0.075137571913028,55.94910381337705,-3.203339129953465,5.401107647026482
Dalston Kingsland,DLK,2.0,51.548146614991,-0.0757008270787684,55.94910381337705,-3.203339129953465,5.399124523071766
Dalton (Cumbria),DLT,1.0,54.1542402484565,-3.17900332996882,55.94910381337705,-3.203339129953465,1.7950285367760002
Dalwhinnie,DLW,0.0,56.9351747606959,-4.24619941232607,55.94910381337705,-3.203339129953465,1.4352329015517185
Danby,DNY,1.0,54.4661531404483,-0.910955849347219,55.94910381337705,-3.203339129953465,2.7302314560386436
Danescourt,DCT,2.0,51.5005094348701,-3.2339173943314,55.94910381337705,-3.203339129953465,4.448699470040209
Danzey,DZY,2.0,52.3248139247282,-1.82087736085094,55.94910381337705,-3.203339129953465,3.8790047357527677
Darlington,DAR,0.0,54.5204487638895,-1.5473239913848,55.94910381337705,-3.203339129953465,2.1871079967836238
Darnall,DAN,1.0,53.3845848539264,-1.4125672166063,55.94910381337705,-3.203339129953465,3.127878120869629
Darsham,DSM,2.0,52.2729949292624,1.52346982245693,55.94910381337705,-3.203339129953465,5.988029675983052
Dartford,DFD,2.0,51.4473686091583,0.219247795125754,55.94910381337705,-3.203339129953465,5.65506154773099
Darton,DRT,1.0,53.5883685698073,-1.53165757467506,55.94910381337705,-3.203339129953465,2.8926787088251524
Darwen,DWN,2.0,53.6980382551398,-2.46494001713562,55.94910381337705,-3.203339129953465,2.3690777524792566
Datchet,DAT,2.0,51.4830761133821,-0.579421910690656,55.94910381337705,-3.203339129953465,5.179801636227596
Davenport,DVN,1.0,53.3909022414929,-2.15295802817964,55.94910381337705,-3.203339129953465,2.765446752579792
Dawlish,DWL,1.0,50.5808243984253,-3.46462586729764,55.94910381337705,-3.203339129953465,5.374634372318425
Dawlish Warren,DWW,1.0,50.5987145190544,-3.44356213176095,55.94910381337705,-3.203339129953465,5.355779372920421
Deal,DEA,2.0,51.2230404404227,1.39884675211659,55.94910381337705,-3.203339129953465,6.596649899631295
Dean (Wilts),DEN,2.0,51.0424618999667,-1.63486720856804,55.94910381337705,-3.203339129953465,5.151236651000382
Deansgate,DGT,1.0,53.4741857640751,-2.25105124318295,55.94910381337705,-3.203339129953465,2.6518053416588505
Deganwy,DGY,1.0,53.2947519812566,-3.83338710286836,55.94910381337705,-3.203339129953465,2.7281026551168015
Deighton,DHN,1.0,53.6684837829464,-1.75189659292689,55.94910381337705,-3.203339129953465,2.703315216820197
Delamere,DLM,1.0,53.2287779256449,-2.66656070710605,55.94910381337705,-3.203339129953465,2.772779113218411
Denby Dale,DBD,2.0,53.5726320929315,-1.66321052492305,55.94910381337705,-3.203339129953465,2.8318922928159482
Denham,DNM,2.0,51.578836362709,-0.497436854492594,55.94910381337705,-3.203339129953465,5.140150261880771
Denham Golf Club,DGC,2.0,51.580596815156,-0.51778668246761,55.94910381337705,-3.203339129953465,5.127966979388963
Denmark Hill,DMK,2.0,51.4682011118168,-0.0893608845630425,55.94910381337705,-3.203339129953465,5.4566793504488365
Dent,DNT,1.0,54.2824108456213,-2.36359889232972,55.94910381337705,-3.203339129953465,1.866287522181632
Denton,DTN,2.0,53.4568674739172,-2.13165979003999,55.94910381337705,-3.203339129953465,2.712883812352018
Deptford,DEP,2.0,51.4788463642079,-0.026270214115525,55.94910381337705,-3.203339129953465,5.484247310054131
Derby,DBY,0.0,52.9165485818253,-1.46335478012848,55.94910381337705,-3.203339129953465,3.4962746988827615
Derby Road (Ipswich),DBR,2.0,52.050551175491,1.18264326424955,55.94910381337705,-3.203339129953465,5.868181509856957
Devonport (Devon),DPT,1.0,50.3785384996853,-4.17071080992923,55.94910381337705,-3.203339129953465,5.653937201749311
Devonport Dockyard,DOC,1.0,50.3821742019037,-4.1758986568326,55.94910381337705,-3.203339129953465,5.651245644317912
Dewsbury,DEW,1.0,53.6921323675954,-1.63310655566078,55.94910381337705,-3.203339129953465,2.749463664870578
Didcot Parkway,DID,1.0,51.6109546860743,-1.24289356096081,55.94910381337705,-3.203339129953465,4.760555081048905
Digby & Sowton,DIG,1.0,50.713993328666,-3.47356109719659,55.94910381337705,-3.203339129953465,5.242079901977107
Dilton Marsh,DMH,1.0,51.2489890910928,-2.20791557793657,55.94910381337705,-3.203339129953465,4.80436743500568
Dinas (Rhondda),DMG,2.0,51.6178378851192,-3.43754173872447,55.94910381337705,-3.203339129953465,4.33759327314612
Dinas Powys,DNS,2.0,51.4316678020878,-3.21835212130232,55.94910381337705,-3.203339129953465,4.517460957883549
Dingle Road,DGL,2.0,51.4400570944876,-3.18059109298652,55.94910381337705,-3.203339129953465,4.50910410018593
Dingwall,DIN,1.0,57.59424066943,-4.42219986587001,55.94910381337705,-3.203339129953465,2.0474610542578846
Dinsdale,DND,1.0,54.5147295901116,-1.46706513570219,55.94910381337705,-3.203339129953465,2.2521271712498034
Dinting,DTG,1.0,53.4493321635491,-1.97029878612479,55.94910381337705,-3.203339129953465,2.7873368635298967
Disley,DSL,1.0,53.3581843467523,-2.04248177088045,55.94910381337705,-3.203339129953465,2.8390937798264146
Diss,DIS,2.0,52.3736543722193,1.12369734579394,55.94910381337705,-3.203339129953465,5.613117081330462
Dodworth,DOD,2.0,53.5443255754093,-1.53169088048623,55.94910381337705,-3.203339129953465,2.928714093890036
Dolau,DOL,1.0,52.29535399865,-3.26362091602153,55.94910381337705,-3.203339129953465,3.654247063671189
Doleham,DLH,2.0,50.9185854757412,0.609974730800684,55.94910381337705,-3.203339129953465,6.312485829363123
Dolgarrog,DLG,2.0,53.1863525124092,-3.82263691779208,55.94910381337705,-3.203339129953465,2.831311445429723
Dolwyddelan,DWD,2.0,53.0520169904365,-3.88513298649778,55.94910381337705,-3.203339129953465,2.97623166478642
Doncaster,DON,0.0,53.5221497040669,-1.13984532561563,55.94910381337705,-3.203339129953465,3.185610291488597
Dorchester South,DCH,1.0,50.7092941817416,-2.43724302167314,55.94910381337705,-3.203339129953465,5.295517748332255
Dorchester West,DCW,2.0,50.7109558301461,-2.44254130185048,55.94910381337705,-3.203339129953465,5.293109448091236
Dore & Totley,DOR,1.0,53.3276351284421,-1.51529775653157,55.94910381337705,-3.203339129953465,3.1179451156937756
Dorking (Main),DKG,2.0,51.2409286574082,-0.324250782074152,55.94910381337705,-3.203339129953465,5.518701207184238
Dorking Deepdene,DPD,2.0,51.2388030074627,-0.324643185528021,55.94910381337705,-3.203339129953465,5.520310138266589
Dorking West,DKT,2.0,51.2362248191187,-0.339978560509645,55.94910381337705,-3.203339129953465,5.514531908074084
Dormans,DMS,2.0,51.1557900843982,-0.00430826569700688,55.94910381337705,-3.203339129953465,5.762781878128181
Dorridge,DDG,2.0,52.3720695979365,-1.7529004491151,55.94910381337705,-3.203339129953465,3.8599153028666984
Dove Holes,DVH,1.0,53.3000293384446,-1.88975176117671,55.94910381337705,-3.203339129953465,2.9568745913799694
Dover Priory,DVP,2.0,51.1256965964877,1.30529347028767,55.94910381337705,-3.203339129953465,6.60250142778458
Dovercourt,DVC,2.0,51.9387345600673,1.28061089295205,55.94910381337705,-3.203339129953465,6.01571852365173
Dovey Junction,DVY,1.0,52.5643635350253,-3.92390297461625,55.94910381337705,-3.203339129953465,3.460589401551691
Downham Market,DOW,2.0,52.6041065863828,0.365681057551921,55.94910381337705,-3.203339129953465,4.891514238701572
Drayton Green,DRG,2.0,51.516615460614,-0.33019425245541,55.94910381337705,-3.203339129953465,5.282226281074432
Drayton Park,DYP,2.0,51.5527683445258,-0.105509008966857,55.94910381337705,-3.203339129953465,5.378133227540149
Drem,DRM,0.0,56.0051254677484,-2.78604825861367,55.94910381337705,-3.203339129953465,0.42103455566262993
Driffield,DRF,1.0,54.0015272627459,-0.434665009990613,55.94910381337705,-3.203339129953465,3.3850569866872835
Drigg,DRI,1.0,54.3769633209494,-3.44341362306065,55.94910381337705,-3.203339129953465,1.5903652065394682
Droitwich Spa,DTW,1.0,52.2682048110456,-2.15836341611519,55.94910381337705,-3.203339129953465,3.8263548852499922
Dronfield,DRO,1.0,53.301369608262,-1.46877868224617,55.94910381337705,-3.203339129953465,3.16531141717316
Drumchapel,DMC,0.0,55.9048173082117,-4.36287986166729,55.94910381337705,-3.203339129953465,1.1603861439379537
Drumfrochar,DFR,1.0,55.941253590074,-4.7747672712099,55.94910381337705,-3.203339129953465,1.5714477494140748
Drumgelloch,DRU,0.0,55.8673580650901,-3.94888294626481,55.94910381337705,-3.203339129953465,0.7500119661732587
Drumry,DMY,0.0,55.9045972303031,-4.38547328830428,55.94910381337705,-3.203339129953465,1.1829716836326678
Dublin Ferryport,DFP,2.0,nan,nan,55.94910381337705,-3.203339129953465,nan
Dublin Port - Stena,DPS,2.0,nan,nan,55.94910381337705,-3.203339129953465,nan
Duddeston,DUD,1.0,52.4883642047734,-1.87139067866748,55.94910381337705,-3.203339129953465,3.7082078306698643
Dudley Port,DDP,1.0,52.5246530129006,-2.04947980373852,55.94910381337705,-3.203339129953465,3.61362070914713
Duffield,DFI,1.0,52.9884014400862,-1.48597186949023,55.94910381337705,-3.203339129953465,3.4227341191686316
Duirinish,DRN,1.0,57.319983293958,-5.69131781581449,55.94910381337705,-3.203339129953465,2.8406598690404063
Duke Street,DST,1.0,55.8584414373244,-4.2130485563449,55.94910381337705,-3.203339129953465,1.0137715680444148
Dullingham,DUL,2.0,52.2016485756332,0.366663821056869,55.94910381337705,-3.203339129953465,5.175745533651776
Dumbarton Central,DBC,0.0,55.9466604798905,-4.566921701259,55.94910381337705,-3.203339129953465,1.3635847603455902
Dumbarton East,DBE,0.0,55.9422524714118,-4.55413782204535,55.94910381337705,-3.203339129953465,1.3508160672141383
Dumbreck,DUM,1.0,55.8446540909046,-4.30124003607443,55.94910381337705,-3.203339129953465,1.1028581704760623
Dumfries,DMF,1.0,55.072560279693,-3.60430398071058,55.94910381337705,-3.203339129953465,0.9638990496862191
Dumpton Park,DMP,2.0,51.3456955683759,1.42581850787212,55.94910381337705,-3.203339129953465,6.528435333675558
Dunbar,DUN,0.0,55.9982961094783,-2.51334649990357,55.94910381337705,-3.203339129953465,0.6917439638470899
Dunblane,DBL,0.0,56.1858943626205,-3.96548684337943,55.94910381337705,-3.203339129953465,0.7980845201427242
Duncraig,DCG,1.0,57.3370088020812,-5.63713233286221,55.94910381337705,-3.203339129953465,2.801719045906401
Dundee,DEE,0.0,56.4564890772048,-2.97120503713119,55.94910381337705,-3.203339129953465,0.5579659873146178
Dunfermline Queen Margaret,DFL,0.0,56.0805782860466,-3.42146840922136,55.94910381337705,-3.203339129953465,0.2546878863190554
Dunfermline Town,DFE,0.0,56.068193893139,-3.45252931740364,55.94910381337705,-3.203339129953465,0.2761850767495595
Dunkeld & Birnam,DKD,0.0,56.5570605801315,-3.57839962708896,55.94910381337705,-3.203339129953465,0.7143401197987181
Dunlop,DNL,1.0,55.7118854515322,-4.53238991249355,55.94910381337705,-3.203339129953465,1.3500550113853764
Dunrobin Castle,DNO,-999.0,57.9855381206844,-3.94892170714185,55.94910381337705,-3.203339129953465,2.1686304589268435
Dunston,DOT,1.0,54.9500563207881,-1.64204458851339,55.94910381337705,-3.203339129953465,1.8535739903167725
Dunton Green,DNG,2.0,51.2964882631909,0.170937116397448,55.94910381337705,-3.203339129953465,5.7473969450980125
Durham,DHM,0.0,54.7793912284615,-1.58175210120156,55.94910381337705,-3.203339129953465,1.9994429281993154
Durrington-on-Sea,DUR,2.0,50.8175268119417,-0.411468707281776,55.94910381337705,-3.203339129953465,5.84188522470694
Dyce,DYC,0.0,57.2056516865783,-2.19232258891137,55.94910381337705,-3.203339129953465,1.6127823795873095
Dyffryn Ardudwy,DYF,1.0,52.7888563835265,-4.10464455585967,55.94910381337705,-3.203339129953465,3.2862615977193554
Eaglescliffe,EAG,1.0,54.5294320938467,-1.34943715428009,55.94910381337705,-3.203339129953465,2.335041825458358
Ealing Broadway,EAL,2.0,51.5148402459065,-0.301751768794788,55.94910381337705,-3.203339129953465,5.299236039301555
Earlestown,ERL,1.0,53.4511393445328,-2.63766364961555,55.94910381337705,-3.203339129953465,2.561213625737587
Earley,EAR,1.0,51.4410997593376,-0.917988243278776,55.94910381337705,-3.203339129953465,5.054199167668497
Earlsfield,EAD,2.0,51.4423355716453,-0.187714934858848,55.94910381337705,-3.203339129953465,5.422633056986425
Earlswood (Surrey),ELD,2.0,51.2273270225923,-0.170823068766138,55.94910381337705,-3.203339129953465,5.611713617367929
Earlswood (West Midlands),EWD,2.0,52.3665825052423,-1.8611697000963,55.94910381337705,-3.203339129953465,3.8256865660535544
East Croydon,ECR,2.0,51.375452247008,-0.0927797007945513,55.94910381337705,-3.203339129953465,5.531172444688332
East Didsbury,EDY,1.0,53.4093102676041,-2.22199660364924,55.94910381337705,-3.203339129953465,2.722789820952602
East Dulwich,EDW,2.0,51.4614929058056,-0.0805717011574361,55.94910381337705,-3.203339129953465,5.467204776858429
East Farleigh,EFL,2.0,51.2552351625774,0.48472893141574,55.94910381337705,-3.203339129953465,5.969442933494828
East Garforth,EGF,1.0,53.791978068865,-1.37053696173991,55.94910381337705,-3.203339129953465,2.830610405097278
East Grinstead,EGR,2.0,51.1262718897162,-0.0179000957224751,55.94910381337705,-3.203339129953465,5.779855500329111
East Kilbride,EKL,2.0,55.7660084213155,-4.18022795719083,55.94910381337705,-3.203339129953465,0.9938992420639872
East Malling,EML,2.0,51.2858073765709,0.439280267235468,55.94910381337705,-3.203339129953465,5.917348200867176
East Midlands Parkway,EMD,1.0,52.8625009507858,-1.26323198480542,55.94910381337705,-3.203339129953465,3.6457006138753347
East Tilbury,ETL,2.0,51.4848289691417,0.412927781783206,55.94910381337705,-3.203339129953465,5.745183744824357
East Worthing,EWR,2.0,50.8216440311297,-0.354893751833792,55.94910381337705,-3.203339129953465,5.865533640743642
Eastbourne,EBN,2.0,50.769375796356,0.281246925814933,55.94910381337705,-3.203339129953465,6.242749579341491
Eastbrook,EBK,2.0,51.4376389302109,-3.20613799233607,55.94910381337705,-3.203339129953465,4.511465751357533
Easterhouse,EST,0.0,55.8597611434519,-4.10717729312099,55.94910381337705,-3.203339129953465,0.9082431050480921
Eastham Rake,ERA,2.0,53.307541541813,-2.98113292052366,55.94910381337705,-3.203339129953465,2.6508917054568215
Eastleigh,ESL,2.0,50.9692506626551,-1.35008459359062,55.94910381337705,-3.203339129953465,5.313519528458026
Eastrington,EGN,1.0,53.7551607566439,-0.787630411364113,55.94910381337705,-3.203339129953465,3.2632858822444892
Ebbsfleet International,EBD,2.0,51.4429709652907,0.32092083234529,55.94910381337705,-3.203339129953465,5.720632965543659
Ebbw Vale Parkway,EBV,2.0,51.7571470124788,-3.19610327359543,55.94910381337705,-3.203339129953465,4.191963045902761
Ebbw Vale Town,EBB,2.0,51.7766914366017,-3.20257748551815,55.94910381337705,-3.203339129953465,4.172412446291756
Eccles (Manchester),ECC,1.0,53.4853606544673,-2.33451459617625,55.94910381337705,-3.203339129953465,2.6124483580671582
Eccles Road,ECS,1.0,52.470880756208,0.9699171605498,55.94910381337705,-3.203339129953465,5.432688441430035
Eccleston Park,ECL,1.0,53.4307889509427,-2.78004194630839,55.94910381337705,-3.203339129953465,2.553642545862596
Edale,EDL,1.0,53.3649724276593,-1.81662641323107,55.94910381337705,-3.203339129953465,2.9326962299854937
Eden Park,EDN,2.0,51.3900893651293,-0.0263551602667185,55.94910381337705,-3.203339129953465,5.556783231598863
Edenbridge,EBR,2.0,51.2084338014699,0.0606462610283875,55.94910381337705,-3.203339129953465,5.7556539849385215
Edenbridge Town,EBT,2.0,51.2000809020151,0.0671730164326339,55.94910381337705,-3.203339129953465,5.766235193980533
Edge Hill,EDG,1.0,53.4026192646978,-2.94648344109004,55.94910381337705,-3.203339129953465,2.559405868861694
Edinburgh,EDB,-1.0,55.9523963079519,-3.18822824323027,55.94910381337705,-3.203339129953465,0.015465426540727726
Edinburgh Gateway,EGY,0.0,55.9409436079933,-3.32025199802754,55.94910381337705,-3.203339129953465,0.11719730232906851
Edinburgh Park,EDP,0.0,55.9275544602882,-3.30766474611863,55.94910381337705,-3.203339129953465,0.10652797194535002
Edmonton Green,EDR,2.0,51.6249271577681,-0.061112495341183,55.94910381337705,-3.203339129953465,5.345286893346348
Effingham Junction,EFF,2.0,51.2914943131304,-0.419965418267021,55.94910381337705,-3.203339129953465,5.42590964499917
Eggesford,EGG,1.0,50.8877413451847,-3.8747459315936,55.94910381337705,-3.203339129953465,5.105700454170298
Egham,EGH,1.0,51.4296459643391,-0.546512233572854,55.94910381337705,-3.203339129953465,5.242540262750698
Egton,EGT,1.0,54.4374810712663,-0.761464966771902,55.94910381337705,-3.203339129953465,2.8718900994432373
Elephant & Castle,EPH,2.0,51.4940272342536,-0.098725576447673,55.94910381337705,-3.203339129953465,5.430131917593362
Elephant & Castle (Underground),ZEL,-999.0,nan,nan,55.94910381337705,-3.203339129953465,nan
Elgin,ELG,0.0,57.6429130327793,-3.3112465068439,55.94910381337705,-3.203339129953465,1.6972429624892909
Ellesmere Port,ELP,1.0,53.2821939982944,-2.89642303912049,55.94910381337705,-3.203339129953465,2.684512143499514
Elmers End,ELE,2.0,51.3984907228231,-0.0495703490218307,55.94910381337705,-3.203339129953465,5.536635894069611
Elmstead Woods,ESD,2.0,51.4171158227735,0.0442740591944571,55.94910381337705,-3.203339129953465,5.575473663582522
Elmswell,ESW,2.0,52.2380370806758,0.912589403049404,55.94910381337705,-3.203339129953465,5.541920604208352
Elsecar,ELR,1.0,53.4986597288227,-1.42742391502071,55.94910381337705,-3.203339129953465,3.0263098093481857
Elsenham (Essex),ESM,2.0,51.9205434621908,0.228070270071964,55.94910381337705,-3.203339129953465,5.29186819315568
Elstree & Borehamwood,ELS,2.0,51.653068116385,-0.280081540392811,55.94910381337705,-3.203339129953465,5.1962830604917905
Eltham,ELW,2.0,51.4556417308034,0.0524723310748576,55.94910381337705,-3.203339129953465,5.549009799711161
Elton & Orston,ELO,2.0,52.9521360042829,-0.855512437952713,55.94910381337705,-3.203339129953465,3.8071125836278856
Ely,ELY,1.0,52.3912277010784,0.266827583237292,55.94910381337705,-3.203339129953465,4.969963727010741
Emerson Park,EMP,2.0,51.5686403621106,0.220113229215512,55.94910381337705,-3.203339129953465,5.559540098189851
Emsworth,EMS,2.0,50.8516141341351,-0.938429764103964,55.94910381337705,-3.203339129953465,5.5780117842732295
Energlyn & Churchill Park,ECP,2.0,51.5832164323409,-3.22879606589368,55.94910381337705,-3.203339129953465,4.36596159848872
Enfield Chase,ENC,1.0,51.6532525338014,-0.0906963712828411,55.94910381337705,-3.203339129953465,5.304986631400349
Enfield Lock,ENL,2.0,51.6709204354558,-0.0285324658222715,55.94910381337705,-3.203339129953465,5.327499448121373
Enfield Town,ENF,2.0,51.6520239893496,-0.0793276428368423,55.94910381337705,-3.203339129953465,5.312658730400475
Entwistle,ENT,2.0,53.6559786935683,-2.41454505509583,55.94910381337705,-3.203339129953465,2.4249987438405824
Epsom (Surrey),EPS,2.0,51.3343914612577,-0.268777680483958,55.94910381337705,-3.203339129953465,5.468749490835675
Epsom Downs,EPD,2.0,51.3236861855796,-0.2389548499911,55.94910381337705,-3.203339129953465,5.493820382104553
Erdington,ERD,1.0,52.5282854859969,-1.83950909009634,55.94910381337705,-3.203339129953465,3.6826662089519586
Eridge,ERI,2.0,51.0889635853662,0.201431713057724,55.94910381337705,-3.203339129953465,5.934090286585507
Erith,ERH,2.0,51.481668933412,0.175054448859463,55.94910381337705,-3.203339129953465,5.601028260961798
Esher,ESH,2.0,51.3798899750361,-0.353337838372063,55.94910381337705,-3.203339129953465,5.385185462219671
Eskbank,EKB,0.0,55.8818057426337,-3.08307353739981,55.94910381337705,-3.203339129953465,0.137814524191242
Essex Road,EXR,2.0,51.5407037990573,-0.0962760595924929,55.94910381337705,-3.203339129953465,5.393313601994172
Etchingham,ETC,2.0,51.0105437070136,0.442356266553348,55.94910381337705,-3.203339129953465,6.138442053833815
Euxton Balshaw Lane,EBA,1.0,53.6604819715387,-2.67202385840804,55.94910381337705,-3.203339129953465,2.349486295494602
Evesham,EVE,2.0,52.0983985539654,-1.94731370609441,55.94910381337705,-3.203339129953465,4.05037416299295
Ewell East,EWE,2.0,51.3452982319215,-0.241529638967969,55.94910381337705,-3.203339129953465,5.474243444781486
Ewell West,EWW,2.0,51.3500435722978,-0.256986619886036,55.94910381337705,-3.203339129953465,5.461899689179267
Exeter Central,EXC,1.0,50.726488241429,-3.53327709081269,55.94910381337705,-3.203339129953465,5.233027084811445
Exeter St David's,EXD,0.0,50.729278976491,-3.54328686333265,55.94910381337705,-3.203339129953465,5.230882888117655
Exeter St Thomas,EXT,1.0,50.7171518711947,-3.53883698274128,55.94910381337705,-3.203339129953465,5.24269777257195
Exhibition Centre (Glasgow),EXG,1.0,55.8615560763509,-4.28358973053668,55.94910381337705,-3.203339129953465,1.083792400009705
Exmouth,EXM,1.0,50.6216387262065,-3.41497227480739,55.94910381337705,-3.203339129953465,5.331666985382892
Exton,EXN,1.0,50.6683075102992,-3.44409684947275,55.94910381337705,-3.203339129953465,5.286281668063934
Eynsford,EYN,2.0,51.3627183040984,0.204393120925889,55.94910381337705,-3.203339129953465,5.713805311121867
Fairbourne,FRB,1.0,52.6960464630273,-4.04941426648684,55.94910381337705,-3.203339129953465,3.361283275971322
Fairfield,FRF,1.0,53.471295546374,-2.14577519882972,55.94910381337705,-3.203339129953465,2.6940629681658446
Fairlie,FRL,1.0,55.7519484298977,-4.85326868616408,55.94910381337705,-3.203339129953465,1.6616671705525887
Fairwater,FRW,2.0,51.4939101690858,-3.23383998994953,55.94910381337705,-3.203339129953465,4.455298049580257
Falconwood,FCN,2.0,51.4591526356848,0.0793044770026859,55.94910381337705,-3.203339129953465,5.561961041606647
Falkirk Grahamston,FKG,0.0,56.0026177290346,-3.78504688532692,55.94910381337705,-3.203339129953465,0.5841640624264954
Falkirk High,FKK,0.0,55.9918195759738,-3.79224489222847,55.94910381337705,-3.203339129953465,0.5904529051625764
Falls of Cruachan,FOC,-999.0,56.393889401057,-5.11247911920548,55.94910381337705,-3.203339129953465,1.9602677668035515
Falmer,FMR,2.0,50.8621274713423,-0.0873855066246158,55.94910381337705,-3.203339129953465,5.96544175121654
Falmouth Docks,FAL,2.0,50.1507142799667,-5.05602948101336,55.94910381337705,-3.203339129953465,6.087181837112569
Falmouth Town,FMT,2.0,50.1483473407862,-5.06493628645553,55.94910381337705,-3.203339129953465,6.092152298441101
Fareham,FRM,2.0,50.8530338308312,-1.19203724188042,55.94910381337705,-3.203339129953465,5.478618854416782
Farnborough (Main),FNB,2.0,51.296604884603,-0.755725724931643,55.94910381337705,-3.203339129953465,5.25704837933666
Farnborough North,FNN,2.0,51.3020444491095,-0.743026929007782,55.94910381337705,-3.203339129953465,5.258164780714741
Farncombe,FNC,1.0,51.1971531239671,-0.604548878459314,55.94910381337705,-3.203339129953465,5.416156028572733
Farnham,FNH,2.0,51.2119042298562,-0.792427196436538,55.94910381337705,-3.203339129953465,5.31540743925472
Farningham Road,FNR,2.0,51.4016634815392,0.235452055986937,55.94910381337705,-3.203339129953465,5.70127164693342
Farnworth,FNW,1.0,53.5500060922431,-2.38784997242115,55.94910381337705,-3.203339129953465,2.5339085306306677
Farringdon,ZFD,2.0,51.5201655608346,-0.105204669877814,55.94910381337705,-3.203339129953465,5.4049913207647275
Fauldhouse,FLD,0.0,55.8224777300448,-3.71931936502271,55.94910381337705,-3.203339129953465,0.5312906624082325
Faversham,FAV,2.0,51.3117105445912,0.891044848807162,55.94910381337705,-3.203339129953465,6.186226353352422
Faygate,FGT,1.0,51.095889351236,-0.263018670595782,55.94910381337705,-3.203339129953465,5.674431691301992
Fazakerley,FAZ,2.0,53.4690878780859,-2.93672370069026,55.94910381337705,-3.203339129953465,2.494306081141454
Fearn,FRN,1.0,57.7781470089061,-3.99393654949616,55.94910381337705,-3.203339129953465,1.9925971220742784
Featherstone,FEA,1.0,53.6790669195959,-1.35844424440448,55.94910381337705,-3.203339129953465,2.9251845476571883
Felixstowe,FLX,2.0,51.9670684291527,1.35043499148186,55.94910381337705,-3.203339129953465,6.049253222528287
Feltham,FEL,2.0,51.4478973442697,-0.409838240699482,55.94910381337705,-3.203339129953465,5.29759444425455
Feniton,FNT,1.0,50.7866805768598,-3.28541829669429,55.94910381337705,-3.203339129953465,5.163075697929103
Fenny Stratford,FEN,2.0,52.0000683454646,-0.715997362186537,55.94910381337705,-3.203339129953465,4.66709226355216
Fernhill,FER,2.0,51.6864988102667,-3.39588328122109,55.94910381337705,-3.203339129953465,4.266951448367883
Ferriby,FRY,1.0,53.7171537976793,-0.507830473428837,55.94910381337705,-3.203339129953465,3.4996239497940893
Ferryside,FYS,1.0,51.7683725332786,-4.36945917743674,55.94910381337705,-3.203339129953465,4.340316808890338
Ffairfach,FFA,1.0,51.8724792728464,-3.9928602757854,55.94910381337705,-3.203339129953465,4.152374174393791
Filey,FIL,1.0,54.2098572113142,-0.293849397915568,55.94910381337705,-3.203339129953465,3.3897063653982067
Filton Abbey Wood,FIT,1.0,51.5049414768014,-2.56243092363725,55.94910381337705,-3.203339129953465,4.490138327798045
Finchley Road & Frognal,FNY,2.0,51.5502644624917,-0.183140600658463,55.94910381337705,-3.203339129953465,5.335858580514778
Finsbury Park,FPK,1.0,51.5643002449157,-0.106284978884699,55.94910381337705,-3.203339129953465,5.3682629172427525
Finstock,FIN,1.0,51.852782857678,-1.4693431033147,55.94910381337705,-3.203339129953465,4.448211729728948
Fishbourne (Sussex),FSB,2.0,50.839050994238,-0.815084252072113,55.94910381337705,-3.203339129953465,5.6406029089198455
Fishersgate,FSG,2.0,50.8342331969519,-0.219423238635621,55.94910381337705,-3.203339129953465,5.9216260831994925
Fishguard & Goodwick,FGW,1.0,52.0041205147366,-4.99483911549407,55.94910381337705,-3.203339129953465,4.332708786053372
Fishguard Harbour,FGH,1.0,52.0115490590944,-4.98564336378428,55.94910381337705,-3.203339129953465,4.322145974502152
Fiskerton,FSK,1.0,53.060273739149,-0.912187610219373,55.94910381337705,-3.203339129953465,3.6871010949178356
Fitzwilliam,FZW,1.0,53.6325012276325,-1.37427316573517,55.94910381337705,-3.203339129953465,2.9516317252902886
Five Ways,FWY,1.0,52.471096381369,-1.91295451976274,55.94910381337705,-3.203339129953465,3.709666850179446
Fleet,FLE,2.0,51.290634463196,-0.830805697283605,55.94910381337705,-3.203339129953465,5.227834310277296
Flimby,FLM,1.0,54.6896909968798,-3.5207407041013,55.94910381337705,-3.203339129953465,1.2987934407091326
Flint,FLN,1.0,53.249527518706,-3.13299365746619,55.94910381337705,-3.203339129953465,2.7004926691715565
Flitwick,FLT,2.0,52.0036411879386,-0.495257873996204,55.94910381337705,-3.203339129953465,4.78543408873205
Flixton,FLI,2.0,53.443809978016,-2.38424675876937,55.94910381337705,-3.203339129953465,2.6357939058336997
Flowery Field,FLF,1.0,53.4618562073799,-2.08105317397333,55.94910381337705,-3.203339129953465,2.72872248873512
Folkestone Central,FKC,2.0,51.0828838914415,1.16948226479176,55.94910381337705,-3.203339129953465,6.542298012089027
Folkestone West,FKW,2.0,51.084582896074,1.15390330754187,55.94910381337705,-3.203339129953465,6.530629786933971
Ford,FOD,2.0,50.8293930308604,-0.578410029818067,55.94910381337705,-3.203339129953465,5.753406927843264
Forest Gate,FOG,2.0,51.5494301979489,0.0243528171904902,55.94910381337705,-3.203339129953465,5.456658613836177
Forest Hill,FOH,2.0,51.4392784872536,-0.0531571058976325,55.94910381337705,-3.203339129953465,5.501106366616534
Formby,FBY,2.0,53.5534804308434,-3.07090821445518,55.94910381337705,-3.203339129953465,2.3992810044514754
Forres,FOR,0.0,57.6098000095499,-3.62595038813861,55.94910381337705,-3.203339129953465,1.713625435014258
Forsinard,FRS,1.0,58.3569037821129,-3.89688108603807,55.94910381337705,-3.203339129953465,2.5056937431166695
Fort Matilda,FTM,1.0,55.9590370104671,-4.79526871008857,55.94910381337705,-3.203339129953465,1.5919605700247612
Fort William,FTW,1.0,56.8204504611118,-5.10614472047831,55.94910381337705,-3.203339129953465,2.092824430249988
