Name,Code,Changes,lat,lon,terminal lat,terminal lon,linear distance
Abbey Wood,ABW,2.0,51.4910605627019,0.121394025366647,52.62714971818,1.30681996029555,1.641929723342937
Aber,ABE,2.0,51.5749691125956,-3.22982905106563,52.62714971818,1.30681996029555,4.657066488579728
Abercynon,ACY,2.0,51.6447124034837,-3.32698855170195,52.62714971818,1.30681996029555,4.736809517298343
Aberdare,ABA,2.0,51.7150618291708,-3.44308409477462,52.62714971818,1.30681996029555,4.836682008324436
Aberdeen,ABD,1.0,57.1437058328662,-2.09868538622245,52.62714971818,1.30681996029555,5.6565666090192925
Aberdour,AUR,2.0,56.0545955695197,-3.30056061487314,52.62714971818,1.30681996029555,5.742415940029725
Aberdovey,AVY,2.0,52.5439615025967,-4.05706796158074,52.62714971818,1.30681996029555,5.364532963610372
Abererch,ABH,2.0,52.8985884658899,-4.37417647351973,52.62714971818,1.30681996029555,5.687477426309511
Abergavenny,AGV,2.0,51.8166930409601,-3.00964730040687,52.62714971818,1.30681996029555,4.391893627851906
Abergele & Pensarn,AGL,1.0,53.2945771647609,-3.58262268840784,52.62714971818,1.30681996029555,4.934785589203357
Aberystwyth,AYW,2.0,52.4140498933205,-4.08189442746786,52.62714971818,1.30681996029555,5.392926319563761
Accrington,ACR,2.0,53.7529733751372,-2.36954810226505,52.62714971818,1.30681996029555,3.844887649591347
Achanalt,AAT,2.0,57.6096018732679,-4.91385256332031,52.62714971818,1.30681996029555,7.970043671386584
Achnasheen,ACN,2.0,57.5792959197415,-5.07233352893289,52.62714971818,1.30681996029555,8.07572605037933
Achnashellach,ACH,2.0,57.4820809030767,-5.33305678830677,52.62714971818,1.30681996029555,8.225467770693177
Acklington,ACK,2.0,55.3070993237817,-1.65183479633575,52.62714971818,1.30681996029555,3.991962907831399
Acle,ACL,0.0,52.6346777628319,1.54391497575916,52.62714971818,1.30681996029555,0.23721449747848558
Acocks Green,ACG,2.0,52.4493240670217,-1.81897562150643,52.62714971818,1.30681996029555,3.1308497219481253
Acton Bridge (Cheshire),ACB,2.0,53.2665097605329,-2.60312690733168,52.62714971818,1.30681996029555,3.9618765467169075
Acton Central,ACC,1.0,51.5087150057177,-0.262970693276422,52.62714971818,1.30681996029555,1.9274695593141162
Acton Main Line,AML,2.0,51.5171788796431,-0.266756440210259,52.62714971818,1.30681996029555,1.9256629898897504
Adderley Park,ADD,2.0,52.4830872932844,-1.85594463679675,52.62714971818,1.30681996029555,3.1660438845485417
Addiewell,ADW,2.0,55.8434130805542,-3.60652712168835,52.62714971818,1.30681996029555,5.872421099017874
Addlestone,ASN,2.0,51.3730447500684,-0.48445679693337,52.62714971818,1.30681996029555,2.186653079944495
Adisham,ADM,2.0,51.2411978022143,1.19908904695378,52.62714971818,1.30681996029555,1.390132606285617
Adlington (Cheshire),ADC,1.0,53.3195557900317,-2.13356274381038,52.62714971818,1.30681996029555,3.509367367353884
Adlington (Lancs),ADL,1.0,53.6132468473224,-2.6030711963325,52.62714971818,1.30681996029555,4.032323945912719
Adwick,AWK,2.0,53.5723210050351,-1.180356329611,52.62714971818,1.30681996029555,2.6607131860778677
Aigburth,AIG,1.0,53.3645680055959,-2.92715540113816,52.62714971818,1.30681996029555,4.297712541788144
Ainsdale,ANS,2.0,53.6020355257546,-3.04265252059266,52.62714971818,1.30681996029555,4.457388607673131
Aintree,AIN,1.0,53.4739127558616,-2.95628079876913,52.62714971818,1.30681996029555,4.346381911880457
Airbles,AIR,2.0,55.7828378389089,-3.99419330717581,52.62714971818,1.30681996029555,6.169206527359646
Airdrie,ADR,2.0,55.8639835131324,-3.98291292517007,52.62714971818,1.30681996029555,6.20148103405327
Albany Park,AYP,2.0,51.4354507399114,0.12573706592842,52.62714971818,1.30681996029555,1.6778269452399004
Albrighton,ALB,2.0,52.6379442676754,-2.26890024505565,52.62714971818,1.30681996029555,3.575736498856653
Alderley Edge,ALD,1.0,53.3037821045932,-2.23679936267512,52.62714971818,1.30681996029555,3.6076404050950446
Aldermaston,AMT,2.0,51.4019618556841,-1.1374239270022,52.62714971818,1.30681996029555,2.7341202385776104
Aldershot,AHT,2.0,51.2464179114788,-0.759859888333875,52.62714971818,1.30681996029555,2.4854749885620055
Aldrington,AGT,2.0,50.8363824121951,-0.183821512855377,52.62714971818,1.30681996029555,2.329991318795412
Alexandra Palace,AAP,2.0,51.5979224924556,-0.120235220128854,52.62714971818,1.30681996029555,1.7594871895380393
Alexandra Parade,AXP,2.0,55.8631759802332,-4.21064896878422,52.62714971818,1.30681996029555,6.396430985483911
Alexandria,ALX,2.0,55.9850887680667,-4.57748537031666,52.62714971818,1.30681996029555,6.7750132019521025
Alfreton,ALF,0.0,53.1004322999438,-1.36969621564025,52.62714971818,1.30681996029555,2.718038859591047
Allens West,ALW,2.0,54.5246233650745,-1.36111683481751,52.62714971818,1.30681996029555,3.2738804167802535
Alloa,ALO,2.0,56.1177936041036,-3.79005640302655,52.62714971818,1.30681996029555,6.177600132845064
Alness,ASS,2.0,57.6943991747966,-4.24971726526612,52.62714971818,1.30681996029555,7.520114559940813
Alnmouth,ALM,1.0,55.3927786386397,-1.63663783937358,52.62714971818,1.30681996029555,4.038891821294067
Alresford (Essex),ALR,1.0,51.8539974379073,0.997436403040026,52.62714971818,1.30681996029555,0.8327560471056054
Alsager,ASG,2.0,53.0930054110113,-2.29905784069112,52.62714971818,1.30681996029555,3.6358460146425062
Althorne (Essex),ALN,1.0,51.6478675266105,0.75248341471277,52.62714971818,1.30681996029555,1.1252922360408508
Althorpe,ALP,2.0,53.5855003548442,-0.733182290833722,52.62714971818,1.30681996029555,2.2538955449193234
Altnabreac,ABC,2.0,58.3881525009701,-3.7062809681672,52.62714971818,1.30681996029555,7.636775103554469
Alton,AON,2.0,51.1519686627366,-0.966913302570746,52.62714971818,1.30681996029555,2.710354607243066
Altrincham,ALT,1.0,53.3877187203289,-2.34688910433965,52.62714971818,1.30681996029555,3.732030966649017
Alvechurch,ALV,2.0,52.3460721156993,-1.96766073187852,52.62714971818,1.30681996029555,3.2865222381777786
Ambergate,AMB,2.0,53.0605170840145,-1.48069758186533,52.62714971818,1.30681996029555,2.821003601845444
Amberley,AMY,2.0,50.8966791881016,-0.541992407726222,52.62714971818,1.30681996029555,2.5323181924118634
Amersham,AMR,2.0,51.6742050968552,-0.607596139216709,52.62714971818,1.30681996029555,2.1384790046628015
Ammanford,AMF,2.0,51.7959795450084,-3.99673575596767,52.62714971818,1.30681996029555,5.36829089117555
Ancaster,ANC,1.0,52.9876865844111,-0.535623734022494,52.62714971818,1.30681996029555,1.8773879723285924
Anderston,AND,2.0,55.8599021238713,-4.27098003165416,52.62714971818,1.30681996029555,6.446901648598113
Andover,ADV,2.0,51.2115476149434,-1.49223307188506,52.62714971818,1.30681996029555,3.1366586029798262
Anerley,ANZ,2.0,51.4121513855632,-0.0658859220340606,52.62714971818,1.30681996029555,1.8331782203713642
Angel Road,AGR,1.0,51.61240330726,-0.0487914234374522,52.62714971818,1.30681996029555,1.6933376810847625
Angmering,ANG,2.0,50.8165743892467,-0.489394019247872,52.62714971818,1.30681996029555,2.5504053956281405
Annan,ANN,2.0,54.9838388790739,-3.2625810423293,52.62714971818,1.30681996029555,5.14134314395215
Anniesland,ANL,2.0,55.8893555064876,-4.32195784208586,52.62714971818,1.30681996029555,6.505776368262998
Ansdell & Fairhaven,AFV,2.0,53.7414654744213,-2.99303444657805,52.62714971818,1.30681996029555,4.441896838617251
Apperley Bridge,APY,2.0,53.8417501065548,-1.70582867126391,52.62714971818,1.30681996029555,3.2482773712657758
Appleby,APP,2.0,54.5803488158896,-2.48669258391647,52.62714971818,1.30681996029555,4.266816628165259
Appledore (Kent),APD,2.0,51.0332342031393,0.816341504124954,52.62714971818,1.30681996029555,1.667673764575958
Appleford,APF,2.0,51.6396415502262,-1.24214153179695,52.62714971818,1.30681996029555,2.7335649013597414
Appley Bridge,APB,2.0,53.5786734960166,-2.71925251339081,52.62714971818,1.30681996029555,4.136986471232826
Apsley,APS,2.0,51.7325208234117,-0.462934812195194,52.62714971818,1.30681996029555,1.983026175850465
Arbroath,ARB,1.0,56.5595762979872,-2.58893177406225,52.62714971818,1.30681996029555,5.5354187177959675
Ardgay,ARD,2.0,57.8814576101148,-4.36209023833324,52.62714971818,1.30681996029555,7.729443334637096
Ardlui,AUI,2.0,56.3019723653141,-4.72165858161935,52.62714971818,1.30681996029555,7.060231937990285
Ardrossan Harbour,ADS,2.0,55.6398782290401,-4.82111163323781,52.62714971818,1.30681996029555,6.828475576230292
Ardrossan South Beach,ASB,2.0,55.641422142645,-4.80121264089138,52.62714971818,1.30681996029555,6.8113068133840855
Ardrossan Town,ADN,2.0,55.6397124556587,-4.81267645169651,52.62714971818,1.30681996029555,6.820833569559433
Ardwick,ADK,1.0,53.471345820655,-2.21388417456067,52.62714971818,1.30681996029555,3.620500609670943
Argyle Street,AGS,2.0,55.8573090626122,-4.25069486323156,52.62714971818,1.30681996029555,6.4280557250343
Arisaig,ARG,2.0,56.9125537431151,-5.83907949880085,52.62714971818,1.30681996029555,8.332380616393142
Arlesey,ARL,1.0,52.0260300130868,-0.266319838272065,52.62714971818,1.30681996029555,1.6840765201405452
Armadale (West Lothian),ARM,2.0,55.8857140292087,-3.69541334262219,52.62714971818,1.30681996029555,5.969973147839885
Armathwaite,AWT,2.0,54.8094679848183,-2.77207147292765,52.62714971818,1.30681996029555,4.625999172170786
Arnside,ARN,1.0,54.2027315043991,-2.82824189170434,52.62714971818,1.30681996029555,4.425064348111801
Arram,ARR,2.0,53.8843427696163,-0.426570132093475,52.62714971818,1.30681996029555,2.141302309570546
Arrochar & Tarbet,ART,2.0,56.2039766194239,-4.72277124702392,52.62714971818,1.30681996029555,7.010681907549813
Arundel,ARU,2.0,50.84821399905,-0.546174298416944,52.62714971818,1.30681996029555,2.5686961703592006
Ascot (Berks),ACT,2.0,51.406243053303,-0.675833255037063,52.62714971818,1.30681996029555,2.3284172428089054
Ascott-under-Wychwood,AUW,2.0,51.8673416456497,-1.56405280921503,52.62714971818,1.30681996029555,2.9697169504516006
Ash,ASH,2.0,51.2495967734882,-0.712805474371656,52.62714971818,1.30681996029555,2.4446960980424026
Ash Vale,AHV,2.0,51.2722464128127,-0.72164859629209,52.62714971818,1.30681996029555,2.4393539415099204
Ashburys,ABY,1.0,53.471639721401,-2.19443661452133,52.62714971818,1.30681996029555,3.6016608624686794
Ashchurch for Tewkesbury,ASC,1.0,51.9989057939667,-2.10876020926952,52.62714971818,1.30681996029555,3.4728775277911943
Ashfield,ASF,2.0,55.8889269328418,-4.24921509407071,52.62714971818,1.30681996029555,6.442725830223847
Ashford (Surrey),AFS,2.0,51.4365062586203,-0.468070995385795,52.62714971818,1.30681996029555,2.137257530657392
Ashford International,AFK,2.0,51.1437026741936,0.876197214386404,52.62714971818,1.30681996029555,1.5446847838981024
Ashford International (Eurostar),ASI,-999.0,nan,nan,52.62714971818,1.30681996029555,nan
Ashley,ASY,1.0,53.3557258053839,-2.34146074338483,52.62714971818,1.30681996029555,3.720319234648009
Ashtead,AHD,2.0,51.317872587997,-0.307571763628547,52.62714971818,1.30681996029555,2.0785733669742923
Ashton-under-Lyne,AHN,2.0,53.4912746360398,-2.09431253377749,52.62714971818,1.30681996029555,3.509189951528087
Ashurst (Kent),AHS,2.0,51.1286608253579,0.152652111896866,52.62714971818,1.30681996029555,1.8914471666394643
Ashurst New Forest,ANF,2.0,50.8898511647037,-1.52663085660955,52.62714971818,1.30681996029555,3.323650071191464
Ashwell & Morden,AWM,1.0,52.0307706434447,-0.109788918120069,52.62714971818,1.30681996029555,1.537025931852841
Askam,ASK,2.0,54.1889331625586,-3.20451175494515,52.62714971818,1.30681996029555,4.774021509385109
Aslockton,ALK,0.0,52.9515495737311,-0.898097621841918,52.62714971818,1.30681996029555,2.2286535868771784
Aspatria,ASP,2.0,54.7589599137074,-3.33187421074512,52.62714971818,1.30681996029555,5.105105123521088
Aspley Guise,APG,2.0,52.0212361960308,-0.632334507265971,52.62714971818,1.30681996029555,2.031612966435058
Aston,AST,2.0,52.5042320347358,-1.8719337575538,52.62714971818,1.30681996029555,3.181129352233944
Atherstone,ATH,2.0,52.5789720633612,-1.55281147568713,52.62714971818,1.30681996029555,2.8600372438281645
Atherton,ATN,2.0,53.5291462480773,-2.47897234425216,52.62714971818,1.30681996029555,3.8917632396022546
Attadale,ATT,2.0,57.3950433711996,-5.4555786528295,52.62714971818,1.30681996029555,8.274227751838849
Attenborough,ATB,1.0,52.9062133028873,-1.23141560765685,52.62714971818,1.30681996029555,2.553530160920041
Attleborough,ATL,0.0,52.5145445883409,1.02234755537498,52.62714971818,1.30681996029555,0.30594846694725253
Auchinleck,AUK,2.0,55.4702784722357,-4.29535018687193,52.62714971818,1.30681996029555,6.282331690539175
Audley End,AUD,1.0,52.0044405435161,0.207160027997398,52.62714971818,1.30681996029555,1.263732045535198
Aughton Park,AUG,2.0,53.5542504500956,-2.89522128047861,52.62714971818,1.30681996029555,4.303099621933623
Aviemore,AVM,2.0,57.1885162452285,-3.82886797624022,52.62714971818,1.30681996029555,6.868868551337805
Avoncliff,AVF,2.0,51.3396528744674,-2.28132558221387,52.62714971818,1.30681996029555,3.812143302238274
Avonmouth,AVN,2.0,51.5003648679963,-2.69946651797304,52.62714971818,1.30681996029555,4.161727459188221
Axminster,AXM,2.0,50.7792744117621,-3.00472359764506,52.62714971818,1.30681996029555,4.690847578006368
Aylesbury,AYS,2.0,51.8138902206829,-0.815095998270687,52.62714971818,1.30681996029555,2.2724256523563775
Aylesbury Vale Parkway,AVP,2.0,51.8311587338339,-0.860182437861177,52.62714971818,1.30681996029555,2.308571211978802
Aylesford,AYL,2.0,51.3013153585378,0.466170568242092,52.62714971818,1.30681996029555,1.5698815718288093
Aylesham,AYH,2.0,51.2272505439136,1.2094526827124,52.62714971818,1.30681996029555,1.40328118524254
Ayr,AYR,2.0,55.4581477383334,-4.62587677242484,52.62714971818,1.30681996029555,6.573540926513173
Bache,BAC,2.0,53.2087886904783,-2.89167051075084,52.62714971818,1.30681996029555,4.238587751782846
Baglan,BAJ,2.0,51.615545271975,-3.81113654529303,52.62714971818,1.30681996029555,5.216974443935698
Bagshot,BAG,2.0,51.3643669407293,-0.688661997063008,52.62714971818,1.30681996029555,2.3614759336418514
Baildon,BLD,2.0,53.8502255005868,-1.75363638811678,52.62714971818,1.30681996029555,3.2958014852304656
Baillieston,BIO,2.0,55.844505909339,-4.11369931815988,52.62714971818,1.30681996029555,6.30344430521093
Balcombe,BAB,1.0,51.0555201604538,-0.136933757536862,52.62714971818,1.30681996029555,2.1341143981693094
Baldock,BDK,1.0,51.9928698318742,-0.187563753520231,52.62714971818,1.30681996029555,1.6234203578525008
Balham,BAL,2.0,51.4432234163815,-0.152424495700288,52.62714971818,1.30681996029555,1.8791157150225908
Balloch,BHC,2.0,56.0029392993731,-4.58348654319574,52.62714971818,1.30681996029555,6.789084327180187
Balmossie,BSI,2.0,56.4745685552318,-2.83895622541232,52.62714971818,1.30681996029555,5.655978420192523
Bamber Bridge,BMB,2.0,53.7268691714662,-2.6607753764786,52.62714971818,1.30681996029555,4.117182972898833
Bamford,BAM,1.0,53.3390008432273,-1.68908191470249,52.62714971818,1.30681996029555,3.0793116225624004
Banavie,BNV,2.0,56.8433146084024,-5.09542698683765,52.62714971818,1.30681996029555,7.665821048891009
Banbury,BAN,2.0,52.0603086671337,-1.32813289497966,52.62714971818,1.30681996029555,2.695233816698332
Bangor (Gwynedd),BNG,1.0,53.2222875881889,-4.1358808597691,52.62714971818,1.30681996029555,5.475142126105142
Bank Hall,BAH,2.0,53.4374965462522,-2.98751189569183,52.62714971818,1.30681996029555,4.370119914958249
Banstead,BAD,2.0,51.3293474848423,-0.213158931277083,52.62714971818,1.30681996029555,1.998656165447846
Barassie,BSS,2.0,55.5610644543682,-4.65113966824502,52.62714971818,1.30681996029555,6.641169973321083
Barbican,ZBB,1.0,nan,nan,52.62714971818,1.30681996029555,nan
Bardon Mill,BLL,2.0,54.9744957852522,-2.34650475516335,52.62714971818,1.30681996029555,4.3424434406428585
Bare Lane,BAR,2.0,54.0745443408907,-2.83533086719705,52.62714971818,1.30681996029555,4.387751664753769
Bargeddie,BGI,2.0,55.8512961462984,-4.07380825280165,52.62714971818,1.30681996029555,6.272661329732876
Bargoed,BGD,2.0,51.6923127611933,-3.22968013064506,52.62714971818,1.30681996029555,4.6318196436446355
Barking,BKG,2.0,51.5394928787692,0.0809024258638578,52.62714971818,1.30681996029555,1.6388627769109179
Barlaston,BRT,2.0,nan,nan,52.62714971818,1.30681996029555,nan
Barming,BMG,2.0,51.2848926922128,0.478958086821072,52.62714971818,1.30681996029555,1.5770254295067612
Barmouth,BRM,2.0,52.7228954666472,-4.05659664341287,52.62714971818,1.30681996029555,5.36427114464628
Barnehurst,BNH,2.0,51.4649571594916,0.159646215915891,52.62714971818,1.30681996029555,1.6330031057119103
Barnes,BNS,2.0,51.4670847781107,-0.242164290131055,52.62714971818,1.30681996029555,1.9352268273377293
Barnes Bridge,BNI,2.0,51.4720072305495,-0.252630234454485,52.62714971818,1.30681996029555,1.940680055195884
Barnetby,BTB,2.0,53.575120046432,-0.409679706265516,52.62714971818,1.30681996029555,1.9608719612841758
Barnham,BAA,2.0,50.8309058508596,-0.639679954401345,52.62714971818,1.30681996029555,2.64865134527011
Barnhill,BNL,2.0,55.8774948886876,-4.22300584363342,52.62714971818,1.30681996029555,6.414336844073653
Barnsley,BNY,1.0,53.5543015489003,-1.47716484028851,52.62714971818,1.30681996029555,2.934311143537963
Barnstaple,BNP,2.0,51.0739744679973,-4.06311775092404,52.62714971818,1.30681996029555,5.590043325427664
Barnt Green,BTG,2.0,52.3610898378667,-1.99246673824797,52.62714971818,1.30681996029555,3.3099970663277825
Barrhead,BRR,2.0,55.8037583421428,-4.39728431394783,52.62714971818,1.30681996029555,6.52898521374313
Barrhill,BRL,2.0,55.0970106102442,-4.78178229089313,52.62714971818,1.30681996029555,6.570486298541989
Barrow Haven,BAV,2.0,53.697419946542,-0.392955239385703,52.62714971818,1.30681996029555,2.0086597748671844
Barrow-in-Furness,BIF,1.0,54.1190037011827,-3.22612090695349,52.62714971818,1.30681996029555,4.772125439736207
Barrow-Upon-Soar,BWS,1.0,52.7493358553102,-1.14484305880024,52.62714971818,1.30681996029555,2.4547058909997106
Barry,BRY,2.0,51.3967862682376,-3.28498495899336,52.62714971818,1.30681996029555,4.753784454070252
Barry Docks,BYD,2.0,51.4024452836283,-3.26070393235989,52.62714971818,1.30681996029555,4.728866192015682
Barry Island,BYI,2.0,51.3924170726249,-3.27336400852697,52.62714971818,1.30681996029555,4.743695805409354
Barry Links,BYL,2.0,56.4931516826701,-2.74544214683501,52.62714971818,1.30681996029555,5.600607054090435
Barton-on-Humber,BAU,2.0,53.6889177395454,-0.44343673614012,52.62714971818,1.30681996029555,2.0471320999417957
Basildon,BSO,2.0,51.5681040297501,0.456788850539816,52.62714971818,1.30681996029555,1.3579877237053801
Basingstoke,BSK,2.0,51.2683569850094,-1.08726383162934,52.62714971818,1.30681996029555,2.7528085466437173
Bat & Ball,BBL,2.0,51.2897587469008,0.194227480292899,52.62714971818,1.30681996029555,1.739677164481263
Bath Spa,BTH,2.0,51.3776883852266,-2.3570184714201,52.62714971818,1.30681996029555,3.871029020333261
Bathgate,BHG,2.0,55.8971563834902,-3.63609679157923,52.62714971818,1.30681996029555,5.926665977355013
Batley,BTL,2.0,53.7099423400798,-1.6229526318262,52.62714971818,1.30681996029555,3.1234607895071194
Battersby,BTT,2.0,54.457680170473,-1.09297186288525,52.62714971818,1.30681996029555,3.0182515686034908
Battersea Park,BAK,2.0,51.4769582891996,-0.147533519657093,52.62714971818,1.30681996029555,1.85420720739359
Battle,BAT,2.0,50.9129130238687,0.494702777064857,52.62714971818,1.30681996029555,1.8968768445584177
Battlesbridge,BLB,1.0,51.624822766888,0.56528550890708,52.62714971818,1.30681996029555,1.2468089909373892
Bayford,BAY,2.0,51.7577148923117,-0.0956100209046352,52.62714971818,1.30681996029555,1.6500687163272318
Beaconsfield,BCF,2.0,51.6112905925788,-0.643822282354315,52.62714971818,1.30681996029555,2.1993123747838403
Bearley,BER,2.0,52.2444115945748,-1.75025547969474,52.62714971818,1.30681996029555,3.080941206360915
Bearsden,BRN,2.0,55.9171345827093,-4.3320211452141,52.62714971818,1.30681996029555,6.528440045065681
Bearsted,BSD,2.0,51.2758187894535,0.577580355704965,52.62714971818,1.30681996029555,1.535540842776984
Beasdale,BSL,2.0,56.8995610683265,-5.76380325043513,52.62714971818,1.30681996029555,8.261187041399321
Beaulieu Road,BEU,2.0,50.8550493435382,-1.50474962699015,52.62714971818,1.30681996029555,3.3234414816505335
Beauly,BEL,2.0,57.4782879378611,-4.46986686037102,52.62714971818,1.30681996029555,7.543450977537637
Bebington,BEB,1.0,53.3576570664328,-3.00363517233964,52.62714971818,1.30681996029555,4.371917706946506
Beccles,BCC,1.0,52.4585181871493,1.5694932615698,52.62714971818,1.30681996029555,0.31214396752151125
Beckenham Hill,BEC,2.0,51.4245808668055,-0.0159511139458484,52.62714971818,1.30681996029555,1.787706675365377
Beckenham Junction,BKJ,2.0,51.4111718661491,-0.0260225635677561,52.62714971818,1.30681996029555,1.804181623353923
Bedford,BDM,2.0,52.1361864656103,-0.479442379912954,52.62714971818,1.30681996029555,1.8525058875536613
Bedford St Johns,BSJ,2.0,52.1294772366621,-0.467501028060375,52.62714971818,1.30681996029555,1.842794852548849
Bedhampton,BDH,2.0,50.8539566355958,-0.99582843515536,52.62714971818,1.30681996029555,2.906269660784613
Bedminster,BMT,2.0,51.4400904239394,-2.59414932604792,52.62714971818,1.30681996029555,4.077581530887895
Bedworth,BEH,2.0,52.4792974206142,-1.46739223305473,52.62714971818,1.30681996029555,2.778149311255401
Bedwyn,BDW,2.0,51.3796409426581,-1.59878627020561,52.62714971818,1.30681996029555,3.1620919834393355
Beeston,BEE,1.0,52.9207551214346,-1.20765801407939,52.62714971818,1.30681996029555,2.531561497660485
Bekesbourne,BKS,2.0,51.2613539349877,1.13670763163281,52.62714971818,1.30681996029555,1.3763489113407692
Belle Vue,BLV,1.0,53.4623764935822,-2.18050724055323,52.62714971818,1.30681996029555,3.58595242189973
Bellgrove,BLG,2.0,55.8567093051092,-4.22437490020632,52.62714971818,1.30681996029555,6.405011452789807
Bellingham,BGM,2.0,51.4329113825773,-0.0193308081217253,52.62714971818,1.30681996029555,1.7846235072969403
Bellshill,BLH,2.0,55.8170682424416,-4.02449996284266,52.62714971818,1.30681996029555,6.2127733190804335
Belmont,BLM,2.0,51.3438134158344,-0.198855124360003,52.62714971818,1.30681996029555,1.9783855856406232
Belper,BLP,2.0,53.0237591485711,-1.48251049959613,52.62714971818,1.30681996029555,2.8173859257749347
Beltring,BEG,2.0,51.2047063375307,0.403495486821792,52.62714971818,1.30681996029555,1.6850342060414223
Belvedere,BVD,2.0,51.4921162437256,0.152286098901381,52.62714971818,1.30681996029555,1.6190273083668985
Bempton,BEM,2.0,54.1276580609781,-0.18045684367924,52.62714971818,1.30681996029555,2.1127038548855266
Ben Rhydding,BEY,2.0,53.9257153348267,-1.79743026313235,52.62714971818,1.30681996029555,3.3649133882448123
Benfleet,BEF,2.0,51.5439424321207,0.561713345502072,52.62714971818,1.30681996029555,1.3147326313669057
Bentham,BEN,2.0,54.1155197017626,-2.51067651046258,52.62714971818,1.30681996029555,4.097380201089527
Bentley (Hants),BTY,2.0,51.1812327932647,-0.868126900052275,52.62714971818,1.30681996029555,2.611717748741886
Bentley (South Yorks),BYK,2.0,53.543936635355,-1.15094859528964,52.62714971818,1.30681996029555,2.6231897614024335
Bere Alston,BAS,2.0,50.4855988011236,-4.20035543651004,52.62714971818,1.30681996029555,5.90891032099201
Bere Ferrers,BFE,2.0,50.4512820780774,-4.18143518031599,52.62714971818,1.30681996029555,5.903841501572909
Berkhamsted,BKM,2.0,51.7631330812332,-0.562012981628892,52.62714971818,1.30681996029555,2.0588980824078744
Berkswell,BKW,2.0,52.3958819317755,-1.64284047482006,52.62714971818,1.30681996029555,2.958712806528347
Bermuda Park,BEP,2.0,52.5014343619449,-1.47217775464212,52.62714971818,1.30681996029555,2.781839795966351
Berney Arms,BYA,-999.0,52.5897827472666,1.63037533346209,52.62714971818,1.30681996029555,0.32570595637811445
Berry Brow,BBW,2.0,53.6210419716152,-1.79343228301033,52.62714971818,1.30681996029555,3.255669790313759
Berrylands,BRS,2.0,51.3990439366779,-0.280713667843256,52.62714971818,1.30681996029555,2.007114055311867
Berwick (Sussex),BRK,2.0,50.8403762860459,0.166017608785235,52.62714971818,1.30681996029555,2.1199031352851305
Berwick-upon-Tweed,BWK,1.0,55.7743389009866,-2.01097357377303,52.62714971818,1.30681996029555,4.573024566638818
Bescar Lane,BES,2.0,53.623855333027,-2.9146110021991,52.62714971818,1.30681996029555,4.337499447121123
Bescot Stadium,BSC,2.0,52.5630947071172,-1.9911057185482,52.62714971818,1.30681996029555,3.2985476846059485
Betchworth,BTO,2.0,51.2481879331766,-0.266973015200458,52.62714971818,1.30681996029555,2.092453090088362
Bethnal Green,BET,1.0,51.5239156627757,-0.0595680464428894,52.62714971818,1.30681996029555,1.7561724192010488
Betws-y-Coed,BYC,2.0,53.0920709395504,-3.80086212197837,52.62714971818,1.30681996029555,5.128797909419184
Beverley,BEV,1.0,53.8422725915824,-0.422980126740875,52.62714971818,1.30681996029555,2.1139375436793135
Bexhill,BEX,2.0,50.84103990242,0.477016592346932,52.62714971818,1.30681996029555,1.9694572611288343
Bexley,BXY,2.0,51.4402175270263,0.147902494716889,52.62714971818,1.30681996029555,1.6588844801312095
Bexleyheath,BXH,2.0,51.4634982236074,0.133734871030645,52.62714971818,1.30681996029555,1.6523357490161286
Bicester North,BCS,2.0,51.9034829537461,-1.15038352192815,52.62714971818,1.30681996029555,2.5615508074208693
Bicester Village,BIT,2.0,51.8930236127002,-1.14876425178293,52.62714971818,1.30681996029555,2.5629738510870594
Bickley,BKL,2.0,51.4001024308637,0.0452405405139698,52.62714971818,1.30681996029555,1.759894223448309
Bidston,BID,1.0,53.4091398593576,-3.07856110228132,52.62714971818,1.30681996029555,4.454556728217388
Biggleswade,BIW,1.0,52.0846785950736,-0.261187193156868,52.62714971818,1.30681996029555,1.6591929823508405
Bilbrook,BBK,2.0,52.6237197237583,-2.18608801838282,52.62714971818,1.30681996029555,3.49290966278499
Billericay,BIC,1.0,51.6288812691945,0.418629610467223,52.62714971818,1.30681996029555,1.3361968394544568
Billingham (Cleveland),BIL,2.0,54.605606575355,-1.27971968622732,52.62714971818,1.30681996029555,3.256451884910542
Billingshurst,BIG,2.0,51.0152034952011,-0.450302232654151,52.62714971818,1.30681996029555,2.384501840370921
Bingham,BIN,0.0,52.9541905628363,-0.95154335353279,52.62714971818,1.30681996029555,2.281920369188905
Bingley,BIY,2.0,53.8486154371384,-1.8373224993653,52.62714971818,1.30681996029555,3.3730713465968574
Birchgrove,BCG,2.0,51.5215597229164,-3.20185379786194,52.62714971818,1.30681996029555,4.642248194046172
Birchington-on-sea,BCH,2.0,51.3774886896266,1.3014083545974,52.62714971818,1.30681996029555,1.2496727458664398
Birchwood,BWD,0.0,53.4127205850305,-2.5253082468513,52.62714971818,1.30681996029555,3.9118190375904116
Birkbeck,BIK,2.0,51.4038899816034,-0.0557387405611835,52.62714971818,1.30681996029555,1.8311009246925318
Birkdale,BDL,2.0,53.6340528065899,-3.01445011129132,52.62714971818,1.30681996029555,4.4370292833202924
Birkenhead Central,BKC,1.0,53.3883166263867,-3.02082115838918,52.62714971818,1.30681996029555,4.3940701763034875
Birkenhead Hamilton Square,BKQ,1.0,53.3946967251861,-3.01368016573114,52.62714971818,1.30681996029555,4.38814878359436
Birkenhead North,BKN,1.0,53.4044379353974,-3.05753365912751,52.62714971818,1.30681996029555,4.433030508353869
Birkenhead Park,BKP,1.0,53.3974085855031,-3.03910128885113,52.62714971818,1.30681996029555,4.413652707959078
Birmingham International,BHI,2.0,52.4508081112451,-1.72585685988124,52.62714971818,1.30681996029555,3.037799377505695
Birmingham Moor Street,BMO,2.0,52.479080623723,-1.89247273057604,52.62714971818,1.30681996029555,3.2027173116898244
Birmingham New Street,BHM,1.0,52.4778198092097,-1.9002055706822,52.62714971818,1.30681996029555,3.2105003002734946
Birmingham Snow Hill,BSW,2.0,52.4833566780576,-1.89908868312646,52.62714971818,1.30681996029555,3.209131762386143
Bishop Auckland,BIA,2.0,54.6571963763698,-1.67771509725951,52.62714971818,1.30681996029555,3.6095067452773577
Bishopbriggs,BBG,2.0,55.9038831792009,-4.22491571705821,52.62714971818,1.30681996029555,6.429392022476347
Bishops Stortford,BIS,1.0,51.8666894209812,0.16489410333554,52.62714971818,1.30681996029555,1.3719673926189122
Bishopstone (Sussex),BIP,2.0,50.7801416620368,0.082756921439231,52.62714971818,1.30681996029555,2.2157998742106786
Bishopton (Strathclyde),BPT,2.0,55.9022694882255,-4.5004875625329,52.62714971818,1.30681996029555,6.667175576872323
Bitterne,BTE,2.0,50.9182213632939,-1.37699961416727,52.62714971818,1.30681996029555,3.181717088366516
Blackburn,BBN,2.0,53.7465184457461,-2.47912240276289,52.62714971818,1.30681996029555,3.947954650784817
Blackheath,BKH,2.0,51.4657945200002,0.00887187089452019,52.62714971818,1.30681996029555,1.7416702153734565
Blackhorse Road,BHO,2.0,51.58660384873,-0.0412357433706351,52.62714971818,1.30681996029555,1.7029356671983795
Blackpool North,BPN,1.0,53.8219180942013,-3.04927516714828,52.62714971818,1.30681996029555,4.516972020245471
Blackpool Pleasure Beach,BPB,2.0,53.7879555202556,-3.05387646984086,52.62714971818,1.30681996029555,4.512553984822432
Blackpool South,BPS,2.0,53.7987040263195,-3.04893832565541,52.62714971818,1.30681996029555,4.510562020696607
Blackridge,BKR,2.0,55.8842557507999,-3.75079743413867,52.62714971818,1.30681996029555,6.015665666924363
Blackrod,BLK,1.0,53.5915244932358,-2.56952431744104,52.62714971818,1.30681996029555,3.994504182787287
Blackwater,BAW,2.0,51.3315811457068,-0.776741026218888,52.62714971818,1.30681996029555,2.45351264730901
Blaenau Ffestiniog,BFF,2.0,52.9945530771849,-3.93859577234881,52.62714971818,1.30681996029555,5.258266961317298
Blair Atholl,BLA,2.0,56.7655504660718,-3.85022876626298,52.62714971818,1.30681996029555,6.612224460667558
Blairhill,BAI,2.0,55.8664556230225,-4.0432911996593,52.62714971818,1.30681996029555,6.254341865378078
Blake Street,BKT,2.0,52.6048860712992,-1.84491459685048,52.62714971818,1.30681996029555,3.1518131906381948
Blakedown,BKD,2.0,52.4064026596129,-2.17686566095142,52.62714971818,1.30681996029555,3.4906725385731776
Blantyre,BLT,2.0,55.7973304780703,-4.08697164977011,52.62714971818,1.30681996029555,6.256439401384252
Blaydon,BLO,2.0,54.9657896857216,-1.71258088882198,52.62714971818,1.30681996029555,3.819164618792263
Bleasby,BSB,1.0,53.0413649497003,-0.943687538181265,52.62714971818,1.30681996029555,2.2883090391649006
Bletchley,BLY,2.0,51.9953339717924,-0.736320506839459,52.62714971818,1.30681996029555,2.138600969285291
Bloxwich,BLX,2.0,52.6182018754768,-2.01147807238452,52.62714971818,1.30681996029555,3.3183100966572523
Bloxwich North,BWN,2.0,52.6254378492086,-2.01768461058018,52.62714971818,1.30681996029555,3.3245050116173678
Blundellsands & Crosby,BLN,2.0,53.4876867000616,-3.03986028592851,52.62714971818,1.30681996029555,4.431044240368217
Blythe Bridge,BYB,2.0,52.9681439666743,-2.06696136521393,52.62714971818,1.30681996029555,3.3909699954235357
Bodmin Parkway,BOD,2.0,50.4458686645733,-4.66292953056928,52.62714971818,1.30681996029555,6.355776586578894
Bodorgan,BOR,2.0,53.2043074000119,-4.41800424551237,52.62714971818,1.30681996029555,5.753844208622776
Bognor Regis,BOG,2.0,50.7865584395345,-0.676178286011514,52.62714971818,1.30681996029555,2.7055606258006417
Bogston,BGS,2.0,55.9370473872407,-4.71140217696609,52.62714971818,1.30681996029555,6.868363726032536
Bolton,BON,1.0,53.5741455351566,-2.42582497565139,52.62714971818,1.30681996029555,3.8509011017191184
Bolton-Upon-Dearne,BTD,1.0,53.5189470302023,-1.31154616002462,52.62714971818,1.30681996029555,2.7660700616164253
Bookham,BKA,2.0,51.2887375770933,-0.384020684769355,52.62714971818,1.30681996029555,2.156452908461436
Bootle (Cumbria),BOC,2.0,54.2913058315169,-3.39386227213438,52.62714971818,1.30681996029555,4.986564851662817
Bootle New Strand,BNW,2.0,53.4533917659639,-2.99474773972908,52.62714971818,1.30681996029555,4.380200977058166
Bootle Oriel Road,BOT,2.0,53.4466239167649,-2.9957338918952,52.62714971818,1.30681996029555,4.379898128170086
Bordesley,BBS,2.0,52.4718743800827,-1.87776885469942,52.62714971818,1.30681996029555,3.18837205344864
Borough Green & Wrotham,BRG,2.0,51.2932170234776,0.306244959659036,52.62714971818,1.30681996029555,1.6674911591653971
Borth,BRH,2.0,52.4910318901744,-4.05017708151719,52.62714971818,1.30681996029555,5.358726095733146
Bosham,BOH,2.0,50.8427472866996,-0.847431235664145,52.62714971818,1.30681996029555,2.797300529576139
Boston,BSN,1.0,52.9780883520384,-0.03100323679323,52.62714971818,1.30681996029555,1.3830867042247363
Botley,BOE,2.0,50.9164546156522,-1.25923650546392,52.62714971818,1.30681996029555,3.08401094668592
Bottesford,BTF,1.0,52.9446141670485,-0.794842711685305,52.62714971818,1.30681996029555,2.1255045667071824
Bourne End,BNE,2.0,51.5771173647136,-0.710473547391366,52.62714971818,1.30681996029555,2.274212179960781
Bournemouth,BMH,2.0,50.7272746595869,-1.86450316465566,52.62714971818,1.30681996029555,3.696865645531963
Bournville,BRV,2.0,52.4269645832552,-1.92642405915734,52.62714971818,1.30681996029555,3.2394352868320646
Bow Brickhill,BWB,2.0,52.0043001848605,-0.696077833880482,52.62714971818,1.30681996029555,2.0975083110852113
Bowes Park,BOP,2.0,51.6070103763875,-0.120581954633459,52.62714971818,1.30681996029555,1.754468723977671
Bowling,BWG,2.0,55.9310849001239,-4.49384261915191,52.62714971818,1.30681996029555,6.675602897648176
Box Hill & Westhumble,BXW,2.0,51.2540106794359,-0.328489952956063,52.62714971818,1.30681996029555,2.135356956600481
Bracknell,BCE,2.0,51.4130914141393,-0.751703650172948,52.62714971818,1.30681996029555,2.3898654816676266
Bradford Forster Square,BDQ,1.0,53.7969256219995,-1.75296173787813,52.62714971818,1.30681996029555,3.2757655144462543
Bradford Interchange,BDI,1.0,53.7910764525054,-1.74959589964649,52.62714971818,1.30681996029555,3.2705356368311644
Bradford-on-Avon,BOA,2.0,51.3449161602034,-2.25232693866303,52.62714971818,1.30681996029555,3.7830740867141124
Brading,BDN,2.0,50.6783720718463,-1.13872244962043,52.62714971818,1.30681996029555,3.127045249680213
Braintree,BTR,1.0,51.8753890748181,0.556686982906197,52.62714971818,1.30681996029555,1.0619997875117069
Braintree Freeport,BTP,1.0,51.8694135093739,0.568434688069829,52.62714971818,1.30681996029555,1.0580061305945703
Bramhall,BML,1.0,53.360614520234,-2.16359288123925,52.62714971818,1.30681996029555,3.547074274178898
Bramley (Hants),BMY,2.0,51.3302932744388,-1.06100278415591,52.62714971818,1.30681996029555,2.6997076109858105
Bramley (W Yorks),BLE,2.0,53.8053497570895,-1.63720635437646,52.62714971818,1.30681996029555,3.1710323670955503
Brampton (Cumbria),BMP,2.0,54.9323930102284,-2.70294760254176,52.62714971818,1.30681996029555,4.625190000801742
Brampton (Suffolk),BRP,1.0,52.3954307722651,1.54381046672808,52.62714971818,1.30681996029555,0.3314485933520598
Branchton,BCN,2.0,55.9406016000061,-4.80354935893801,52.62714971818,1.30681996029555,6.9509406982514035
Brandon,BND,0.0,52.4540047306678,0.624731734521936,52.62714971818,1.30681996029555,0.7037212050518282
Branksome,BSM,2.0,50.7269660330633,-1.91975842787338,52.62714971818,1.30681996029555,3.7445301617402547
Braystones (Cumbria),BYS,2.0,54.4393640536404,-3.54182643942065,52.62714971818,1.30681996029555,5.176243107421546
Bredbury,BDY,1.0,53.4231550957567,-2.11048830300964,52.62714971818,1.30681996029555,3.5087918615365257
Breich,BRC,2.0,55.8273164832767,-3.66812586892786,52.62714971818,1.30681996029555,5.915332055610814
Brentford,BFD,2.0,51.4875457097478,-0.3096509962364,52.62714971818,1.30681996029555,1.9777956540922161
Brentwood,BRE,1.0,51.6136030493508,0.2995857793073,52.62714971818,1.30681996029555,1.42891481385205
Bricket Wood,BWO,2.0,51.7054267834401,-0.359115040469,52.62714971818,1.30681996029555,1.903920322702058
Bridge of Allan,BEA,2.0,56.1566398048563,-3.95722936202684,52.62714971818,1.30681996029555,6.337784750193798
Bridge of Orchy,BRO,2.0,56.5158728605762,-4.76299400728156,52.62714971818,1.30681996029555,7.208662100501172
Bridgend,BGN,2.0,51.5069776497295,-3.57527638119945,52.62714971818,1.30681996029555,5.008956992286472
Bridgeton,BDG,2.0,55.8489676845822,-4.22605724682491,52.62714971818,1.30681996029555,6.4025652044868
Bridgwater,BWT,2.0,51.1278595271724,-2.99040597303838,52.62714971818,1.30681996029555,4.551265955640176
Bridlington,BDT,2.0,54.0841300013586,-0.198720390714093,52.62714971818,1.30681996029555,2.0950998291464393
Brierfield,BRF,2.0,53.8239823807197,-2.23649020577414,52.62714971818,1.30681996029555,3.7399806623958196
Brigg,BGG,2.0,53.5491442686681,-0.486124757673641,52.62714971818,1.30681996029555,2.0161162448686776
Brighouse,BGH,2.0,53.6981985445311,-1.77943904000537,52.62714971818,1.30681996029555,3.2668241772961255
Brighton (East Sussex),BTN,1.0,50.8290032740444,-0.141280362604851,52.62714971818,1.30681996029555,2.3087497005396096
Brimsdown,BMD,1.0,51.6555817179022,-0.0308174334464399,52.62714971818,1.30681996029555,1.6532447418034222
Brinnington,BNT,1.0,53.4321182782686,-2.13512015019042,52.62714971818,1.30681996029555,3.5348162762586797
Bristol Parkway,BPW,2.0,51.5138036668802,-2.54216343130652,52.62714971818,1.30681996029555,4.0067708418093275
Bristol Temple Meads,BRI,2.0,51.449146420501,-2.58131562733598,52.62714971818,1.30681996029555,4.062670318540428
Brithdir,BHD,2.0,51.7103060616454,-3.22872077880337,52.62714971818,1.30681996029555,4.62728128457237
Briton Ferry,BNF,2.0,51.6379005035521,-3.81925304025098,52.62714971818,1.30681996029555,5.220654979557069
Brixton,BRX,2.0,51.4632974069132,-0.114183479348404,52.62714971818,1.30681996029555,1.8367914900502516
Broad Green,BGE,1.0,53.4065063198581,-2.8934843782564,52.62714971818,1.30681996029555,4.271996400868987
Broadbottom,BDB,1.0,53.4409753914717,-2.01652101691897,52.62714971818,1.30681996029555,3.4215358360452477
Broadstairs,BSR,2.0,51.3606706129939,1.43356042841681,52.62714971818,1.30681996029555,1.272804961544612
Brockenhurst,BCU,2.0,50.8168418133325,-1.57353117285741,52.62714971818,1.30681996029555,3.4020049030841912
Brockholes,BHS,2.0,53.5969730380642,-1.76969142002127,52.62714971818,1.30681996029555,3.2257525548327655
Brockley,BCY,2.0,51.4646472014469,-0.0375366925196268,52.62714971818,1.30681996029555,1.7772751366570159
Bromborough,BOM,1.0,53.3218495381578,-2.98689585549247,52.62714971818,1.30681996029555,4.349552085746918
Bromborough Rake,BMR,1.0,53.3299093778849,-2.98946942122466,52.62714971818,1.30681996029555,4.353386450692364
Bromley Cross (Lancs),BMC,2.0,53.6140430093272,-2.41089911446368,52.62714971818,1.30681996029555,3.84647806271399
Bromley North,BMN,2.0,51.4083259856208,0.0169926357417391,52.62714971818,1.30681996029555,1.7745945503734606
Bromley South,BMS,2.0,51.3999745779484,0.0173440284479178,52.62714971818,1.30681996029555,1.780086234882111
Bromsgrove,BMV,2.0,52.3222879772082,-2.04734524157192,52.62714971818,1.30681996029555,3.3679912236416243
Brondesbury,BSY,1.0,51.5451643215911,-0.202308734122339,52.62714971818,1.30681996029555,1.856922673335397
Brondesbury Park,BSP,1.0,51.5406977630272,-0.210127665126915,52.62714971818,1.30681996029555,1.8658799396344354
Brookmans Park,BPK,2.0,51.7210604040222,-0.204548729285783,52.62714971818,1.30681996029555,1.7621671773920187
Brookwood,BKO,2.0,51.3037572593507,-0.635747900032551,52.62714971818,1.30681996029555,2.3505185581198815
Broome,BME,2.0,52.4227745962921,-2.88520796216339,52.62714971818,1.30681996029555,4.19700694461209
Broomfleet,BMF,2.0,53.7402076992399,-0.671828400321333,52.62714971818,1.30681996029555,2.2702306940425734
Brora,BRA,2.0,58.012954677959,-3.85228367382381,52.62714971818,1.30681996029555,7.458099313656508
Brough,BUH,1.0,53.726959736948,-0.578724236728498,52.62714971818,1.30681996029555,2.182855697547028
Broughty Ferry,BYF,2.0,56.4671632427311,-2.87315275743822,52.62714971818,1.30681996029555,5.67607926210813
Broxbourne,BXB,1.0,51.7469087203036,-0.0110867237416249,52.62714971818,1.30681996029555,1.5848350835882894
Bruce Grove,BCV,1.0,51.5939575362971,-0.0698670703254643,52.62714971818,1.30681996029555,1.7212650188114724
Brundall,BDA,0.0,52.6194794445227,1.43929868679443,52.62714971818,1.30681996029555,0.13270058806479676
Brundall Gardens,BGA,0.0,52.623439277351,1.41841612253682,52.62714971818,1.30681996029555,0.11165782909462905
Brunstane,BSU,2.0,55.9425140850115,-3.10098653970798,52.62714971818,1.30681996029555,5.515469066754832
Brunswick,BRW,1.0,53.3832435421687,-2.97607735757102,52.62714971818,1.30681996029555,4.349124889683269
Bruton,BRU,2.0,51.1116412233567,-2.44707381432238,52.62714971818,1.30681996029555,4.048269317745157
Bryn,BYN,2.0,53.4998691660173,-2.6472139954436,52.62714971818,1.30681996029555,4.049200384986106
Buckenham (Norfolk),BUC,-999.0,52.5977342869752,1.47032522512213,52.62714971818,1.30681996029555,0.16613018756076392
Buckley,BCK,2.0,53.163039091322,-3.05592619131988,52.62714971818,1.30681996029555,4.395535394429417
Bucknell,BUK,2.0,52.3573820377697,-2.94737831871819,52.62714971818,1.30681996029555,4.26274296651316
Buckshaw Parkway,BSV,1.0,53.6733436562841,-2.6608302706882,52.62714971818,1.30681996029555,4.103263349037102
Bugle,BGL,2.0,50.4003548175137,-4.79210144517706,52.62714971818,1.30681996029555,6.492723453202472
Builth Road,BHR,2.0,52.1693260878635,-3.42703322967269,52.62714971818,1.30681996029555,4.755940338213744
Bulwell,BLW,0.0,52.9996957837852,-1.19623056375416,52.62714971818,1.30681996029555,2.5306229464192094
Bures,BUE,1.0,51.9711590332091,0.769143780923498,52.62714971818,1.30681996029555,0.8481859776208992
Burgess Hill,BUG,1.0,50.9536546008005,-0.127412852764647,52.62714971818,1.30681996029555,2.2039985639631436
Burley Park,BUY,2.0,53.8120311080587,-1.57776768947798,52.62714971818,1.30681996029555,3.1184595263217463
Burley-in-Wharfedale,BUW,2.0,53.9081516997075,-1.75337211508043,52.62714971818,1.30681996029555,3.3174902584440753
Burnage,BNA,1.0,53.4211687602571,-2.21567840315285,52.62714971818,1.30681996029555,3.6108809118659253
Burneside (Cumbria),BUD,2.0,54.3549826054845,-2.76667730640148,52.62714971818,1.30681996029555,4.424792251421436
Burnham (Bucks),BNM,2.0,51.5235048795581,-0.646373823188634,52.62714971818,1.30681996029555,2.2434343952204236
Burnham-on-Crouch,BUU,1.0,51.6336547723703,0.814027782561537,52.62714971818,1.30681996029555,1.1089978980075894
Burnley Barracks,BUB,2.0,53.7908801067712,-2.25808600820696,52.62714971818,1.30681996029555,3.7500430639654576
Burnley Central,BNC,2.0,53.7935141377532,-2.24497131410056,52.62714971818,1.30681996029555,3.7383990177778865
Burnley Manchester Road,BYM,2.0,53.784967519749,-2.24886752625716,52.62714971818,1.30681996029555,3.73944588992241
Burnside (Strathclyde),BUI,2.0,55.8169313339993,-4.20239033426663,52.62714971818,1.30681996029555,6.366011689144835
Burntisland,BTS,2.0,56.0570842114504,-3.23319831966981,52.62714971818,1.30681996029555,5.690010246963156
Burscough Bridge,BCB,2.0,53.6052595050232,-2.84088028461687,52.62714971818,1.30681996029555,4.261468769892018
Burscough Junction,BCJ,2.0,53.5975223038556,-2.84060569626726,52.62714971818,1.30681996029555,4.259432184193827
Bursledon,BUO,2.0,50.8836886125224,-1.30503236047306,52.62714971818,1.30681996029555,3.140291255989673
Burton Joyce,BUJ,1.0,52.9834418843688,-1.04087761567102,52.62714971818,1.30681996029555,2.3745795450746257
Burton-on-Trent,BUT,1.0,52.8058165084357,-1.64245997205794,52.62714971818,1.30681996029555,2.954686775501471
Bury St Edmunds,BSE,1.0,52.2537604920335,0.713306656862091,52.62714971818,1.30681996029555,0.7011972301391237
Busby,BUS,2.0,55.7803445376612,-4.26220173231044,52.62714971818,1.30681996029555,6.399737508860747
Bush Hill Park,BHK,1.0,51.6415169536941,-0.0692211146516689,52.62714971818,1.30681996029555,1.6926195633898402
Bushey,BSH,2.0,51.6457502336329,-0.385321269560704,52.62714971818,1.30681996029555,1.9561408154958435
Butlers Lane,BUL,2.0,52.5924709448511,-1.83802031828625,52.62714971818,1.30681996029555,3.145031477602418
Buxted,BXD,2.0,50.9900108378352,0.131438921683175,52.62714971818,1.30681996029555,2.0153769621254805
Buxton,BUX,1.0,53.2607227045765,-1.91286358993768,52.62714971818,1.30681996029555,3.281429093052879
Byfleet & New Haw,BFN,2.0,51.3497957278428,-0.481389767596653,52.62714971818,1.30681996029555,2.1975730357734795
Bynea,BYE,2.0,51.6720366859549,-4.09888164715589,52.62714971818,1.30681996029555,5.489430824150106
Cadoxton,CAD,2.0,51.4122831697514,-3.24889594393883,52.62714971818,1.30681996029555,4.714917616521513
Caergwrle,CGW,2.0,53.1078664074892,-3.03291327418616,52.62714971818,1.30681996029555,4.366276798583145
Caerphilly,CPH,2.0,51.57158067131,-3.21848255919666,52.62714971818,1.30681996029555,4.646782640239651
Caersws,CWS,2.0,52.5161279090032,-3.43249879239218,52.62714971818,1.30681996029555,4.740618955546888
Caldercruix,CAC,2.0,55.8879475461776,-3.88771190821316,52.62714971818,1.30681996029555,6.133185453581723
Caldicot,CDT,2.0,51.5847930591881,-2.76057390572724,52.62714971818,1.30681996029555,4.198833202915373
Caledonian Rd & Barnsbury,CIR,1.0,51.5430392840645,-0.116729249835755,52.62714971818,1.30681996029555,1.7893540138898072
Calstock,CSK,2.0,50.4978023671618,-4.20898850028348,52.62714971818,1.30681996029555,5.912551320291725
Cam & Dursley,CDU,2.0,51.71762106741,-2.35908298700462,52.62714971818,1.30681996029555,3.777047363430272
Camberley,CAM,2.0,51.3363271281171,-0.744271720142327,52.62714971818,1.30681996029555,2.423468596986182
Camborne,CBN,2.0,50.2104431448962,-5.2974123155278,52.62714971818,1.30681996029555,7.032521213219336
Cambridge,CBG,0.0,52.1940653655991,0.137456461171047,52.62714971818,1.30681996029555,1.2469855851352565
Cambridge Heath,CBH,1.0,51.5319710950389,-0.0572790666047599,52.62714971818,1.30681996029555,1.7493376951794106
Cambuslang,CBL,2.0,55.8196110785266,-4.17300936139383,52.62714971818,1.30681996029555,6.3419507197827345
Camden Road,CMD,1.0,51.541789311709,-0.138700901327927,52.62714971818,1.30681996029555,1.8076331965649355
Camelon,CMO,2.0,56.0060960246981,-3.81760595611437,52.62714971818,1.30681996029555,6.138160890291649
Canada Water,ZCW,1.0,51.4979884652777,-0.0497198367270248,52.62714971818,1.30681996029555,1.764994435107924
Canley,CNL,2.0,52.3992417616656,-1.54757487164278,52.62714971818,1.30681996029555,2.863478984249547
Cannock,CAO,2.0,52.6861624456421,-2.02214749992606,52.62714971818,1.30681996029555,3.329490479520377
Canonbury,CNN,1.0,51.5487306960064,-0.0921909296515918,52.62714971818,1.30681996029555,1.7664141806429638
Canterbury East,CBE,2.0,51.2742643010057,1.07596836838028,52.62714971818,1.30681996029555,1.3724399474995954
Canterbury West,CBW,2.0,51.2842658182293,1.07530307014886,52.62714971818,1.30681996029555,1.3626948444791278
Cantley,CNY,0.0,52.5787439208642,1.51341203393271,52.62714971818,1.30681996029555,0.21218719589899912
Capenhurst,CPU,2.0,53.2601766897761,-2.94228526259152,52.62714971818,1.30681996029555,4.296000272571489
Carbis Bay,CBB,2.0,50.1970567010486,-5.46326466277764,52.62714971818,1.30681996029555,7.193010348628926
Cardenden,CDD,2.0,56.1412590120684,-3.26164246018956,52.62714971818,1.30681996029555,5.76366315955205
Cardiff Bay,CDB,2.0,51.4671120338694,-3.16640344566505,52.62714971818,1.30681996029555,4.62119195323614
Cardiff Central,CDF,2.0,51.4760288851757,-3.17930229689385,52.62714971818,1.30681996029555,4.631454639595062
Cardiff Queen Street,CDQ,2.0,51.4819650131963,-3.17018110795731,52.62714971818,1.30681996029555,4.621145591048377
Cardonald,CDO,2.0,55.8525736689993,-4.34069348123436,52.62714971818,1.30681996029555,6.503673403145316
Cardross,CDR,2.0,55.9603843832927,-4.65307437435214,52.62714971818,1.30681996029555,6.8286743818163265
Carfin,CRF,2.0,55.8073437453988,-3.9562545230792,52.62714971818,1.30681996029555,6.1492753287122
Cark & Cartmel,CAK,1.0,54.1779579416092,-2.97406410040301,52.62714971818,1.30681996029555,4.553127989305663
Carlisle,CAR,1.0,54.8906549298,-2.93319211047497,52.62714971818,1.30681996029555,4.806366424161876
Carlton,CTO,1.0,52.965087366641,-1.07865502808069,52.62714971818,1.30681996029555,2.4092930030230804
Carluke,CLU,2.0,55.7312694028257,-3.84892564535903,52.62714971818,1.30681996029555,6.018078743821109
Carmarthen,CMN,2.0,51.8533578808521,-4.30596190317658,52.62714971818,1.30681996029555,5.665869223202822
Carmyle,CML,2.0,55.8343417681725,-4.15818113045633,52.62714971818,1.30681996029555,6.3365856553395
Carnforth,CNF,1.0,54.1296807999724,-2.77123283370784,52.62714971818,1.30681996029555,4.346045816881259
Carnoustie,CAN,2.0,56.5005661034066,-2.70660077824166,52.62714971818,1.30681996029555,5.577714632164544
Carntyne,CAY,2.0,55.8548777008205,-4.17857314789674,52.62714971818,1.30681996029555,6.36457111526959
Carpenders Park,CPK,2.0,51.6283500844943,-0.385939110192136,52.62714971818,1.30681996029555,1.9654602460922537
Carrbridge,CAG,2.0,57.2795057695212,-3.82820361192189,52.62714971818,1.30681996029555,6.929132984412974
Carshalton,CSH,2.0,51.3684528774191,-0.166368536051504,52.62714971818,1.30681996029555,1.937679561411215
Carshalton Beeches,CSB,2.0,51.3574095253256,-0.169797044692897,52.62714971818,1.30681996029555,1.9474696240945528
Carstairs,CRS,2.0,55.6910505751263,-3.66847398361363,52.62714971818,1.30681996029555,5.843033312372574
Cartsdyke,CDY,2.0,55.9422189788465,-4.73159192667259,52.62714971818,1.30681996029555,6.888548636664624
Castle Bar Park,CBP,2.0,51.5229293420363,-0.331548940592461,52.62714971818,1.30681996029555,1.9757417074324075
Castle Cary,CLC,2.0,51.0998172088069,-2.52279469643867,52.62714971818,1.30681996029555,4.12294712714843
Castleford,CFD,1.0,53.7240777865092,-1.354652736609,52.62714971818,1.30681996029555,2.8786608177166
Castleton (Manchester),CAS,2.0,53.5918484863424,-2.17823419505367,52.62714971818,1.30681996029555,3.6161092598276
Castleton Moor,CSM,2.0,54.4671435348016,-0.946648402304519,52.62714971818,1.30681996029555,2.909243356346313
Caterham,CAT,2.0,51.2821399092314,-0.0783071221606942,52.62714971818,1.30681996029555,1.9307067153562463
Catford,CTF,2.0,51.4444050592825,-0.0263165980978829,52.62714971818,1.30681996029555,1.782172273231644
Catford Bridge,CFB,2.0,51.4447390713824,-0.0247911767036132,52.62714971818,1.30681996029555,1.7808096916404408
Cathays,CYS,2.0,51.4889025348744,-3.17868388381823,52.62714971818,1.30681996029555,4.6276723507463915
Cathcart,CCT,2.0,55.8176734833053,-4.26053705302787,52.62714971818,1.30681996029555,6.416767567056702
Cattal,CTL,2.0,53.9974405714928,-1.32053513613482,52.62714971818,1.30681996029555,2.963223215589971
Causeland,CAU,2.0,50.4056959147701,-4.46644892679679,52.62714971818,1.30681996029555,6.185910655946523
Cefn-y-Bedd,CYB,2.0,53.0988032278231,-3.03105323734973,52.62714971818,1.30681996029555,4.363439115194336
Chadwell Heath,CTH,1.0,51.5680368465285,0.128958362519305,52.62714971818,1.30681996029555,1.5840069502416636
Chafford Hundred Lakeside,CFH,2.0,51.4855550575053,0.28744692045023,52.62714971818,1.30681996029555,1.5304769725952978
Chalfont & Latimer,CFO,2.0,51.6681076576697,-0.560526398177912,52.62714971818,1.30681996029555,2.0992246417027265
Chalkwell,CHW,2.0,51.5387163080302,0.670592556917399,52.62714971818,1.30681996029555,1.2607428751096
Chandlers Ford,CFR,2.0,50.9836845147777,-1.38517039014294,52.62714971818,1.30681996029555,3.1540117186922605
Chapel-en-le-Frith,CEF,1.0,53.3122322961308,-1.91876260821786,52.62714971818,1.30681996029555,3.297532569196138
Chapelton (Devon),CPN,2.0,51.0165400933197,-4.02472276399646,52.62714971818,1.30681996029555,5.569507265875834
Chapeltown (South Yorks),CLN,1.0,53.4623369950109,-1.46627538451147,52.62714971818,1.30681996029555,2.896134592654592
Chappel & Wakes Colne,CWC,1.0,51.9259030310448,0.758501135970095,52.62714971818,1.30681996029555,0.8901687757542086
Charing (Kent),CHG,2.0,51.2080962778901,0.790331124900325,52.62714971818,1.30681996029555,1.5101236318548616
Charing Cross (Glasgow),CHC,2.0,55.8646868840175,-4.2698209416277,52.62714971818,1.30681996029555,6.4482998262474185
Charlbury,CBY,2.0,51.8724282813146,-1.48969393048958,52.62714971818,1.30681996029555,2.8965659648311766
Charlton,CTN,2.0,51.4868115310585,0.0312574909275387,52.62714971818,1.30681996029555,1.7109736392673525
Chartham,CRT,2.0,51.2572624478548,1.01803921286391,52.62714971818,1.30681996029555,1.3999948048068631
Chassen Road,CSR,1.0,53.4461614853374,-2.36823319572701,52.62714971818,1.30681996029555,3.7652086229495527
Chatelherault,CTE,2.0,55.7652234915406,-4.00467524821846,52.62714971818,1.30681996029555,6.16923725894222
Chatham,CTM,2.0,51.3803760158194,0.521150706594487,52.62714971818,1.30681996029555,1.4736759620449609
Chathill,CHT,2.0,55.5367340174025,-1.70637532341525,52.62714971818,1.30681996029555,4.18867838489172
Cheadle Hulme,CHU,1.0,53.3759306424827,-2.1883029825707,52.62714971818,1.30681996029555,3.574431039808943
Cheam,CHE,2.0,51.3554775610295,-0.214167523240628,52.62714971818,1.30681996029555,1.982562231140681
Cheddington,CED,2.0,51.8579176369762,-0.662151871991779,52.62714971818,1.30681996029555,2.1138987844960924
Chelford (Cheshire),CEL,1.0,53.2703118842523,-2.28057730967718,52.62714971818,1.30681996029555,3.644595552935141
Chelmsford,CHM,0.0,51.736370182895,0.468572080657349,52.62714971818,1.30681996029555,1.223171160631454
Chelsfield,CLD,2.0,51.3562540463622,0.109069814712519,52.62714971818,1.30681996029555,1.7463622819705484
Cheltenham Spa,CNM,1.0,51.897399026527,-2.09962021886949,52.62714971818,1.30681996029555,3.4837294335522078
Chepstow,CPW,2.0,51.6401819017246,-2.67190561030381,52.62714971818,1.30681996029555,4.099312459042362
Cherry Tree,CYT,2.0,53.7328728448942,-2.51837919025585,52.62714971818,1.30681996029555,3.9818051401757204
Chertsey,CHY,2.0,51.387067986648,-0.509316626293664,52.62714971818,1.30681996029555,2.1991259177289795
Cheshunt,CHN,1.0,51.7028745312854,-0.0239597248580568,52.62714971818,1.30681996029555,1.620265160869225
Chessington North,CSN,2.0,51.3640398492818,-0.300699137972596,52.62714971818,1.30681996029555,2.0443982469677615
Chessington South,CSS,2.0,51.3565491107847,-0.308157574149904,52.62714971818,1.30681996029555,2.054891320794564
Chester,CTR,1.0,53.1966981459934,-2.879593999182,52.62714971818,1.30681996029555,4.22497896464979
Chester Road,CRD,2.0,52.5356474587434,-1.83247949958833,52.62714971818,1.30681996029555,3.140632700955211
Chesterfield,CHD,0.0,53.2382208069527,-1.42011597140436,52.62714971818,1.30681996029555,2.7945639107255906
Chester-le-Street,CLS,2.0,54.854595364494,-1.57801542177952,52.62714971818,1.30681996029555,3.6446933051980412
Chestfield & Swalecliffe,CSW,2.0,51.360237745381,1.06693052184082,52.62714971818,1.30681996029555,1.2894234717514574
Chetnole,CNO,2.0,50.8663655335093,-2.57292595204148,52.62714971818,1.30681996029555,4.260609027977378
Chichester,CCH,2.0,50.8320529892616,-0.781748952807999,52.62714971818,1.30681996029555,2.7539957100467833
Chilham,CIL,2.0,51.2446076985827,0.975895539359203,52.62714971818,1.30681996029555,1.4215953743327403
Chilworth,CHL,2.0,51.2152123162868,-0.524824137256049,52.62714971818,1.30681996029555,2.3126796853348552
Chingford,CHI,1.0,51.6330849559396,0.00989703968061354,52.62714971818,1.30681996029555,1.6340666490521238
Chinley,CLY,0.0,53.3402914179345,-1.94394095141586,52.62714971818,1.30681996029555,3.328065141946524
Chippenham,CPM,2.0,51.4624897217942,-2.11539415452921,52.62714971818,1.30681996029555,3.614966438971071
Chipstead,CHP,2.0,51.3092758788923,-0.169503225609274,52.62714971818,1.30681996029555,1.9789698344136197
Chirk,CRK,2.0,52.9330904882563,-3.06564362624753,52.62714971818,1.30681996029555,4.383153838326924
Chislehurst,CIT,2.0,51.4055547408408,0.0574179687488035,52.62714971818,1.30681996029555,1.747369344226154
Chiswick,CHK,2.0,51.4811353508269,-0.267835206320324,52.62714971818,1.30681996029555,1.9475337799200814
Cholsey,CHO,2.0,51.5702025135637,-1.15802300516055,52.62714971818,1.30681996029555,2.681900117026104
Chorley,CRL,1.0,53.6525386748143,-2.62684103630161,52.62714971818,1.30681996029555,4.065109020498386
Chorleywood,CLW,2.0,51.6542477676637,-0.518320062534133,52.62714971818,1.30681996029555,2.068253927411516
Christchurch,CHR,2.0,50.7382153631909,-1.78454614689707,52.62714971818,1.30681996029555,3.6227913831957435
Christs Hospital,CHH,2.0,51.0506848896206,-0.363556339669494,52.62714971818,1.30681996029555,2.2968235324399076
Church & Oswaldtwistle,CTW,2.0,53.7505227746877,-2.39121218921604,52.62714971818,1.30681996029555,3.8648944103181875
Church Fenton,CHF,2.0,53.8266010051519,-1.22758889955301,52.62714971818,1.30681996029555,2.8039100660858267
Church Stretton,CTT,2.0,52.5374242388884,-2.80369477152189,52.62714971818,1.30681996029555,4.111493891777331
Cilmeri,CIM,2.0,52.1505334866855,-3.45654171112508,52.62714971818,1.30681996029555,4.787147109175063
City Thameslink,CTK,2.0,51.5139346019675,-0.103589643870664,52.62714971818,1.30681996029555,1.7968035915169773
Clacton-on-Sea,CLT,1.0,51.7939991870545,1.15409160775521,52.62714971818,1.30681996029555,0.8470335041687457
Clandon,CLA,2.0,51.2640043702166,-0.502766109156909,52.62714971818,1.30681996029555,2.265561074531134
Clapham (North Yorkshire),CPY,2.0,54.1053880706421,-2.4103762733162,52.62714971818,1.30681996029555,4.000342043609177
Clapham High Street,CLP,2.0,51.465479417202,-0.132521686185382,52.62714971818,1.30681996029555,1.8496438207040735
Clapham Junction,CLJ,1.0,51.4641865965587,-0.170293416365599,52.62714971818,1.30681996029555,1.879985944033217
Clapton,CPT,1.0,51.5616423238882,-0.0570246574503497,52.62714971818,1.30681996029555,1.7307160797325942
Clarbeston Road,CLR,2.0,51.8516714049905,-4.8835490247474,52.62714971818,1.30681996029555,6.238752662608842
Clarkston,CKS,2.0,55.7893535486702,-4.27564475472092,52.62714971818,1.30681996029555,6.415874481313581
Claverdon,CLV,2.0,52.277091521558,-1.69656001384624,52.62714971818,1.30681996029555,3.0237116281315894
Claygate,CLG,2.0,51.3612128745663,-0.34824779526903,52.62714971818,1.30681996029555,2.083709520909332
Cleethorpes,CLE,2.0,53.5619045675724,-0.0292209300100191,52.62714971818,1.30681996029555,1.6305740979885281
Cleland,CEA,2.0,55.804652232152,-3.91024482718574,52.62714971818,1.30681996029555,6.108542152025766
Clifton (Manchester),CLI,2.0,53.522491666707,-2.31474664635258,52.62714971818,1.30681996029555,3.730600741325848
Clifton Down,CFN,2.0,51.4645471476911,-2.61174122454121,52.62714971818,1.30681996029555,4.087391160167653
Clitheroe,CLH,2.0,53.8734683464237,-2.39433664531423,52.62714971818,1.30681996029555,3.9053643034109076
Clock House,CLK,2.0,51.4085847718765,-0.0406570648343016,52.62714971818,1.30681996029555,1.8167539353507538
Clunderwen,CUW,2.0,51.840545791914,-4.73184301881061,52.62714971818,1.30681996029555,6.089679491733893
Clydebank,CYK,2.0,55.9006964941048,-4.40441492241242,52.62714971818,1.30681996029555,6.582880249528163
Coatbridge Central,CBC,2.0,55.8625102963699,-4.0318976496868,52.62714971818,1.30681996029555,6.242552666180792
Coatbridge Sunnyside,CBS,2.0,55.8668386609231,-4.02828798060081,52.62714971818,1.30681996029555,6.241711398867085
Coatdyke,COA,2.0,55.8643447692187,-4.00498525207608,52.62714971818,1.30681996029555,6.220506925697281
Cobham & Stoke d'Abernon,CSD,2.0,51.3180996661306,-0.389346373427882,52.62714971818,1.30681996029555,2.1425667481848323
Codsall,CSL,2.0,52.6272899571536,-2.20176310096144,52.62714971818,1.30681996029555,3.5085830640596836
Cogan,CGN,2.0,51.4459958120536,-3.18909039001181,52.62714971818,1.30681996029555,4.64847657065823
Colchester,COL,0.0,51.90071062168,0.89259805805851,52.62714971818,1.30681996029555,0.8362377324760052
Colchester Town,CET,1.0,51.8864527052257,0.9047624659822,52.62714971818,1.30681996029555,0.8427824711827789
Coleshill Parkway,CEH,1.0,52.5165275432713,-1.70817740730361,52.62714971818,1.30681996029555,3.0170260841118686
Collingham,CLM,2.0,53.1440857576614,-0.750393934928215,52.62714971818,1.30681996029555,2.12116757461933
Collington,CLL,2.0,50.8392865411482,0.457861387933257,52.62714971818,1.30681996029555,1.9791880651857399
Colne,CNE,2.0,53.8547444008362,-2.18185934114806,52.62714971818,1.30681996029555,3.698360714317474
Colwall,CWL,2.0,52.0798705537891,-2.35695037506955,52.62714971818,1.30681996029555,3.7044200023860276
Colwyn Bay,CWB,2.0,53.2963632033856,-3.72541732837559,52.62714971818,1.30681996029555,5.076540043993871
Combe (Oxon),CME,2.0,51.8325940324182,-1.39407333584626,52.62714971818,1.30681996029555,2.815340713824914
Commondale,COM,2.0,54.4812740872027,-0.975148019682156,52.62714971818,1.30681996029555,2.940264450257384
Congleton,CNG,1.0,53.1578561862417,-2.19258027037562,52.62714971818,1.30681996029555,3.539413981108167
Conisbrough,CNS,2.0,53.4893094105923,-1.23433150755602,52.62714971818,1.30681996029555,2.683425072139086
Connel Ferry,CON,2.0,56.4523594657108,-5.38544247761732,52.62714971818,1.30681996029555,7.7083465250664585
Conon Bridge,CBD,2.0,57.5617567994351,-4.44040638557,52.62714971818,1.30681996029555,7.575021961485265
Cononley,CEY,2.0,53.9175717411782,-2.01206789209741,52.62714971818,1.30681996029555,3.5609276283294946
Conway Park,CNP,1.0,53.3933615887328,-3.02267129068915,52.62714971818,1.30681996029555,4.39676871383168
Conwy,CNW,1.0,53.280106240192,-3.83052500023981,52.62714971818,1.30681996029555,5.1786741028159
Cooden Beach,COB,2.0,50.8333700419813,0.426858738350685,52.62714971818,1.30681996029555,1.9979933130193963
Cookham,COO,2.0,51.557462203665,-0.722079072881563,52.62714971818,1.30681996029555,2.293613451638333
Cooksbridge,CBR,2.0,50.9037547738731,-0.0092027514388362,52.62714971818,1.30681996029555,2.168410918590685
Coombe Junction Halt,COE,2.0,50.4459252926848,-4.48185232237372,52.62714971818,1.30681996029555,6.185989556289303
Copplestone,COP,2.0,50.8144709700958,-3.75157247453534,52.62714971818,1.30681996029555,5.373373081083287
Corbridge,CRB,2.0,54.9662625268169,-2.01840032187859,52.62714971818,1.30681996029555,4.065530550433912
Corby,COR,2.0,52.4888508478421,-0.6883354035657,52.62714971818,1.30681996029555,1.9999428750544492
Corkerhill,CKH,2.0,55.8375061471062,-4.33429351905428,52.62714971818,1.30681996029555,6.4906509448321215
Corkickle,CKL,2.0,54.5416834476749,-3.58216474823985,52.62714971818,1.30681996029555,5.25048672807261
Corpach,CPA,2.0,56.8428332781627,-5.12195790866533,52.62714971818,1.30681996029555,7.687728713108287
Corrour,CRR,2.0,56.7602193492772,-4.69060138585505,52.62714971818,1.30681996029555,7.283634215057811
Coryton,COY,2.0,51.5204395971461,-3.23181845626842,52.62714971818,1.30681996029555,4.671621342565038
Coseley,CSY,2.0,52.5450842204875,-2.08577774384501,52.62714971818,1.30681996029555,3.393590123755565
Cosford,COS,2.0,52.6448359469502,-2.30027497544232,52.62714971818,1.30681996029555,3.6071382948417576
Cosham,CSA,2.0,50.8419241447189,-1.06732879438891,52.62714971818,1.30681996029555,2.9704566412437794
Cottingham,CGM,1.0,53.7816479755855,-0.406433983012819,52.62714971818,1.30681996029555,2.0659393264600032
Cottingley,COT,2.0,53.7678175756796,-1.58770821538294,52.62714971818,1.30681996029555,3.1111760671696764
Coulsdon South,CDS,2.0,51.3158366640872,-0.137887293899879,52.62714971818,1.30681996029555,1.9510820013928378
Coulsdon Town,CDN,2.0,51.3220411523246,-0.134464231082376,52.62714971818,1.30681996029555,1.944378689706575
Coventry,COV,2.0,52.4008144382941,-1.51345977599177,52.62714971818,1.30681996029555,2.829347177324463
Coventry Arena,CAA,2.0,52.4477337100526,-1.49412470531811,52.62714971818,1.30681996029555,2.806685077418196
Cowden (Kent),CWN,2.0,51.1556353416943,0.110032723034128,52.62714971818,1.30681996029555,1.896748336357759
Cowdenbeath,COW,2.0,56.1120953327991,-3.34318635187069,52.62714971818,1.30681996029555,5.810972779151419
Cradley Heath,CRA,2.0,52.4696552938033,-2.09048839521938,52.62714971818,1.30681996029555,3.4009570059266125
Craigendoran,CGD,2.0,55.9948018624344,-4.71124492675969,52.62714971818,1.30681996029555,6.896244336558012
Cramlington,CRM,2.0,55.0877690033603,-1.59859511992401,52.62714971818,1.30681996029555,3.807372329437777
Cranbrook (Devon),CBK,2.0,50.7500952464281,-3.42041599201744,52.62714971818,1.30681996029555,5.086265156159703
Craven Arms,CRV,2.0,52.4425417003323,-2.83742232035607,52.62714971818,1.30681996029555,4.148351986149945
Crawley,CRW,2.0,51.1122123903253,-0.186672935434113,52.62714971818,1.30681996029555,2.1273354547232373
Crayford,CRY,2.0,51.4482779041524,0.178936075571555,52.62714971818,1.30681996029555,1.6315210116111953
Crediton,CDI,2.0,50.7833069483759,-3.64677829535681,52.62714971818,1.30681996029555,5.285630694454632
Cressing (Essex),CES,1.0,51.8523340604127,0.577961040362359,52.62714971818,1.30681996029555,1.0637549664690404
Cressington,CSG,1.0,53.3587520488864,-2.91200333610422,52.62714971818,1.30681996029555,4.281788408660622
Creswell,CWD,1.0,53.264112781138,-1.21639486472377,52.62714971818,1.30681996029555,2.6023710336479917
Crewe,CRE,1.0,53.0896271575516,-2.4329691730368,52.62714971818,1.30681996029555,3.7682765482005744
Crewkerne,CKN,2.0,50.8735384311373,-2.77849644743115,52.62714971818,1.30681996029555,4.445780324901867
Crews Hill,CWH,2.0,51.684484296328,-0.106887096068869,52.62714971818,1.30681996029555,1.6991720745027434
Crianlarich,CNR,2.0,56.3904817962502,-4.61843468589525,52.62714971818,1.30681996029555,7.019352602059382
Criccieth,CCC,2.0,52.9184156772103,-4.23751289496718,52.62714971818,1.30681996029555,5.551978266243088
Cricklewood,CRI,2.0,51.5584516063089,-0.21267663535896,52.62714971818,1.30681996029555,1.8576828465920925
Croftfoot,CFF,2.0,55.8182615046635,-4.2283256121718,52.62714971818,1.30681996029555,6.389133817837814
Crofton Park,CFT,2.0,51.4551875557246,-0.0365030454664447,52.62714971818,1.30681996029555,1.7826979576015056
Cromer,CMR,0.0,52.930080690008,1.29282430287158,52.62714971818,1.30681996029555,0.3032541048681521
Cromford,CMF,2.0,53.1129329746475,-1.5491620139343,52.62714971818,1.30681996029555,2.8970016239881535
Crookston,CKT,2.0,55.842318324364,-4.3646760010174,52.62714971818,1.30681996029555,6.5194459584676565
Cross Gates,CRG,2.0,53.8049143949973,-1.45158048553366,52.62714971818,1.30681996029555,2.9993170311771538
Crossflatts,CFL,2.0,53.85846717734,-1.84488619236594,52.62714971818,1.30681996029555,3.383695370147339
Crosshill,COI,2.0,55.833290292641,-4.25681226287329,52.62714971818,1.30681996029555,6.421319249024127
Crosskeys,CKY,2.0,51.6209052713811,-3.12617046220163,52.62714971818,1.30681996029555,4.545759779472003
Crossmyloof,CMY,2.0,55.8339508036377,-4.28431839013047,52.62714971818,1.30681996029555,6.445494647837143
Croston,CSO,2.0,53.6675629248262,-2.7777501372441,52.62714971818,1.30681996029555,4.214993774880207
Crouch Hill,CRH,2.0,51.5713003694514,-0.117148819750171,52.62714971818,1.30681996029555,1.7727111817088275
Crowborough,COH,2.0,51.0463795309772,0.188012411090755,52.62714971818,1.30681996029555,1.9366374768930867
Crowhurst,CWU,2.0,50.8885767869689,0.501336510177375,52.62714971818,1.30681996029555,1.9161000562481707
Crowle,CWE,2.0,53.5897328427991,-0.81735865187716,52.62714971818,1.30681996029555,2.3321022808216307
Crowthorne,CRN,2.0,51.366727169526,-0.819273411974494,52.62714971818,1.30681996029555,2.4716265957393424
Croy,CRO,2.0,55.9556821274184,-4.0359768431357,52.62714971818,1.30681996029555,6.294807835200814
Crystal Palace,CYP,2.0,51.4181074460731,-0.072609878955063,52.62714971818,1.30681996029555,1.834287299513461
Cuddington,CUD,1.0,53.2399218257185,-2.59930662534034,52.62714971818,1.30681996029555,3.953898653075046
Cuffley,CUF,2.0,51.7087202077633,-0.10978341309134,52.62714971818,1.30681996029555,1.6882766014771917
Culham,CUM,2.0,51.6537935596445,-1.23651383491957,52.62714971818,1.30681996029555,2.7232276814916405
Culrain,CUA,2.0,57.9195183107936,-4.40427167605383,52.62714971818,1.30681996029555,7.786252821406628
Cumbernauld,CUB,2.0,55.9420305501203,-3.98033519205288,52.62714971818,1.30681996029555,6.240388171818302
Cupar,CUP,2.0,56.3169904139478,-3.00875666756718,52.62714971818,1.30681996029555,5.677950861983506
Curriehill,CUH,2.0,55.9005690535793,-3.3187519699346,52.62714971818,1.30681996029555,5.666673612190757
Cuxton,CUX,2.0,51.3739241251142,0.46170858180193,52.62714971818,1.30681996029555,1.5115513981252877
Cwmbach,CMH,2.0,51.7019311514616,-3.41372372042933,52.62714971818,1.30681996029555,4.810359865730635
Cwmbran,CWM,2.0,51.656589162343,-3.01620383997003,52.62714971818,1.30681996029555,4.430634556156632
Cynghordy,CYN,2.0,52.0515022362178,-3.7482113284355,52.62714971818,1.30681996029555,5.087701971768721
Dagenham Dock,DDK,2.0,51.5260877297843,0.146102888033722,52.62714971818,1.30681996029555,1.5998755026969942
Daisy Hill,DSY,2.0,53.5394553429484,-2.51586138257427,52.62714971818,1.30681996029555,3.930037430115529
Dalgety Bay,DAG,2.0,56.0420983541516,-3.36772120470528,52.62714971818,1.30681996029555,5.789059447752423
Dalmally,DAL,2.0,56.4011953995722,-4.98355341151622,52.62714971818,1.30681996029555,7.335681151879061
Dalmarnock,DAK,2.0,55.8420903351636,-4.2177095618254,52.62714971818,1.30681996029555,6.391890926127948
Dalmeny,DAM,2.0,55.9863224095627,-3.38162023146767,52.62714971818,1.30681996029555,5.767626253691553
Dalmuir,DMR,2.0,55.9119346513924,-4.42668195442919,52.62714971818,1.30681996029555,6.607787546797448
Dalreoch,DLR,2.0,55.9474206110829,-4.57786407515961,52.62714971818,1.30681996029555,6.756752548332596
Dalry,DLY,2.0,55.7062259599313,-4.71108082709015,52.62714971818,1.30681996029555,6.75986985002927
Dalston (Cumbria),DLS,2.0,54.8461793005894,-2.98885243258072,52.62714971818,1.30681996029555,4.834965728371543
Dalston Junction,DLJ,2.0,51.5461140533343,-0.075137571913028,52.62714971818,1.30681996029555,1.75454972271988
Dalston Kingsland,DLK,1.0,51.548146614991,-0.0757008270787684,52.62714971818,1.30681996029555,1.7537421202142585
Dalton (Cumbria),DLT,1.0,54.1542402484565,-3.17900332996882,52.62714971818,1.30681996029555,4.738630190164498
Dalwhinnie,DLW,2.0,56.9351747606959,-4.24619941232607,52.62714971818,1.30681996029555,7.028165046415397
Danby,DNY,2.0,54.4661531404483,-0.910955849347219,52.62714971818,1.30681996029555,2.8810524342592503
Danescourt,DCT,2.0,51.5005094348701,-3.2339173943314,52.62714971818,1.30681996029555,4.678420037970209
Danzey,DZY,2.0,52.3248139247282,-1.82087736085094,52.62714971818,1.30681996029555,3.142275841600967
Darlington,DAR,1.0,54.5204487638895,-1.5473239913848,52.62714971818,1.30681996029555,3.4250137187167615
Darnall,DAN,1.0,53.3845848539264,-1.4125672166063,52.62714971818,1.30681996029555,2.8229018053700305
Darsham,DSM,1.0,52.2729949292624,1.52346982245693,52.62714971818,1.30681996029555,0.4151659635468844
Dartford,DFD,2.0,51.4473686091583,0.219247795125754,52.62714971818,1.30681996029555,1.604586139681065
Darton,DRT,1.0,53.5883685698073,-1.53165757467506,52.62714971818,1.30681996029555,2.9968143748414815
Darwen,DWN,2.0,53.6980382551398,-2.46494001713562,52.62714971818,1.30681996029555,3.9208386329895646
Datchet,DAT,2.0,51.4830761133821,-0.579421910690656,52.62714971818,1.30681996029555,2.20608540384474
Davenport,DVN,1.0,53.3909022414929,-2.15295802817964,52.62714971818,1.30681996029555,3.5430751680431865
Dawlish,DWL,2.0,50.5808243984253,-3.46462586729764,52.62714971818,1.30681996029555,5.191737917106914
Dawlish Warren,DWW,2.0,50.5987145190544,-3.44356213176095,52.62714971818,1.30681996029555,5.165334391651989
Deal,DEA,2.0,51.2230404404227,1.39884675211659,52.62714971818,1.30681996029555,1.4071218121744113
Dean (Wilts),DEN,2.0,51.0424618999667,-1.63486720856804,52.62714971818,1.30681996029555,3.3413708086128815
Deansgate,DGT,1.0,53.4741857640751,-2.25105124318295,52.62714971818,1.30681996029555,3.6573101541415873
Deganwy,DGY,1.0,53.2947519812566,-3.83338710286836,52.62714971818,1.30681996029555,5.18337934497034
Deighton,DHN,2.0,53.6684837829464,-1.75189659292689,52.62714971818,1.30681996029555,3.231118008894117
Delamere,DLM,1.0,53.2287779256449,-2.66656070710605,52.62714971818,1.30681996029555,4.018670231320083
Denby Dale,DBD,1.0,53.5726320929315,-1.66321052492305,52.62714971818,1.30681996029555,3.1168923632511865
Denham,DNM,2.0,51.578836362709,-0.497436854492594,52.62714971818,1.30681996029555,2.086696802357336
Denham Golf Club,DGC,2.0,51.580596815156,-0.51778668246761,52.62714971818,1.30681996029555,2.1034406052093346
Denmark Hill,DMK,2.0,51.4682011118168,-0.0893608845630425,52.62714971818,1.30681996029555,1.814519998165148
Dent,DNT,2.0,54.2824108456213,-2.36359889232972,52.62714971818,1.30681996029555,4.026395901265205
Denton,DTN,1.0,53.4568674739172,-2.13165979003999,52.62714971818,1.30681996029555,3.537170415410195
Deptford,DEP,2.0,51.4788463642079,-0.026270214115525,52.62714971818,1.30681996029555,1.7594686714616241
Derby,DBY,1.0,52.9165485818253,-1.46335478012848,52.62714971818,1.30681996029555,2.7852504007292653
Derby Road (Ipswich),DBR,1.0,52.050551175491,1.18264326424955,52.62714971818,1.30681996029555,0.5898183883806755
Devonport (Devon),DPT,2.0,50.3785384996853,-4.17071080992923,52.62714971818,1.30681996029555,5.921114401081902
Devonport Dockyard,DOC,2.0,50.3821742019037,-4.1758986568326,52.62714971818,1.30681996029555,5.924535298509381
Dewsbury,DEW,1.0,53.6921323675954,-1.63310655566078,52.62714971818,1.30681996029555,3.1268763907098993
Didcot Parkway,DID,2.0,51.6109546860743,-1.24289356096081,52.62714971818,1.30681996029555,2.7447570719015935
Digby & Sowton,DIG,2.0,50.713993328666,-3.47356109719659,52.62714971818,1.30681996029555,5.1490009152813245
Dilton Marsh,DMH,2.0,51.2489890910928,-2.20791557793657,52.62714971818,1.30681996029555,3.7752738467249247
Dinas (Rhondda),DMG,2.0,51.6178378851192,-3.43754173872447,52.62714971818,1.30681996029555,4.850533816755088
Dinas Powys,DNS,2.0,51.4316678020878,-3.21835212130232,52.62714971818,1.30681996029555,4.680422991544277
Dingle Road,DGL,2.0,51.4400570944876,-3.18059109298652,52.62714971818,1.30681996029555,4.641771952427543
Dingwall,DIN,2.0,57.59424066943,-4.42219986587001,52.62714971818,1.30681996029555,7.582457430581968
Dinsdale,DND,2.0,54.5147295901116,-1.46706513570219,52.62714971818,1.30681996029555,3.355204360202178
Dinting,DTG,1.0,53.4493321635491,-1.97029878612479,52.62714971818,1.30681996029555,3.3786818807950443
Disley,DSL,1.0,53.3581843467523,-2.04248177088045,52.62714971818,1.30681996029555,3.4281531054826586
Diss,DIS,0.0,52.3736543722193,1.12369734579394,52.62714971818,1.30681996029555,0.3127199743630725
Dodworth,DOD,1.0,53.5443255754093,-1.53169088048623,52.62714971818,1.30681996029555,2.983011120716782
Dolau,DOL,2.0,52.29535399865,-3.26362091602153,52.62714971818,1.30681996029555,4.582468570913331
Doleham,DLH,2.0,50.9185854757412,0.609974730800684,52.62714971818,1.30681996029555,1.845205962598813
Dolgarrog,DLG,2.0,53.1863525124092,-3.82263691779208,52.62714971818,1.30681996029555,5.1598484114588326
Dolwyddelan,DWD,2.0,53.0520169904365,-3.88513298649778,52.62714971818,1.30681996029555,5.209307785181311
Doncaster,DON,1.0,53.5221497040669,-1.13984532561563,52.62714971818,1.30681996029555,2.605224749617657
Dorchester South,DCH,2.0,50.7092941817416,-2.43724302167314,52.62714971818,1.30681996029555,4.2066824781050105
Dorchester West,DCW,2.0,50.7109558301461,-2.44254130185048,52.62714971818,1.30681996029555,4.2106423370573465
Dore & Totley,DOR,0.0,53.3276351284421,-1.51529775653157,52.62714971818,1.30681996029555,2.907753121848479
Dorking (Main),DKG,2.0,51.2409286574082,-0.324250782074152,52.62714971818,1.30681996029555,2.140560813418239
Dorking Deepdene,DPD,2.0,51.2388030074627,-0.324643185528021,52.62714971818,1.30681996029555,2.1422368182206397
Dorking West,DKT,2.0,51.2362248191187,-0.339978560509645,52.62714971818,1.30681996029555,2.1556014109651294
Dormans,DMS,2.0,51.1557900843982,-0.00430826569700688,52.62714971818,1.30681996029555,1.9707755825859288
Dorridge,DDG,2.0,52.3720695979365,-1.7529004491151,52.62714971818,1.30681996029555,3.0703346481299905
Dove Holes,DVH,1.0,53.3000293384446,-1.88975176117671,52.62714971818,1.30681996029555,3.26662482600674
Dover Priory,DVP,2.0,51.1256965964877,1.30529347028767,52.62714971818,1.30681996029555,1.5014538976642933
Dovercourt,DVC,1.0,51.9387345600673,1.28061089295205,52.62714971818,1.30681996029555,0.6889138880370651
Dovey Junction,DVY,2.0,52.5643635350253,-3.92390297461625,52.62714971818,1.30681996029555,5.231099743515454
Downham Market,DOW,1.0,52.6041065863828,0.365681057551921,52.62714971818,1.30681996029555,0.9414209580100208
Drayton Green,DRG,2.0,51.516615460614,-0.33019425245541,52.62714971818,1.30681996029555,1.9781561793691407
Drayton Park,DYP,2.0,51.5527683445258,-0.105509008966857,52.62714971818,1.30681996029555,1.7745333058223771
Drem,DRM,2.0,56.0051254677484,-2.78604825861367,52.62714971818,1.30681996029555,5.306815469001096
Driffield,DRF,2.0,54.0015272627459,-0.434665009990613,52.62714971818,1.30681996029555,2.218486767312259
Drigg,DRI,2.0,54.3769633209494,-3.44341362306065,52.62714971818,1.30681996029555,5.062268932097731
Droitwich Spa,DTW,2.0,52.2682048110456,-2.15836341611519,52.62714971818,1.30681996029555,3.483724627250417
Dronfield,DRO,0.0,53.301369608262,-1.46877868224617,52.62714971818,1.30681996029555,2.856312357684576
Drumchapel,DMC,2.0,55.9048173082117,-4.36287986166729,52.62714971818,1.30681996029555,6.548938914198975
Drumfrochar,DFR,2.0,55.941253590074,-4.7747672712099,52.62714971818,1.30681996029555,6.925964750712561
Drumgelloch,DRU,2.0,55.8673580650901,-3.94888294626481,52.62714971818,1.30681996029555,6.174250008981892
Drumry,DMY,2.0,55.9045972303031,-4.38547328830428,52.62714971818,1.30681996029555,6.568398939070089
Dublin Ferryport,DFP,2.0,nan,nan,52.62714971818,1.30681996029555,nan
Dublin Port - Stena,DPS,2.0,nan,nan,52.62714971818,1.30681996029555,nan
Duddeston,DUD,2.0,52.4883642047734,-1.87139067866748,52.62714971818,1.30681996029555,3.1812394258133616
Dudley Port,DDP,2.0,52.5246530129006,-2.04947980373852,52.62714971818,1.30681996029555,3.357864452393557
Duffield,DFI,2.0,52.9884014400862,-1.48597186949023,52.62714971818,1.30681996029555,2.8160591277702958
Duirinish,DRN,2.0,57.319983293958,-5.69131781581449,52.62714971818,1.30681996029555,8.425949163350545
Duke Street,DST,2.0,55.8584414373244,-4.2130485563449,52.62714971818,1.30681996029555,6.396107770762592
Dullingham,DUL,1.0,52.2016485756332,0.366663821056869,52.62714971818,1.30681996029555,1.0319616216007328
Dumbarton Central,DBC,2.0,55.9466604798905,-4.566921701259,52.62714971818,1.30681996029555,6.746850584072053
Dumbarton East,DBE,2.0,55.9422524714118,-4.55413782204535,52.62714971818,1.30681996029555,6.733552731721005
Dumbreck,DUM,2.0,55.8446540909046,-4.30124003607443,52.62714971818,1.30681996029555,6.465498535409869
Dumfries,DMF,2.0,55.072560279693,-3.60430398071058,52.62714971818,1.30681996029555,5.4862711542798275
Dumpton Park,DMP,2.0,51.3456955683759,1.42581850787212,52.62714971818,1.30681996029555,1.286967517995492
Dunbar,DUN,1.0,55.9982961094783,-2.51334649990357,52.62714971818,1.30681996029555,5.09492882925697
Dunblane,DBL,2.0,56.1858943626205,-3.96548684337943,52.62714971818,1.30681996029555,6.360965530201484
Duncraig,DCG,2.0,57.3370088020812,-5.63713233286221,52.62714971818,1.30681996029555,8.39054503830696
Dundee,DEE,1.0,56.4564890772048,-2.97120503713119,52.62714971818,1.30681996029555,5.741544897079925
Dunfermline Queen Margaret,DFL,2.0,56.0805782860466,-3.42146840922136,52.62714971818,1.30681996029555,5.855158390570322
Dunfermline Town,DFE,2.0,56.068193893139,-3.45252931740364,52.62714971818,1.30681996029555,5.87300524102908
Dunkeld & Birnam,DKD,2.0,56.5570605801315,-3.57839962708896,52.62714971818,1.30681996029555,6.269734428175539
Dunlop,DNL,2.0,55.7118854515322,-4.53238991249355,52.62714971818,1.30681996029555,6.603935681326523
Dunrobin Castle,DNO,-999.0,57.9855381206844,-3.94892170714185,52.62714971818,1.30681996029555,7.505674303280909
Dunston,DOT,2.0,54.9500563207881,-1.64204458851339,52.62714971818,1.30681996029555,3.7538909429633756
Dunton Green,DNG,2.0,51.2964882631909,0.170937116397448,52.62714971818,1.30681996029555,1.7495398660378514
Durham,DHM,1.0,54.7793912284615,-1.58175210120156,52.62714971818,1.30681996029555,3.602220436486425
Durrington-on-Sea,DUR,2.0,50.8175268119417,-0.411468707281776,52.62714971818,1.30681996029555,2.4954460538963823
Dyce,DYC,2.0,57.2056516865783,-2.19232258891137,52.62714971818,1.30681996029555,5.762523653252749
Dyffryn Ardudwy,DYF,2.0,52.7888563835265,-4.10464455585967,52.62714971818,1.30681996029555,5.4138800554892725
Eaglescliffe,EAG,2.0,54.5294320938467,-1.34943715428009,52.62714971818,1.30681996029555,3.267166983107207
Ealing Broadway,EAL,2.0,51.5148402459065,-0.301751768794788,52.62714971818,1.30681996029555,1.9556930663419645
Earlestown,ERL,1.0,53.4511393445328,-2.63766364961555,52.62714971818,1.30681996029555,4.029628996966635
Earley,EAR,2.0,51.4410997593376,-0.917988243278776,52.62714971818,1.30681996029555,2.5212072599375253
Earlsfield,EAD,2.0,51.4423355716453,-0.187714934858848,52.62714971818,1.30681996029555,1.907201907156899
Earlswood (Surrey),ELD,2.0,51.2273270225923,-0.170823068766138,52.62714971818,1.30681996029555,2.0354194900356584
Earlswood (West Midlands),EWD,2.0,52.3665825052423,-1.8611697000963,52.62714971818,1.30681996029555,3.1786874273523327
East Croydon,ECR,1.0,51.375452247008,-0.0927797007945513,52.62714971818,1.30681996029555,1.8776649782807124
East Didsbury,EDY,1.0,53.4093102676041,-2.22199660364924,52.62714971818,1.30681996029555,3.614460051936737
East Dulwich,EDW,2.0,51.4614929058056,-0.0805717011574361,52.62714971818,1.30681996029555,1.812073791682923
East Farleigh,EFL,2.0,51.2552351625774,0.48472893141574,52.62714971818,1.30681996029555,1.599369628209485
East Garforth,EGF,2.0,53.791978068865,-1.37053696173991,52.62714971818,1.30681996029555,2.9197714250486677
East Grinstead,EGR,2.0,51.1262718897162,-0.0179000957224751,52.62714971818,1.30681996029555,2.0018784885178746
East Kilbride,EKL,2.0,55.7660084213155,-4.18022795719083,52.62714971818,1.30681996029555,6.3214024398895114
East Malling,EML,2.0,51.2858073765709,0.439280267235468,52.62714971818,1.30681996029555,1.597443080810131
East Midlands Parkway,EMD,0.0,52.8625009507858,-1.26323198480542,52.62714971818,1.30681996029555,2.5808055337832703
East Tilbury,ETL,2.0,51.4848289691417,0.412927781783206,52.62714971818,1.30681996029555,1.45049643932309
East Worthing,EWR,2.0,50.8216440311297,-0.354893751833792,52.62714971818,1.30681996029555,2.4538017945729953
Eastbourne,EBN,2.0,50.769375796356,0.281246925814933,52.62714971818,1.30681996029555,2.122056548177522
Eastbrook,EBK,2.0,51.4376389302109,-3.20613799233607,52.62714971818,1.30681996029555,4.6670896066945025
Easterhouse,EST,2.0,55.8597611434519,-4.10717729312099,52.62714971818,1.30681996029555,6.305643732942755
Eastham Rake,ERA,1.0,53.307541541813,-2.98113292052366,52.62714971818,1.30681996029555,4.341597971000126
Eastleigh,ESL,2.0,50.9692506626551,-1.35008459359062,52.62714971818,1.30681996029555,3.1317361138466673
Eastrington,EGN,2.0,53.7551607566439,-0.787630411364113,52.62714971818,1.30681996029555,2.3788928648095347
Ebbsfleet International,EBD,2.0,51.4429709652907,0.32092083234529,52.62714971818,1.30681996029555,1.5408687190307766
Ebbw Vale Parkway,EBV,2.0,51.7571470124788,-3.19610327359543,52.62714971818,1.30681996029555,4.58619911890474
Ebbw Vale Town,EBB,2.0,51.7766914366017,-3.20257748551815,52.62714971818,1.30681996029555,4.588893615351769
Eccles (Manchester),ECC,1.0,53.4853606544673,-2.33451459617625,52.62714971818,1.30681996029555,3.7411018915980896
Eccles Road,ECS,0.0,52.470880756208,0.9699171605498,52.62714971818,1.30681996029555,0.3713805123486318
Eccleston Park,ECL,2.0,53.4307889509427,-2.78004194630839,52.62714971818,1.30681996029555,4.165126199779043
Edale,EDL,1.0,53.3649724276593,-1.81662641323107,52.62714971818,1.30681996029555,3.209407982622336
Eden Park,EDN,2.0,51.3900893651293,-0.0263551602667185,52.62714971818,1.30681996029555,1.8187012451681404
Edenbridge,EBR,2.0,51.2084338014699,0.0606462610283875,52.62714971818,1.30681996029555,1.888307109839864
Edenbridge Town,EBT,2.0,51.2000809020151,0.0671730164326339,52.62714971818,1.30681996029555,1.8903041954931354
Edge Hill,EDG,1.0,53.4026192646978,-2.94648344109004,52.62714971818,1.30681996029555,4.323417958261119
Edinburgh,EDB,1.0,55.9523963079519,-3.18822824323027,52.62714971818,1.30681996029555,5.591307828657832
Edinburgh Gateway,EGY,2.0,55.9409436079933,-3.32025199802754,52.62714971818,1.30681996029555,5.691311347278746
Edinburgh Park,EDP,2.0,55.9275544602882,-3.30766474611863,52.62714971818,1.30681996029555,5.673283050180085
Edmonton Green,EDR,1.0,51.6249271577681,-0.061112495341183,52.62714971818,1.30681996029555,1.695785736401545
Effingham Junction,EFF,2.0,51.2914943131304,-0.419965418267021,52.62714971818,1.30681996029555,2.183062780740786
Eggesford,EGG,2.0,50.8877413451847,-3.8747459315936,52.62714971818,1.30681996029555,5.465726537253319
Egham,EGH,2.0,51.4296459643391,-0.546512233572854,52.62714971818,1.30681996029555,2.206548313835914
Egton,EGT,2.0,54.4374810712663,-0.761464966771902,52.62714971818,1.30681996029555,2.748654606803423
Elephant & Castle,EPH,2.0,51.4940272342536,-0.098725576447673,52.62714971818,1.30681996029555,1.8054154146451526
Elephant & Castle (Underground),ZEL,-999.0,nan,nan,52.62714971818,1.30681996029555,nan
Elgin,ELG,2.0,57.6429130327793,-3.3112465068439,52.62714971818,1.30681996029555,6.817948336779765
Ellesmere Port,ELP,2.0,53.2821939982944,-2.89642303912049,52.62714971818,1.30681996029555,4.253978693064946
Elmers End,ELE,2.0,51.3984907228231,-0.0495703490218307,52.62714971818,1.30681996029555,1.8301359507100918
Elmstead Woods,ESD,2.0,51.4171158227735,0.0442740591944571,52.62714971818,1.30681996029555,1.7487721922594124
Elmswell,ESW,1.0,52.2380370806758,0.912589403049404,52.62714971818,1.30681996029555,0.5539191068487167
Elsecar,ELR,1.0,53.4986597288227,-1.42742391502071,52.62714971818,1.30681996029555,2.8697768673461215
Elsenham (Essex),ESM,1.0,51.9205434621908,0.228070270071964,52.62714971818,1.30681996029555,1.2895709732932725
Elstree & Borehamwood,ELS,2.0,51.653068116385,-0.280081540392811,52.62714971818,1.30681996029555,1.862012712051796
Eltham,ELW,2.0,51.4556417308034,0.0524723310748576,52.62714971818,1.30681996029555,1.7163388183627217
Elton & Orston,ELO,1.0,52.9521360042829,-0.855512437952713,52.62714971818,1.30681996029555,2.1866178190687644
Ely,ELY,0.0,52.3912277010784,0.266827583237292,52.62714971818,1.30681996029555,1.066416120701752
Emerson Park,EMP,2.0,51.5686403621106,0.220113229215512,52.62714971818,1.30681996029555,1.5170278759011382
Emsworth,EMS,2.0,50.8516141341351,-0.938429764103964,52.62714971818,1.30681996029555,2.8624592460200664
Energlyn & Churchill Park,ECP,2.0,51.5832164323409,-3.22879606589368,52.62714971818,1.30681996029555,4.654203416515806
Enfield Chase,ENC,2.0,51.6532525338014,-0.0906963712828411,52.62714971818,1.30681996029555,1.703387103029986
Enfield Lock,ENL,1.0,51.6709204354558,-0.0285324658222715,52.62714971818,1.30681996029555,1.6424191131005486
Enfield Town,ENF,1.0,51.6520239893496,-0.0793276428368423,52.62714971818,1.30681996029555,1.6947788542157036
Entwistle,ENT,2.0,53.6559786935683,-2.41454505509583,52.62714971818,1.30681996029555,3.8609644699708685
Epsom (Surrey),EPS,2.0,51.3343914612577,-0.268777680483958,52.62714971818,1.30681996029555,2.0380706161639073
Epsom Downs,EPD,2.0,51.3236861855796,-0.2389548499911,52.62714971818,1.30681996029555,2.021988364193981
Erdington,ERD,2.0,52.5282854859969,-1.83950909009634,52.62714971818,1.30681996029555,3.1478819275419285
Eridge,ERI,2.0,51.0889635853662,0.201431713057724,52.62714971818,1.30681996029555,1.89417521795429
Erith,ERH,2.0,51.481668933412,0.175054448859463,52.62714971818,1.30681996029555,1.6102855029928371
Esher,ESH,2.0,51.3798899750361,-0.353337838372063,52.62714971818,1.30681996029555,2.076482791487635
Eskbank,EKB,2.0,55.8818057426337,-3.08307353739981,52.62714971818,1.30681996029555,5.464791922719545
Essex Road,EXR,2.0,51.5407037990573,-0.0962760595924929,52.62714971818,1.30681996029555,1.7745543598898406
Etchingham,ETC,2.0,51.0105437070136,0.442356266553348,52.62714971818,1.30681996029555,1.8332246106622447
Euxton Balshaw Lane,EBA,2.0,53.6604819715387,-2.67202385840804,52.62714971818,1.30681996029555,4.110836128997011
Evesham,EVE,2.0,52.0983985539654,-1.94731370609441,52.62714971818,1.30681996029555,3.2968111429669205
Ewell East,EWE,2.0,51.3452982319215,-0.241529638967969,52.62714971818,1.30681996029555,2.0101068912778333
Ewell West,EWW,2.0,51.3500435722978,-0.256986619886036,52.62714971818,1.30681996029555,2.0190322256143696
Exeter Central,EXC,2.0,50.726488241429,-3.53327709081269,52.62714971818,1.30681996029555,5.199908990872047
Exeter St David's,EXD,2.0,50.729278976491,-3.54328686333265,52.62714971818,1.30681996029555,5.208209822267529
Exeter St Thomas,EXT,2.0,50.7171518711947,-3.53883698274128,52.62714971818,1.30681996029555,5.208501030535514
Exhibition Centre (Glasgow),EXG,2.0,55.8615560763509,-4.28358973053668,52.62714971818,1.30681996029555,6.458642659346254
Exmouth,EXM,2.0,50.6216387262065,-3.41497227480739,52.62714971818,1.30681996029555,5.130048367257852
Exton,EXN,2.0,50.6683075102992,-3.44409684947275,52.62714971818,1.30681996029555,5.138898065608455
Eynsford,EYN,2.0,51.3627183040984,0.204393120925889,52.62714971818,1.30681996029555,1.6775374025871892
Fairbourne,FRB,2.0,52.6960464630273,-4.04941426648684,52.62714971818,1.30681996029555,5.356677314679848
Fairfield,FRF,1.0,53.471295546374,-2.14577519882972,52.62714971818,1.30681996029555,3.554292547339426
Fairlie,FRL,2.0,55.7519484298977,-4.85326868616408,52.62714971818,1.30681996029555,6.907319242730384
Fairwater,FRW,2.0,51.4939101690858,-3.23383998994953,52.62714971818,1.30681996029555,4.6799385315825335
Falconwood,FCN,2.0,51.4591526356848,0.0793044770026859,52.62714971818,1.30681996029555,1.6944059272916299
Falkirk Grahamston,FKG,2.0,56.0026177290346,-3.78504688532692,52.62714971818,1.30681996029555,6.109082767965418
Falkirk High,FKK,2.0,55.9918195759738,-3.79224489222847,52.62714971818,1.30681996029555,6.109129694333879
Falls of Cruachan,FOC,-999.0,56.393889401057,-5.11247911920548,52.62714971818,1.30681996029555,7.442830678622422
Falmer,FMR,2.0,50.8621274713423,-0.0873855066246158,52.62714971818,1.30681996029555,2.249247077539968
Falmouth Docks,FAL,2.0,50.1507142799667,-5.05602948101336,52.62714971818,1.30681996029555,6.827780422099397
Falmouth Town,FMT,2.0,50.1483473407862,-5.06493628645553,52.62714971818,1.30681996029555,6.836939292854994
Fareham,FRM,2.0,50.8530338308312,-1.19203724188042,52.62714971818,1.30681996029555,3.064600218398826
Farnborough (Main),FNB,2.0,51.296604884603,-0.755725724931643,52.62714971818,1.30681996029555,2.454474334314327
Farnborough North,FNN,2.0,51.3020444491095,-0.743026929007782,52.62714971818,1.30681996029555,2.440855637620739
Farncombe,FNC,2.0,51.1971531239671,-0.604548878459314,52.62714971818,1.30681996029555,2.387094698000818
Farnham,FNH,2.0,51.2119042298562,-0.792427196436538,52.62714971818,1.30681996029555,2.5317500700639113
Farningham Road,FNR,2.0,51.4016634815392,0.235452055986937,52.62714971818,1.30681996029555,1.627773234384524
Farnworth,FNW,2.0,53.5500060922431,-2.38784997242115,52.62714971818,1.30681996029555,3.8081819545381124
Farringdon,ZFD,1.0,51.5201655608346,-0.105204669877814,52.62714971818,1.30681996029555,1.7942205775293998
Fauldhouse,FLD,2.0,55.8224777300448,-3.71931936502271,52.62714971818,1.30681996029555,5.955854063097799
Faversham,FAV,2.0,51.3117105445912,0.891044848807162,52.62714971818,1.30681996029555,1.3795829669668895
Faygate,FGT,2.0,51.095889351236,-0.263018670595782,52.62714971818,1.30681996029555,2.1929778016232255
Fazakerley,FAZ,2.0,53.4690878780859,-2.93672370069026,52.62714971818,1.30681996029555,4.326259662548999
Fearn,FRN,2.0,57.7781470089061,-3.99393654949616,52.62714971818,1.30681996029555,7.39126461880285
Featherstone,FEA,2.0,53.6790669195959,-1.35844424440448,52.62714971818,1.30681996029555,2.8653382138047743
Felixstowe,FLX,1.0,51.9670684291527,1.35043499148186,52.62714971818,1.30681996029555,0.661520656570397
Feltham,FEL,2.0,51.4478973442697,-0.409838240699482,52.62714971818,1.30681996029555,2.0826789335892806
Feniton,FNT,2.0,50.7866805768598,-3.28541829669429,52.62714971818,1.30681996029555,4.947320372596967
Fenny Stratford,FEN,2.0,52.0000683454646,-0.715997362186537,52.62714971818,1.30681996029555,2.1177868089447136
Fernhill,FER,2.0,51.6864988102667,-3.39588328122109,52.62714971818,1.30681996029555,4.795856743933166
Ferriby,FRY,2.0,53.7171537976793,-0.507830473428837,52.62714971818,1.30681996029555,2.1168526377481323
Ferryside,FYS,2.0,51.7683725332786,-4.36945917743674,52.62714971818,1.30681996029555,5.740874768078641
Ffairfach,FFA,2.0,51.8724792728464,-3.9928602757854,52.62714971818,1.30681996029555,5.353142823217689
Filey,FIL,2.0,54.2098572113142,-0.293849397915568,52.62714971818,1.30681996029555,2.2510231902712907
Filton Abbey Wood,FIT,2.0,51.5049414768014,-2.56243092363725,52.62714971818,1.30681996029555,4.028703729468426
Finchley Road & Frognal,FNY,1.0,51.5502644624917,-0.183140600658463,52.62714971818,1.30681996029555,1.8383863378292549
Finsbury Park,FPK,1.0,51.5643002449157,-0.106284978884699,52.62714971818,1.30681996029555,1.7681952867129287
Finstock,FIN,2.0,51.852782857678,-1.4693431033147,52.62714971818,1.30681996029555,2.88213903037268
Fishbourne (Sussex),FSB,2.0,50.839050994238,-0.815084252072113,52.62714971818,1.30681996029555,2.7748467584763374
Fishersgate,FSG,2.0,50.8342331969519,-0.219423238635621,52.62714971818,1.30681996029555,2.354563219447787
Fishguard & Goodwick,FGW,2.0,52.0041205147366,-4.99483911549407,52.62714971818,1.30681996029555,6.332382845013795
Fishguard Harbour,FGH,2.0,52.0115490590944,-4.98564336378428,52.62714971818,1.30681996029555,6.322504160248248
Fiskerton,FSK,1.0,53.060273739149,-0.912187610219373,52.62714971818,1.30681996029555,2.260882795622739
Fitzwilliam,FZW,2.0,53.6325012276325,-1.37427316573517,52.62714971818,1.30681996029555,2.8633882042097616
Five Ways,FWY,2.0,52.471096381369,-1.91295451976274,52.62714971818,1.30681996029555,3.223553993089689
Fleet,FLE,2.0,51.290634463196,-0.830805697283605,52.62714971818,1.30681996029555,2.5210546362079627
Flimby,FLM,2.0,54.6896909968798,-3.5207407041013,52.62714971818,1.30681996029555,5.249706515108473
Flint,FLN,1.0,53.249527518706,-3.13299365746619,52.62714971818,1.30681996029555,4.4832241843399006
Flitwick,FLT,2.0,52.0036411879386,-0.495257873996204,52.62714971818,1.30681996029555,1.9068947029475571
Flixton,FLI,1.0,53.443809978016,-2.38424675876937,52.62714971818,1.30681996029555,3.7803316659499693
Flowery Field,FLF,1.0,53.4618562073799,-2.08105317397333,52.62714971818,1.30681996029555,3.489186050787958
Folkestone Central,FKC,2.0,51.0828838914415,1.16948226479176,52.62714971818,1.30681996029555,1.5503607922798623
Folkestone West,FKW,2.0,51.084582896074,1.15390330754187,52.62714971818,1.30681996029555,1.5501277054977132
Ford,FOD,2.0,50.8293930308604,-0.578410029818067,52.62714971818,1.30681996029555,2.6049992749377346
Forest Gate,FOG,1.0,51.5494301979489,0.0243528171904902,52.62714971818,1.30681996029555,1.6751720321898895
Forest Hill,FOH,2.0,51.4392784872536,-0.0531571058976325,52.62714971818,1.30681996029555,1.8057064218288672
Formby,FBY,2.0,53.5534804308434,-3.07090821445518,52.62714971818,1.30681996029555,4.474661167198008
Forres,FOR,2.0,57.6098000095499,-3.62595038813861,52.62714971818,1.30681996029555,7.011349886896233
Forsinard,FRS,2.0,58.3569037821129,-3.89688108603807,52.62714971818,1.30681996029555,7.740063708573025
Fort Matilda,FTM,2.0,55.9590370104671,-4.79526871008857,52.62714971818,1.30681996029555,6.952478627779771
Fort William,FTW,2.0,56.8204504611118,-5.10614472047831,52.62714971818,1.30681996029555,7.662237735643898
Four Oaks,FOK,2.0,52.5797812436274,-1.82803190041241,52.62714971818,1.30681996029555,3.1352097156275844
Foxfield,FOX,2.0,54.2586714739313,-3.216062079698,52.62714971818,1.30681996029555,4.808151951341182
Foxton,FXN,1.0,52.1192118267723,0.0563080918097999,52.62714971818,1.30681996029555,1.349733616218927
Frant,FRT,2.0,51.1040264976395,0.294543047861973,52.62714971818,1.30681996029555,1.8288271904134938
Fratton,FTN,2.0,50.7963389126627,-1.07398277385311,52.62714971818,1.30681996029555,3.0033464443065254
Freshfield,FRE,2.0,53.5660564604323,-3.07182995042112,52.62714971818,1.30681996029555,4.478182768854564
Freshford,FFD,2.0,51.3420317090826,-2.30100872969826,52.62714971818,1.30681996029555,3.8298767804785734
Frimley,FML,2.0,51.3118614892824,-0.746991364293745,52.62714971818,1.30681996029555,2.4388776275343993
Frinton-on-Sea,FRI,1.0,51.8376787265319,1.24317054105804,52.62714971818,1.30681996029555,0.7920326352007914
Frizinghall,FZH,2.0,53.820371215731,-1.76900125757173,52.62714971818,1.30681996029555,3.2991595454752427
Frodsham,FRD,1.0,53.2958177869804,-2.72356723663145,52.62714971818,1.30681996029555,4.085478912365886
Frome,FRO,2.0,51.2272725800456,-2.30999705913937,52.62714971818,1.30681996029555,3.8782755644674674
Fulwell,FLW,2.0,51.4339339825483,-0.349467607470903,52.62714971818,1.30681996029555,2.0413359103530264
Furness Vale,FNV,1.0,53.3487533587757,-1.98884482439185,52.62714971818,1.30681996029555,3.3737394960413907
Furze Platt,FZP,2.0,51.5330197603371,-0.728472828364334,52.62714971818,1.30681996029555,2.310743841324745
Gainsborough Central,GNB,2.0,53.3995839522027,-0.769694112366499,52.62714971818,1.30681996029555,2.215528230434846
Gainsborough Lea Road,GBL,2.0,53.3860887154294,-0.768579598023266,52.62714971818,1.30681996029555,2.2098126002482346
Galashiels,GAL,2.0,55.6183541299903,-2.80690093870811,52.62714971818,1.30681996029555,5.086256331343603
Garelochhead,GCH,2.0,56.0798700489652,-4.82571771685403,52.62714971818,1.30681996029555,7.037705310985721
Garforth,GRF,2.0,53.796578277864,-1.38230970941118,52.62714971818,1.30681996029555,2.9324020080305533
Gargrave,GGV,2.0,53.9784181355008,-2.10517064216562,52.62714971818,1.30681996029555,3.669823729681305
Garrowhill,GAR,2.0,55.855243344443,-4.12946139753487,52.62714971818,1.30681996029555,6.322479217950371
Garscadden,GRS,2.0,55.887699912531,-4.36500554078304,52.62714971818,1.30681996029555,6.542231430067857
Garsdale,GSD,2.0,54.3214321652742,-2.32635383688291,52.62714971818,1.30681996029555,4.008808407873301
Garston (Hertfordshire),GSN,2.0,51.6866146882955,-0.381741213587884,52.62714971818,1.30681996029555,1.9328334073029778
Garswood,GSW,2.0,53.4885228462082,-2.67213496487047,52.62714971818,1.30681996029555,4.071123427531031
Gartcosh,GRH,2.0,55.8856655213683,-4.0794950329411,52.62714971818,1.30681996029555,6.2952612690812
Garth (Mid Glamorgan),GMG,2.0,51.5964598445663,-3.64145068487318,52.62714971818,1.30681996029555,5.054473661362614
Garth (Powys),GTH,2.0,52.1332403844721,-3.52990778325094,52.62714971818,1.30681996029555,4.8618804690280175
Garve,GVE,2.0,57.6130466094469,-4.6883963248569,52.62714971818,1.30681996029555,7.79755000728447
Gathurst,GST,2.0,53.5594052283238,-2.69439359809359,52.62714971818,1.30681996029555,4.10838292714184
Gatley,GTY,1.0,53.3929065592229,-2.23123425803736,52.62714971818,1.30681996029555,3.619973921379448
Gatwick Airport,GTW,1.0,51.1564892793918,-0.161041534688098,52.62714971818,1.30681996029555,2.077849728607036
Georgemas Junction,GGJ,2.0,58.5136271736984,-3.45212085822396,52.62714971818,1.30681996029555,7.569553127397783
Gerrards Cross,GER,2.0,51.5890222051815,-0.555275422196685,52.62714971818,1.30681996029555,2.131925877403657
Gidea Park,GDP,1.0,51.5819019565528,0.205964300058707,52.62714971818,1.30681996029555,1.5180336188181642
Giffnock,GFN,2.0,55.8039950697486,-4.29301520024745,52.62714971818,1.30681996029555,6.438206288481029
Giggleswick,GIG,2.0,54.0618024962135,-2.30284801630944,52.62714971818,1.30681996029555,3.884318665460753
Gilberdyke,GBD,2.0,53.7479630906218,-0.73224344785332,52.62714971818,1.30681996029555,2.3268008505877873
Gilfach Fargoed,GFF,2.0,51.6842528100711,-3.22656863026563,52.62714971818,1.30681996029555,4.630406752365455
Gillingham (Dorset),GIL,2.0,51.0340364196905,-2.27262400569309,52.62714971818,1.30681996029555,3.9179623642241097
Gillingham (Kent),GLM,2.0,51.3865628367939,0.549849975746005,52.62714971818,1.30681996029555,1.4532925953765226
