Name,Code,Changes,lat,lon,terminal lat,terminal lon,linear distance
Abbey Wood,ABW,2.0,51.4910605627019,0.121394025366647,53.7956274464893,-1.54802567392696,2.8456968661892175
Aber,ABE,2.0,51.5749691125956,-3.22982905106563,53.7956274464893,-1.54802567392696,2.785639250736993
Abercynon,ACY,2.0,51.6447124034837,-3.32698855170195,53.7956274464893,-1.54802567392696,2.79126215944136
Aberdare,ABA,2.0,51.7150618291708,-3.44308409477462,53.7956274464893,-1.54802567392696,2.814249403729799
Aberdeen,ABD,0.0,57.1437058328662,-2.09868538622245,53.7956274464893,-1.54802567392696,3.393059828542599
Aberdour,AUR,1.0,56.0545955695197,-3.30056061487314,53.7956274464893,-1.54802567392696,2.8590760220925775
Aberdovey,AVY,1.0,52.5439615025967,-4.05706796158074,53.7956274464893,-1.54802567392696,2.8039188355470386
Abererch,ABH,1.0,52.8985884658899,-4.37417647351973,53.7956274464893,-1.54802567392696,2.965098189732283
Abergavenny,AGV,1.0,51.8166930409601,-3.00964730040687,53.7956274464893,-1.54802567392696,2.460186814122251
Abergele & Pensarn,AGL,1.0,53.2945771647609,-3.58262268840784,53.7956274464893,-1.54802567392696,2.095384546128613
Aberystwyth,AYW,1.0,52.4140498933205,-4.08189442746786,53.7956274464893,-1.54802567392696,2.8860435540010125
Accrington,ACR,0.0,53.7529733751372,-2.36954810226505,53.7956274464893,-1.54802567392696,0.8226289990423522
Achanalt,AAT,2.0,57.6096018732679,-4.91385256332031,53.7956274464893,-1.54802567392696,5.086766318348472
Achnasheen,ACN,2.0,57.5792959197415,-5.07233352893289,53.7956274464893,-1.54802567392696,5.170772956951323
Achnashellach,ACH,2.0,57.4820809030767,-5.33305678830677,53.7956274464893,-1.54802567392696,5.2835972239004425
Acklington,ACK,1.0,55.3070993237817,-1.65183479633575,53.7956274464893,-1.54802567392696,1.515032530918428
Acle,ACL,2.0,52.6346777628319,1.54391497575916,53.7956274464893,-1.54802567392696,3.3027111816151353
Acocks Green,ACG,2.0,52.4493240670217,-1.81897562150643,53.7956274464893,-1.54802567392696,1.3732977330714549
Acton Bridge (Cheshire),ACB,1.0,53.2665097605329,-2.60312690733168,53.7956274464893,-1.54802567392696,1.180340687396659
Acton Central,ACC,2.0,51.5087150057177,-0.262970693276422,53.7956274464893,-1.54802567392696,2.6232298441140607
Acton Main Line,AML,2.0,51.5171788796431,-0.266756440210259,53.7956274464893,-1.54802567392696,2.6139966949161373
Adderley Park,ADD,1.0,52.4830872932844,-1.85594463679675,53.7956274464893,-1.54802567392696,1.3481749669349112
Addiewell,ADW,1.0,55.8434130805542,-3.60652712168835,53.7956274464893,-1.54802567392696,2.9035933278471227
Addlestone,ASN,2.0,51.3730447500684,-0.48445679693337,53.7956274464893,-1.54802567392696,2.6457675024664105
Adisham,ADM,2.0,51.2411978022143,1.19908904695378,53.7956274464893,-1.54802567392696,3.7512331435450066
Adlington (Cheshire),ADC,1.0,53.3195557900317,-2.13356274381038,53.7956274464893,-1.54802567392696,0.7546508346844538
Adlington (Lancs),ADL,1.0,53.6132468473224,-2.6030711963325,53.7956274464893,-1.54802567392696,1.070693110700006
Adwick,AWK,0.0,53.5723210050351,-1.180356329611,53.7956274464893,-1.54802567392696,0.43017033085124007
Aigburth,AIG,2.0,53.3645680055959,-2.92715540113816,53.7956274464893,-1.54802567392696,1.4449259655985731
Ainsdale,ANS,1.0,53.6020355257546,-3.04265252059266,53.7956274464893,-1.54802567392696,1.507112219626529
Aintree,AIN,2.0,53.4739127558616,-2.95628079876913,53.7956274464893,-1.54802567392696,1.4445355097088866
Airbles,AIR,1.0,55.7828378389089,-3.99419330717581,53.7956274464893,-1.54802567392696,3.151625173413668
Airdrie,ADR,1.0,55.8639835131324,-3.98291292517007,53.7956274464893,-1.54802567392696,3.19480402289179
Albany Park,AYP,2.0,51.4354507399114,0.12573706592842,53.7956274464893,-1.54802567392696,2.8934263072698205
Albrighton,ALB,1.0,52.6379442676754,-2.26890024505565,53.7956274464893,-1.54802567392696,1.3637780207235424
Alderley Edge,ALD,1.0,53.3037821045932,-2.23679936267512,53.7956274464893,-1.54802567392696,0.8463575099546491
Aldermaston,AMT,1.0,51.4019618556841,-1.1374239270022,53.7956274464893,-1.54802567392696,2.428626927953832
Aldershot,AHT,2.0,51.2464179114788,-0.759859888333875,53.7956274464893,-1.54802567392696,2.668271830036813
Aldrington,AGT,2.0,50.8363824121951,-0.183821512855377,53.7956274464893,-1.54802567392696,3.258555533680513
Alexandra Palace,AAP,1.0,51.5979224924556,-0.120235220128854,53.7956274464893,-1.54802567392696,2.6207809227291876
Alexandra Parade,AXP,2.0,55.8631759802332,-4.21064896878422,53.7956274464893,-1.54802567392696,3.3711006733266053
Alexandria,ALX,2.0,55.9850887680667,-4.57748537031666,53.7956274464893,-1.54802567392696,3.7378291735622495
Alfreton,ALF,0.0,53.1004322999438,-1.36969621564025,53.7956274464893,-1.54802567392696,0.7177030635807905
Allens West,ALW,1.0,54.5246233650745,-1.36111683481751,53.7956274464893,-1.54802567392696,0.7525755533174855
Alloa,ALO,1.0,56.1177936041036,-3.79005640302655,53.7956274464893,-1.54802567392696,3.2278719698581635
Alness,ASS,2.0,57.6943991747966,-4.24971726526612,53.7956274464893,-1.54802567392696,4.743369945952037
Alnmouth,ALM,0.0,55.3927786386397,-1.63663783937358,53.7956274464893,-1.54802567392696,1.5996074663656017
Alresford (Essex),ALR,2.0,51.8539974379073,0.997436403040026,53.7956274464893,-1.54802567392696,3.2014534629607225
Alsager,ASG,2.0,53.0930054110113,-2.29905784069112,53.7956274464893,-1.54802567392696,1.0284585748846273
Althorne (Essex),ALN,2.0,51.6478675266105,0.75248341471277,53.7956274464893,-1.54802567392696,3.1472551120542795
Althorpe,ALP,1.0,53.5855003548442,-0.733182290833722,53.7956274464893,-1.54802567392696,0.8415005250230454
Altnabreac,ABC,2.0,58.3881525009701,-3.7062809681672,53.7956274464893,-1.54802567392696,5.074381961495402
Alton,AON,2.0,51.1519686627366,-0.966913302570746,53.7956274464893,-1.54802567392696,2.7067736058000933
Altrincham,ALT,1.0,53.3877187203289,-2.34688910433965,53.7956274464893,-1.54802567392696,0.8969795478875373
Alvechurch,ALV,1.0,52.3460721156993,-1.96766073187852,53.7956274464893,-1.54802567392696,1.5090739673335134
Ambergate,AMB,1.0,53.0605170840145,-1.48069758186533,53.7956274464893,-1.54802567392696,0.7381871829004416
Amberley,AMY,2.0,50.8966791881016,-0.541992407726222,53.7956274464893,-1.54802567392696,3.0685507878331735
Amersham,AMR,2.0,51.6742050968552,-0.607596139216709,53.7956274464893,-1.54802567392696,2.320525909203001
Ammanford,AMF,2.0,51.7959795450084,-3.99673575596767,53.7956274464893,-1.54802567392696,3.1614510585781304
Ancaster,ANC,1.0,52.9876865844111,-0.535623734022494,53.7956274464893,-1.54802567392696,1.2952706761669497
Anderston,AND,1.0,55.8599021238713,-4.27098003165416,53.7956274464893,-1.54802567392696,3.4169738626372483
Andover,ADV,2.0,51.2115476149434,-1.49223307188506,53.7956274464893,-1.54802567392696,2.584682067536526
Anerley,ANZ,2.0,51.4121513855632,-0.0658859220340606,53.7956274464893,-1.54802567392696,2.8067234237004794
Angel Road,AGR,2.0,51.61240330726,-0.0487914234374522,53.7956274464893,-1.54802567392696,2.648428020534886
Angmering,ANG,2.0,50.8165743892467,-0.489394019247872,53.7956274464893,-1.54802567392696,3.161559440870128
Annan,ANN,1.0,54.9838388790739,-3.2625810423293,53.7956274464893,-1.54802567392696,2.0860360782695095
Anniesland,ANL,2.0,55.8893555064876,-4.32195784208586,53.7956274464893,-1.54802567392696,3.475398806291297
Ansdell & Fairhaven,AFV,1.0,53.7414654744213,-2.99303444657805,53.7956274464893,-1.54802567392696,1.44602346877805
Apperley Bridge,APY,0.0,53.8417501065548,-1.70582867126391,53.7956274464893,-1.54802567392696,0.16440524851732397
Appleby,APP,0.0,54.5803488158896,-2.48669258391647,53.7956274464893,-1.54802567392696,1.2234717796102774
Appledore (Kent),APD,2.0,51.0332342031393,0.816341504124954,53.7956274464893,-1.54802567392696,3.6360759870435726
Appleford,APF,1.0,51.6396415502262,-1.24214153179695,53.7956274464893,-1.54802567392696,2.1775767020456485
Appley Bridge,APB,0.0,53.5786734960166,-2.71925251339081,53.7956274464893,-1.54802567392696,1.191151260800319
Apsley,APS,2.0,51.7325208234117,-0.462934812195194,53.7956274464893,-1.54802567392696,2.3310579393057673
Arbroath,ARB,0.0,56.5595762979872,-2.58893177406225,53.7956274464893,-1.54802567392696,2.9534553937710695
Ardgay,ARD,2.0,57.8814576101148,-4.36209023833324,53.7956274464893,-1.54802567392696,4.961145784860499
Ardlui,AUI,2.0,56.3019723653141,-4.72165858161935,53.7956274464893,-1.54802567392696,4.043972141954857
Ardrossan Harbour,ADS,1.0,55.6398782290401,-4.82111163323781,53.7956274464893,-1.54802567392696,3.7569073246457747
Ardrossan South Beach,ASB,1.0,55.641422142645,-4.80121264089138,53.7956274464893,-1.54802567392696,3.740345372072434
Ardrossan Town,ADN,1.0,55.6397124556587,-4.81267645169651,53.7956274464893,-1.54802567392696,3.7494791934126868
Ardwick,ADK,1.0,53.471345820655,-2.21388417456067,53.7956274464893,-1.54802567392696,0.740625489515387
Argyle Street,AGS,1.0,55.8573090626122,-4.25069486323156,53.7956274464893,-1.54802567392696,3.3992575414457105
Arisaig,ARG,2.0,56.9125537431151,-5.83907949880085,53.7956274464893,-1.54802567392696,5.303618808564796
Arlesey,ARL,1.0,52.0260300130868,-0.266319838272065,53.7956274464893,-1.54802567392696,2.185004559596275
Armadale (West Lothian),ARM,1.0,55.8857140292087,-3.69541334262219,53.7956274464893,-1.54802567392696,2.9966207172293258
Armathwaite,AWT,0.0,54.8094679848183,-2.77207147292765,53.7956274464893,-1.54802567392696,1.589390057604008
Arnside,ARN,1.0,54.2027315043991,-2.82824189170434,53.7956274464893,-1.54802567392696,1.3433864962202218
Arram,ARR,1.0,53.8843427696163,-0.426570132093475,53.7956274464893,-1.54802567392696,1.1249590840855344
Arrochar & Tarbet,ART,2.0,56.2039766194239,-4.72277124702392,53.7956274464893,-1.54802567392696,3.984865768463665
Arundel,ARU,2.0,50.84821399905,-0.546174298416944,53.7956274464893,-1.54802567392696,3.11302942625946
Ascot (Berks),ACT,1.0,51.406243053303,-0.675833255037063,53.7956274464893,-1.54802567392696,2.543595367579376
Ascott-under-Wychwood,AUW,1.0,51.8673416456497,-1.56405280921503,53.7956274464893,-1.54802567392696,1.9283524052374723
Ash,ASH,2.0,51.2495967734882,-0.712805474371656,53.7956274464893,-1.54802567392696,2.6795270048289543
Ash Vale,AHV,2.0,51.2722464128127,-0.72164859629209,53.7956274464893,-1.54802567392696,2.655249689870829
Ashburys,ABY,1.0,53.471639721401,-2.19443661452133,53.7956274464893,-1.54802567392696,0.7230595757805788
Ashchurch for Tewkesbury,ASC,1.0,51.9989057939667,-2.10876020926952,53.7956274464893,-1.54802567392696,1.8821880659937722
Ashfield,ASF,2.0,55.8889269328418,-4.24921509407071,53.7956274464893,-1.54802567392696,3.4173567304365764
Ashford (Surrey),AFS,2.0,51.4365062586203,-0.468070995385795,53.7956274464893,-1.54802567392696,2.5945625617347123
Ashford International,AFK,2.0,51.1437026741936,0.876197214386404,53.7956274464893,-1.54802567392696,3.592987838851948
Ashford International (Eurostar),ASI,-999.0,nan,nan,53.7956274464893,-1.54802567392696,nan
Ashley,ASY,1.0,53.3557258053839,-2.34146074338483,53.7956274464893,-1.54802567392696,0.9072224993312498
Ashtead,AHD,2.0,51.317872587997,-0.307571763628547,53.7956274464893,-1.54802567392696,2.770919530112126
Ashton-under-Lyne,AHN,1.0,53.4912746360398,-2.09431253377749,53.7956274464893,-1.54802567392696,0.625347876364718
Ashurst (Kent),AHS,2.0,51.1286608253579,0.152652111896866,53.7956274464893,-1.54802567392696,3.1630706424965713
Ashurst New Forest,ANF,1.0,50.8898511647037,-1.52663085660955,53.7956274464893,-1.54802567392696,2.9058550442160365
Ashwell & Morden,AWM,1.0,52.0307706434447,-0.109788918120069,53.7956274464893,-1.54802567392696,2.2766739997212473
Askam,ASK,1.0,54.1889331625586,-3.20451175494515,53.7956274464893,-1.54802567392696,1.7025379651860297
Aslockton,ALK,1.0,52.9515495737311,-0.898097621841918,53.7956274464893,-1.54802567392696,1.0653046175470482
Aspatria,ASP,1.0,54.7589599137074,-3.33187421074512,53.7956274464893,-1.54802567392696,2.027344333038866
Aspley Guise,APG,2.0,52.0212361960308,-0.632334507265971,53.7956274464893,-1.54802567392696,1.9967359921643726
Aston,AST,1.0,52.5042320347358,-1.8719337575538,53.7956274464893,-1.54802567392696,1.3313972195166999
Atherstone,ATH,1.0,52.5789720633612,-1.55281147568713,53.7956274464893,-1.54802567392696,1.2166647957400056
Atherton,ATN,0.0,53.5291462480773,-2.47897234425216,53.7956274464893,-1.54802567392696,0.9683356505348077
Attadale,ATT,2.0,57.3950433711996,-5.4555786528295,53.7956274464893,-1.54802567392696,5.312698493420101
Attenborough,ATB,1.0,52.9062133028873,-1.23141560765685,53.7956274464893,-1.54802567392696,0.9440865706612059
Attleborough,ATL,1.0,52.5145445883409,1.02234755537498,53.7956274464893,-1.54802567392696,2.8719317240062936
Auchinleck,AUK,1.0,55.4702784722357,-4.29535018687193,53.7956274464893,-1.54802567392696,3.2174909537497984
Audley End,AUD,1.0,52.0044405435161,0.207160027997398,53.7956274464893,-1.54802567392696,2.507793326736163
Aughton Park,AUG,2.0,53.5542504500956,-2.89522128047861,53.7956274464893,-1.54802567392696,1.3686485511993614
Aviemore,AVM,1.0,57.1885162452285,-3.82886797624022,53.7956274464893,-1.54802567392696,4.088268094026073
Avoncliff,AVF,1.0,51.3396528744674,-2.28132558221387,53.7956274464893,-1.54802567392696,2.563111361980152
Avonmouth,AVN,1.0,51.5003648679963,-2.69946651797304,53.7956274464893,-1.54802567392696,2.567887521206461
Axminster,AXM,1.0,50.7792744117621,-3.00472359764506,53.7956274464893,-1.54802567392696,3.3496797564950276
Aylesbury,AYS,1.0,51.8138902206829,-0.815095998270687,53.7956274464893,-1.54802567392696,2.1129288538908377
Aylesbury Vale Parkway,AVP,2.0,51.8311587338339,-0.860182437861177,53.7956274464893,-1.54802567392696,2.0814095321208166
Aylesford,AYL,2.0,51.3013153585378,0.466170568242092,53.7956274464893,-1.54802567392696,3.206022347718259
Aylesham,AYH,2.0,51.2272505439136,1.2094526827124,53.7956274464893,-1.54802567392696,3.768321483236117
Ayr,AYR,1.0,55.4581477383334,-4.62587677242484,53.7956274464893,-1.54802567392696,3.4981625327188572
Bache,BAC,1.0,53.2087886904783,-2.89167051075084,53.7956274464893,-1.54802567392696,1.466206388296002
Baglan,BAJ,1.0,51.615545271975,-3.81113654529303,53.7956274464893,-1.54802567392696,3.1423604350440577
Bagshot,BAG,2.0,51.3643669407293,-0.688661997063008,53.7956274464893,-1.54802567392696,2.578668954321494
Baildon,BLD,1.0,53.8502255005868,-1.75363638811678,53.7956274464893,-1.54802567392696,0.2127362529069312
Baillieston,BIO,1.0,55.844505909339,-4.11369931815988,53.7956274464893,-1.54802567392696,3.2833799969301123
Balcombe,BAB,2.0,51.0555201604538,-0.136933757536862,53.7956274464893,-1.54802567392696,3.0821045302660144
Baldock,BDK,1.0,51.9928698318742,-0.187563753520231,53.7956274464893,-1.54802567392696,2.2584932264519804
Balham,BAL,2.0,51.4432234163815,-0.152424495700288,53.7956274464893,-1.54802567392696,2.7352344267969224
Balloch,BHC,2.0,56.0029392993731,-4.58348654319574,53.7956274464893,-1.54802567392696,3.7531651049138888
Balmossie,BSI,1.0,56.4745685552318,-2.83895622541232,53.7956274464893,-1.54802567392696,2.9737564044266955
Bamber Bridge,BMB,0.0,53.7268691714662,-2.6607753764786,53.7956274464893,-1.54802567392696,1.1148720110007766
Bamford,BAM,1.0,53.3390008432273,-1.68908191470249,53.7956274464893,-1.54802567392696,0.47791706170455106
Banavie,BNV,2.0,56.8433146084024,-5.09542698683765,53.7956274464893,-1.54802567392696,4.676799451733037
Banbury,BAN,0.0,52.0603086671337,-1.32813289497966,53.7956274464893,-1.54802567392696,1.749195272180148
Bangor (Gwynedd),BNG,1.0,53.2222875881889,-4.1358808597691,53.7956274464893,-1.54802567392696,2.650606167654104
Bank Hall,BAH,2.0,53.4374965462522,-2.98751189569183,53.7956274464893,-1.54802567392696,1.4833672250510108
Banstead,BAD,2.0,51.3293474848423,-0.213158931277083,53.7956274464893,-1.54802567392696,2.8043548402180143
Barassie,BSS,1.0,55.5610644543682,-4.65113966824502,53.7956274464893,-1.54802567392696,3.570165863166723
Barbican,ZBB,1.0,nan,nan,53.7956274464893,-1.54802567392696,nan
Bardon Mill,BLL,1.0,54.9744957852522,-2.34650475516335,53.7956274464893,-1.54802567392696,1.4238326458224355
Bare Lane,BAR,0.0,54.0745443408907,-2.83533086719705,53.7956274464893,-1.54802567392696,1.317174739585703
Bargeddie,BGI,1.0,55.8512961462984,-4.07380825280165,53.7956274464893,-1.54802567392696,3.2565858562491075
Bargoed,BGD,2.0,51.6923127611933,-3.22968013064506,53.7956274464893,-1.54802567392696,2.692934157602383
Barking,BKG,2.0,51.5394928787692,0.0809024258638578,53.7956274464893,-1.54802567392696,2.7827234756528845
Barlaston,BRT,2.0,nan,nan,53.7956274464893,-1.54802567392696,nan
Barming,BMG,2.0,51.2848926922128,0.478958086821072,53.7956274464893,-1.54802567392696,3.226833149183283
Barmouth,BRM,1.0,52.7228954666472,-4.05659664341287,53.7956274464893,-1.54802567392696,2.728311237656625
Barnehurst,BNH,2.0,51.4649571594916,0.159646215915891,53.7956274464893,-1.54802567392696,2.8893195167813133
Barnes,BNS,2.0,51.4670847781107,-0.242164290131055,53.7956274464893,-1.54802567392696,2.669716260606933
Barnes Bridge,BNI,2.0,51.4720072305495,-0.252630234454485,53.7956274464893,-1.54802567392696,2.660312059238577
Barnetby,BTB,1.0,53.575120046432,-0.409679706265516,53.7956274464893,-1.54802567392696,1.1595063844460278
Barnham,BAA,2.0,50.8309058508596,-0.639679954401345,53.7956274464893,-1.54802567392696,3.1007525031471967
Barnhill,BNL,2.0,55.8774948886876,-4.22300584363342,53.7956274464893,-1.54802567392696,3.38964466503616
Barnsley,BNY,0.0,53.5543015489003,-1.47716484028851,53.7956274464893,-1.54802567392696,0.25151430693118176
Barnstaple,BNP,1.0,51.0739744679973,-4.06311775092404,53.7956274464893,-1.54802567392696,3.705817465972635
Barnt Green,BTG,1.0,52.3610898378667,-1.99246673824797,53.7956274464893,-1.54802567392696,1.5018075809528448
Barrhead,BRR,1.0,55.8037583421428,-4.39728431394783,53.7956274464893,-1.54802567392696,3.4858090153953807
Barrhill,BRL,1.0,55.0970106102442,-4.78178229089313,53.7956274464893,-1.54802567392696,3.4857968954999654
Barrow Haven,BAV,2.0,53.697419946542,-0.392955239385703,53.7956274464893,-1.54802567392696,1.159237862475699
Barrow-in-Furness,BIF,1.0,54.1190037011827,-3.22612090695349,53.7956274464893,-1.54802567392696,1.708969225353662
Barrow-Upon-Soar,BWS,1.0,52.7493358553102,-1.14484305880024,53.7956274464893,-1.54802567392696,1.121286009416202
Barry,BRY,2.0,51.3967862682376,-3.28498495899336,53.7956274464893,-1.54802567392696,2.9616661791049963
Barry Docks,BYD,2.0,51.4024452836283,-3.26070393235989,53.7956274464893,-1.54802567392696,2.9428876433776545
Barry Island,BYI,2.0,51.3924170726249,-3.27336400852697,53.7956274464893,-1.54802567392696,2.9584138435806766
Barry Links,BYL,1.0,56.4931516826701,-2.74544214683501,53.7956274464893,-1.54802567392696,2.9513460004503687
Barton-on-Humber,BAU,2.0,53.6889177395454,-0.44343673614012,53.7956274464893,-1.54802567392696,1.109731356246687
Basildon,BSO,2.0,51.5681040297501,0.456788850539816,53.7956274464893,-1.54802567392696,2.9968553267774545
Basingstoke,BSK,0.0,51.2683569850094,-1.08726383162934,53.7956274464893,-1.54802567392696,2.5689292440210045
Bat & Ball,BBL,2.0,51.2897587469008,0.194227480292899,53.7956274464893,-1.54802567392696,3.052019658024239
Bath Spa,BTH,1.0,51.3776883852266,-2.3570184714201,53.7956274464893,-1.54802567392696,2.5496859905438796
Bathgate,BHG,1.0,55.8971563834902,-3.63609679157923,53.7956274464893,-1.54802567392696,2.96250989288234
Batley,BTL,0.0,53.7099423400798,-1.6229526318262,53.7956274464893,-1.54802567392696,0.11382436681326964
Battersby,BTT,1.0,54.457680170473,-1.09297186288525,53.7956274464893,-1.54802567392696,0.8033603053909373
Battersea Park,BAK,2.0,51.4769582891996,-0.147533519657093,53.7956274464893,-1.54802567392696,2.708801383479041
Battle,BAT,2.0,50.9129130238687,0.494702777064857,53.7956274464893,-1.54802567392696,3.5330980692412512
Battlesbridge,BLB,2.0,51.624822766888,0.56528550890708,53.7956274464893,-1.54802567392696,3.029600157194064
Bayford,BAY,1.0,51.7577148923117,-0.0956100209046352,53.7956274464893,-1.54802567392696,2.5025184929624285
Beaconsfield,BCF,2.0,51.6112905925788,-0.643822282354315,53.7956274464893,-1.54802567392696,2.3640878293081884
Bearley,BER,1.0,52.2444115945748,-1.75025547969474,53.7956274464893,-1.54802567392696,1.5643425179837371
Bearsden,BRN,1.0,55.9171345827093,-4.3320211452141,53.7956274464893,-1.54802567392696,3.500203324548405
Bearsted,BSD,2.0,51.2758187894535,0.577580355704965,53.7956274464893,-1.54802567392696,3.296609873988752
Beasdale,BSL,2.0,56.8995610683265,-5.76380325043513,53.7956274464893,-1.54802567392696,5.235187150748338
Beaulieu Road,BEU,1.0,50.8550493435382,-1.50474962699015,53.7956274464893,-1.54802567392696,2.940896529256677
Beauly,BEL,2.0,57.4782879378611,-4.46986686037102,53.7956274464893,-1.54802567392696,4.700972688020173
Bebington,BEB,1.0,53.3576570664328,-3.00363517233964,53.7956274464893,-1.54802567392696,1.5200714015058792
Beccles,BCC,2.0,52.4585181871493,1.5694932615698,53.7956274464893,-1.54802567392696,3.392165309148952
Beckenham Hill,BEC,2.0,51.4245808668055,-0.0159511139458484,53.7956274464893,-1.54802567392696,2.822961979972731
Beckenham Junction,BKJ,2.0,51.4111718661491,-0.0260225635677561,53.7956274464893,-1.54802567392696,2.828802199263607
Bedford,BDM,0.0,52.1361864656103,-0.479442379912954,53.7956274464893,-1.54802567392696,1.9737311431059887
Bedford St Johns,BSJ,1.0,52.1294772366621,-0.467501028060375,53.7956274464893,-1.54802567392696,1.9858474342286052
Bedhampton,BDH,2.0,50.8539566355958,-0.99582843515536,53.7956274464893,-1.54802567392696,2.9930501081956162
Bedminster,BMT,1.0,51.4400904239394,-2.59414932604792,53.7956274464893,-1.54802567392696,2.5773880887693505
Bedworth,BEH,2.0,52.4792974206142,-1.46739223305473,53.7956274464893,-1.54802567392696,1.3187973645739621
Bedwyn,BDW,1.0,51.3796409426581,-1.59878627020561,53.7956274464893,-1.54802567392696,2.416519692621822
Beeston,BEE,0.0,52.9207551214346,-1.20765801407939,53.7956274464893,-1.54802567392696,0.9387500886906592
Bekesbourne,BKS,2.0,51.2613539349877,1.13670763163281,53.7956274464893,-1.54802567392696,3.691928378649905
Belle Vue,BLV,1.0,53.4623764935822,-2.18050724055323,53.7956274464893,-1.54802567392696,0.7149049795151181
Bellgrove,BLG,1.0,55.8567093051092,-4.22437490020632,53.7956274464893,-1.54802567392696,3.3780029024466796
Bellingham,BGM,2.0,51.4329113825773,-0.0193308081217253,53.7956274464893,-1.54802567392696,2.8141313386917606
Bellshill,BLH,1.0,55.8170682424416,-4.02449996284266,53.7956274464893,-1.54802567392696,3.196740182623667
Belmont,BLM,2.0,51.3438134158344,-0.198855124360003,53.7956274464893,-1.54802567392696,2.798509105351462
Belper,BLP,1.0,53.0237591485711,-1.48251049959613,53.7956274464893,-1.54802567392696,0.7746437293354491
Beltring,BEG,2.0,51.2047063375307,0.403495486821792,53.7956274464893,-1.54802567392696,3.2436564296635058
Belvedere,BVD,2.0,51.4921162437256,0.152286098901381,53.7956274464893,-1.54802567392696,2.863079458568436
Bempton,BEM,1.0,54.1276580609781,-0.18045684367924,53.7956274464893,-1.54802567392696,1.407298416975919
Ben Rhydding,BEY,0.0,53.9257153348267,-1.79743026313235,53.7956274464893,-1.54802567392696,0.28129256621672943
Benfleet,BEF,2.0,51.5439424321207,0.561713345502072,53.7956274464893,-1.54802567392696,3.085625404036187
Bentham,BEN,0.0,54.1155197017626,-2.51067651046258,53.7956274464893,-1.54802567392696,1.0144100196994155
Bentley (Hants),BTY,2.0,51.1812327932647,-0.868126900052275,53.7956274464893,-1.54802567392696,2.701355538526108
Bentley (South Yorks),BYK,0.0,53.543936635355,-1.15094859528964,53.7956274464893,-1.54802567392696,0.4701260158602032
Bere Alston,BAS,1.0,50.4855988011236,-4.20035543651004,53.7956274464893,-1.54802567392696,4.241596727958174
Bere Ferrers,BFE,1.0,50.4512820780774,-4.18143518031599,53.7956274464893,-1.54802567392696,4.256699610209563
Berkhamsted,BKM,2.0,51.7631330812332,-0.562012981628892,53.7956274464893,-1.54802567392696,2.259038373771167
Berkswell,BKW,1.0,52.3958819317755,-1.64284047482006,53.7956274464893,-1.54802567392696,1.4029530827614296
Bermuda Park,BEP,2.0,52.5014343619449,-1.47217775464212,53.7956274464893,-1.54802567392696,1.2964137637893152
Berney Arms,BYA,-999.0,52.5897827472666,1.63037533346209,53.7956274464893,-1.54802567392696,3.3994550155010463
Berry Brow,BBW,1.0,53.6210419716152,-1.79343228301033,53.7956274464893,-1.54802567392696,0.3011718642549679
Berrylands,BRS,2.0,51.3990439366779,-0.280713667843256,53.7956274464893,-1.54802567392696,2.7110315823066005
Berwick (Sussex),BRK,2.0,50.8403762860459,0.166017608785235,53.7956274464893,-1.54802567392696,3.416350947474928
Berwick-upon-Tweed,BWK,0.0,55.7743389009866,-2.01097357377303,53.7956274464893,-1.54802567392696,2.0321465936616656
Bescar Lane,BES,1.0,53.623855333027,-2.9146110021991,53.7956274464893,-1.54802567392696,1.3773384182589175
Bescot Stadium,BSC,1.0,52.5630947071172,-1.9911057185482,53.7956274464893,-1.54802567392696,1.3097545111835445
Betchworth,BTO,1.0,51.2481879331766,-0.266973015200458,53.7956274464893,-1.54802567392696,2.851410876814681
Bethnal Green,BET,2.0,51.5239156627757,-0.0595680464428894,53.7956274464893,-1.54802567392696,2.7159124685966463
Betws-y-Coed,BYC,2.0,53.0920709395504,-3.80086212197837,53.7956274464893,-1.54802567392696,2.3601406356666446
Beverley,BEV,1.0,53.8422725915824,-0.422980126740875,53.7956274464893,-1.54802567392696,1.1260121015353226
Bexhill,BEX,2.0,50.84103990242,0.477016592346932,53.7956274464893,-1.54802567392696,3.5819525032815758
Bexley,BXY,2.0,51.4402175270263,0.147902494716889,53.7956274464893,-1.54802567392696,2.9024348815958603
Bexleyheath,BXH,2.0,51.4634982236074,0.133734871030645,53.7956274464893,-1.54802567392696,2.8752643778956775
Bicester North,BCS,1.0,51.9034829537461,-1.15038352192815,53.7956274464893,-1.54802567392696,1.9334761603041977
Bicester Village,BIT,1.0,51.8930236127002,-1.14876425178293,53.7956274464893,-1.54802567392696,1.9440450178844775
Bickley,BKL,2.0,51.4001024308637,0.0452405405139698,53.7956274464893,-1.54802567392696,2.8769840685285293
Bidston,BID,1.0,53.4091398593576,-3.07856110228132,53.7956274464893,-1.54802567392696,1.5785789028283461
Biggleswade,BIW,1.0,52.0846785950736,-0.261187193156868,53.7956274464893,-1.54802567392696,2.14086413575252
Bilbrook,BBK,1.0,52.6237197237583,-2.18608801838282,53.7956274464893,-1.54802567392696,1.3343505034319378
Billericay,BIC,2.0,51.6288812691945,0.418629610467223,53.7956274464893,-1.54802567392696,2.92617873761279
Billingham (Cleveland),BIL,1.0,54.605606575355,-1.27971968622732,53.7956274464893,-1.54802567392696,0.8532609754544712
Billingshurst,BIG,2.0,51.0152034952011,-0.450302232654151,53.7956274464893,-1.54802567392696,2.9892731729329958
Bingham,BIN,1.0,52.9541905628363,-0.95154335353279,53.7956274464893,-1.54802567392696,1.0314102906770315
Bingley,BIY,0.0,53.8486154371384,-1.8373224993653,53.7956274464893,-1.54802567392696,0.2941094700306851
Birchgrove,BCG,2.0,51.5215597229164,-3.20185379786194,53.7956274464893,-1.54802567392696,2.811855521699918
Birchington-on-sea,BCH,2.0,51.3774886896266,1.3014083545974,53.7956274464893,-1.54802567392696,3.737200734554411
Birchwood,BWD,1.0,53.4127205850305,-2.5253082468513,53.7956274464893,-1.54802567392696,1.049618450625677
Birkbeck,BIK,2.0,51.4038899816034,-0.0557387405611835,53.7956274464893,-1.54802567392696,2.8191006353858783
Birkdale,BDL,1.0,53.6340528065899,-3.01445011129132,53.7956274464893,-1.54802567392696,1.475298950978411
Birkenhead Central,BKC,1.0,53.3883166263867,-3.02082115838918,53.7956274464893,-1.54802567392696,1.5280800513143806
Birkenhead Hamilton Square,BKQ,1.0,53.3946967251861,-3.01368016573114,53.7956274464893,-1.54802567392696,1.5195027254435811
Birkenhead North,BKN,1.0,53.4044379353974,-3.05753365912751,53.7956274464893,-1.54802567392696,1.5593728197491918
Birkenhead Park,BKP,1.0,53.3974085855031,-3.03910128885113,53.7956274464893,-1.54802567392696,1.5433355923669476
Birmingham International,BHI,1.0,52.4508081112451,-1.72585685988124,53.7956274464893,-1.54802567392696,1.3565260687301766
Birmingham Moor Street,BMO,1.0,52.479080623723,-1.89247273057604,53.7956274464893,-1.54802567392696,1.3608597691791207
Birmingham New Street,BHM,0.0,52.4778198092097,-1.9002055706822,53.7956274464893,-1.54802567392696,1.3640555885120567
Birmingham Snow Hill,BSW,1.0,52.4833566780576,-1.89908868312646,53.7956274464893,-1.54802567392696,1.3584181263913255
Bishop Auckland,BIA,1.0,54.6571963763698,-1.67771509725951,53.7956274464893,-1.54802567392696,0.8712751387820933
Bishopbriggs,BBG,2.0,55.9038831792009,-4.22491571705821,53.7956274464893,-1.54802567392696,3.4074158151782084
Bishops Stortford,BIS,2.0,51.8666894209812,0.16489410333554,53.7956274464893,-1.54802567392696,2.579708524153084
Bishopstone (Sussex),BIP,2.0,50.7801416620368,0.082756921439231,53.7956274464893,-1.54802567392696,3.428207460114456
Bishopton (Strathclyde),BPT,1.0,55.9022694882255,-4.5004875625329,53.7956274464893,-1.54802567392696,3.6269783423231274
Bitterne,BTE,1.0,50.9182213632939,-1.37699961416727,53.7956274464893,-1.54802567392696,2.882484289762356
Blackburn,BBN,0.0,53.7465184457461,-2.47912240276289,53.7956274464893,-1.54802567392696,0.9323909117977099
Blackheath,BKH,2.0,51.4657945200002,0.00887187089452019,53.7956274464893,-1.54802567392696,2.802151214767665
Blackhorse Road,BHO,1.0,51.58660384873,-0.0412357433706351,53.7956274464893,-1.54802567392696,2.6739860041300454
Blackpool North,BPN,0.0,53.8219180942013,-3.04927516714828,53.7956274464893,-1.54802567392696,1.5014796831973407
Blackpool Pleasure Beach,BPB,1.0,53.7879555202556,-3.05387646984086,53.7956274464893,-1.54802567392696,1.505870339042064
Blackpool South,BPS,1.0,53.7987040263195,-3.04893832565541,53.7956274464893,-1.54802567392696,1.5009158049211084
Blackridge,BKR,1.0,55.8842557507999,-3.75079743413867,53.7956274464893,-1.54802567392696,3.035551287847659
Blackrod,BLK,1.0,53.5915244932358,-2.56952431744104,53.7956274464893,-1.54802567392696,1.0416897303074004
Blackwater,BAW,1.0,51.3315811457068,-0.776741026218888,53.7956274464893,-1.54802567392696,2.581938066683646
Blaenau Ffestiniog,BFF,2.0,52.9945530771849,-3.93859577234881,53.7956274464893,-1.54802567392696,2.521219058436831
Blair Atholl,BLA,1.0,56.7655504660718,-3.85022876626298,53.7956274464893,-1.54802567392696,3.7577362627794386
Blairhill,BAI,1.0,55.8664556230225,-4.0432911996593,53.7956274464893,-1.54802567392696,3.24263463569859
Blake Street,BKT,1.0,52.6048860712992,-1.84491459685048,53.7956274464893,-1.54802567392696,1.2271951984685645
Blakedown,BKD,2.0,52.4064026596129,-2.17686566095142,53.7956274464893,-1.54802567392696,1.524921387400903
Blantyre,BLT,1.0,55.7973304780703,-4.08697164977011,53.7956274464893,-1.54802567392696,3.2331194990118592
Blaydon,BLO,1.0,54.9657896857216,-1.71258088882198,53.7956274464893,-1.54802567392696,1.181675964414233
Bleasby,BSB,1.0,53.0413649497003,-0.943687538181265,53.7956274464893,-1.54802567392696,0.9665073700593041
Bletchley,BLY,2.0,51.9953339717924,-0.736320506839459,53.7956274464893,-1.54802567392696,1.9748219852211455
Bloxwich,BLX,1.0,52.6182018754768,-2.01147807238452,53.7956274464893,-1.54802567392696,1.2653533502188923
Bloxwich North,BWN,1.0,52.6254378492086,-2.01768461058018,53.7956274464893,-1.54802567392696,1.2609215718521878
Blundellsands & Crosby,BLN,2.0,53.4876867000616,-3.03986028592851,53.7956274464893,-1.54802567392696,1.5232852696971317
Blythe Bridge,BYB,1.0,52.9681439666743,-2.06696136521393,53.7956274464893,-1.54802567392696,0.9767410921314965
Bodmin Parkway,BOD,1.0,50.4458686645733,-4.66292953056928,53.7956274464893,-1.54802567392696,4.574222330970432
Bodorgan,BOR,2.0,53.2043074000119,-4.41800424551237,53.7956274464893,-1.54802567392696,2.930262172353434
Bognor Regis,BOG,2.0,50.7865584395345,-0.676178286011514,53.7956274464893,-1.54802567392696,3.1328284594645317
Bogston,BGS,1.0,55.9370473872407,-4.71140217696609,53.7956274464893,-1.54802567392696,3.8200301389685167
Bolton,BON,0.0,53.5741455351566,-2.42582497565139,53.7956274464893,-1.54802567392696,0.9053098094881556
Bolton-Upon-Dearne,BTD,0.0,53.5189470302023,-1.31154616002462,53.7956274464893,-1.54802567392696,0.3639706214136447
Bookham,BKA,2.0,51.2887375770933,-0.384020684769355,53.7956274464893,-1.54802567392696,2.7639472556588487
Bootle (Cumbria),BOC,1.0,54.2913058315169,-3.39386227213438,53.7956274464893,-1.54802567392696,1.911232536523359
Bootle New Strand,BNW,2.0,53.4533917659639,-2.99474773972908,53.7956274464893,-1.54802567392696,1.4866505967117614
Bootle Oriel Road,BOT,2.0,53.4466239167649,-2.9957338918952,53.7956274464893,-1.54802567392696,1.489181838504911
Bordesley,BBS,2.0,52.4718743800827,-1.87776885469942,53.7956274464893,-1.54802567392696,1.3642040705432616
Borough Green & Wrotham,BRG,2.0,51.2932170234776,0.306244959659036,53.7956274464893,-1.54802567392696,3.1145429051109548
Borth,BRH,1.0,52.4910318901744,-4.05017708151719,53.7956274464893,-1.54802567392696,2.8218311841891524
Bosham,BOH,2.0,50.8427472866996,-0.847431235664145,53.7956274464893,-1.54802567392696,3.034853176844711
Boston,BSN,1.0,52.9780883520384,-0.03100323679323,53.7956274464893,-1.54802567392696,1.7232896581024213
Botley,BOE,2.0,50.9164546156522,-1.25923650546392,53.7956274464893,-1.54802567392696,2.8936197700548165
Bottesford,BTF,1.0,52.9446141670485,-0.794842711685305,53.7956274464893,-1.54802567392696,1.136445412853472
Bourne End,BNE,2.0,51.5771173647136,-0.710473547391366,53.7956274464893,-1.54802567392696,2.371345725027185
Bournemouth,BMH,1.0,50.7272746595869,-1.86450316465566,53.7956274464893,-1.54802567392696,3.0846307440323666
Bournville,BRV,1.0,52.4269645832552,-1.92642405915734,53.7956274464893,-1.54802567392696,1.4200082292511982
Bow Brickhill,BWB,2.0,52.0043001848605,-0.696077833880482,53.7956274464893,-1.54802567392696,1.9835998791123168
Bowes Park,BOP,1.0,51.6070103763875,-0.120581954633459,53.7956274464893,-1.54802567392696,2.612975363697761
Bowling,BWG,2.0,55.9310849001239,-4.49384261915191,53.7956274464893,-1.54802567392696,3.6384084447815956
Box Hill & Westhumble,BXW,2.0,51.2540106794359,-0.328489952956063,53.7956274464893,-1.54802567392696,2.8190571411894036
Bracknell,BCE,1.0,51.4130914141393,-0.751703650172948,53.7956274464893,-1.54802567392696,2.512092098423493
Bradford Forster Square,BDQ,1.0,53.7969256219995,-1.75296173787813,53.7956274464893,-1.54802567392696,0.20494017558168845
Bradford Interchange,BDI,0.0,53.7910764525054,-1.74959589964649,53.7956274464893,-1.54802567392696,0.20162159468386254
Bradford-on-Avon,BOA,1.0,51.3449161602034,-2.25232693866303,53.7956274464893,-1.54802567392696,2.5499070728632303
Brading,BDN,2.0,50.6783720718463,-1.13872244962043,53.7956274464893,-1.54802567392696,3.144011800259089
Braintree,BTR,2.0,51.8753890748181,0.556686982906197,53.7956274464893,-1.54802567392696,2.8490578744336053
Braintree Freeport,BTP,2.0,51.8694135093739,0.568434688069829,53.7956274464893,-1.54802567392696,2.861765992432153
Bramhall,BML,1.0,53.360614520234,-2.16359288123925,53.7956274464893,-1.54802567392696,0.753763379799953
Bramley (Hants),BMY,1.0,51.3302932744388,-1.06100278415591,53.7956274464893,-1.54802567392696,2.5129790836855075
Bramley (W Yorks),BLE,0.0,53.8053497570895,-1.63720635437646,53.7956274464893,-1.54802567392696,0.08970906915603706
Brampton (Cumbria),BMP,1.0,54.9323930102284,-2.70294760254176,53.7956274464893,-1.54802567392696,1.620518623187778
Brampton (Suffolk),BRP,2.0,52.3954307722651,1.54381046672808,53.7956274464893,-1.54802567392696,3.3941127628835726
Branchton,BCN,1.0,55.9406016000061,-4.80354935893801,53.7956274464893,-1.54802567392696,3.898634194551091
Brandon,BND,2.0,52.4540047306678,0.624731734521936,53.7956274464893,-1.54802567392696,2.5535908575137523
Branksome,BSM,2.0,50.7269660330633,-1.91975842787338,53.7956274464893,-1.54802567392696,3.0910949695223287
Braystones (Cumbria),BYS,1.0,54.4393640536404,-3.54182643942065,53.7956274464893,-1.54802567392696,2.0951463700347146
Bredbury,BDY,1.0,53.4231550957567,-2.11048830300964,53.7956274464893,-1.54802567392696,0.6746108961281829
Breich,BRC,1.0,55.8273164832767,-3.66812586892786,53.7956274464893,-1.54802567392696,2.9364238759152195
Brentford,BFD,2.0,51.4875457097478,-0.3096509962364,53.7956274464893,-1.54802567392696,2.6193153964012916
Brentwood,BRE,2.0,51.6136030493508,0.2995857793073,53.7956274464893,-1.54802567392696,2.8591779503609147
Bricket Wood,BWO,2.0,51.7054267834401,-0.359115040469,53.7956274464893,-1.54802567392696,2.404671974752628
Bridge of Allan,BEA,1.0,56.1566398048563,-3.95722936202684,53.7956274464893,-1.54802567392696,3.3732242390798395
Bridge of Orchy,BRO,2.0,56.5158728605762,-4.76299400728156,53.7956274464893,-1.54802567392696,4.211384154566487
Bridgend,BGN,1.0,51.5069776497295,-3.57527638119945,53.7956274464893,-1.54802567392696,3.0573948587556496
Bridgeton,BDG,1.0,55.8489676845822,-4.22605724682491,53.7956274464893,-1.54802567392696,3.37461986582336
Bridgwater,BWT,1.0,51.1278595271724,-2.99040597303838,53.7956274464893,-1.54802567392696,3.032729232655164
Bridlington,BDT,1.0,54.0841300013586,-0.198720390714093,53.7956274464893,-1.54802567392696,1.3798037800615965
Brierfield,BRF,1.0,53.8239823807197,-2.23649020577414,53.7956274464893,-1.54802567392696,0.6890481941829373
Brigg,BGG,1.0,53.5491442686681,-0.486124757673641,53.7956274464893,-1.54802567392696,1.0901318786681153
Brighouse,BGH,0.0,53.6981985445311,-1.77943904000537,53.7956274464893,-1.54802567392696,0.25108671198715377
Brighton (East Sussex),BTN,2.0,50.8290032740444,-0.141280362604851,53.7956274464893,-1.54802567392696,3.2832592574241066
Brimsdown,BMD,2.0,51.6555817179022,-0.0308174334464399,53.7956274464893,-1.54802567392696,2.623302606529768
Brinnington,BNT,1.0,53.4321182782686,-2.13512015019042,53.7956274464893,-1.54802567392696,0.6905207016734348
Bristol Parkway,BPW,0.0,51.5138036668802,-2.54216343130652,53.7956274464893,-1.54802567392696,2.4889816475492967
Bristol Temple Meads,BRI,0.0,51.449146420501,-2.58131562733598,53.7956274464893,-1.54802567392696,2.5639152351704424
Brithdir,BHD,2.0,51.7103060616454,-3.22872077880337,53.7956274464893,-1.54802567392696,2.67830194594314
Briton Ferry,BNF,1.0,51.6379005035521,-3.81925304025098,53.7956274464893,-1.54802567392696,3.1327718253674712
Brixton,BRX,2.0,51.4632974069132,-0.114183479348404,53.7956274464893,-1.54802567392696,2.737821552341003
Broad Green,BGE,1.0,53.4065063198581,-2.8934843782564,53.7956274464893,-1.54802567392696,1.4005978638590686
Broadbottom,BDB,1.0,53.4409753914717,-2.01652101691897,53.7956274464893,-1.54802567392696,0.587593368353834
Broadstairs,BSR,2.0,51.3606706129939,1.43356042841681,53.7956274464893,-1.54802567392696,3.8495286031766867
Brockenhurst,BCU,1.0,50.8168418133325,-1.57353117285741,53.7956274464893,-1.54802567392696,2.978894825061306
Brockholes,BHS,1.0,53.5969730380642,-1.76969142002127,53.7956274464893,-1.54802567392696,0.2976563068007686
Brockley,BCY,2.0,51.4646472014469,-0.0375366925196268,53.7956274464893,-1.54802567392696,2.777597138846971
Bromborough,BOM,1.0,53.3218495381578,-2.98689585549247,53.7956274464893,-1.54802567392696,1.5148639892153135
Bromborough Rake,BMR,1.0,53.3299093778849,-2.98946942122466,53.7956274464893,-1.54802567392696,1.5148113400843832
Bromley Cross (Lancs),BMC,1.0,53.6140430093272,-2.41089911446368,53.7956274464893,-1.54802567392696,0.8817729198626784
Bromley North,BMN,2.0,51.4083259856208,0.0169926357417391,53.7956274464893,-1.54802567392696,2.854556108165181
Bromley South,BMS,2.0,51.3999745779484,0.0173440284479178,53.7956274464893,-1.54802567392696,2.861736356071512
Bromsgrove,BMV,1.0,52.3222879772082,-2.04734524157192,53.7956274464893,-1.54802567392696,1.555650739200372
Brondesbury,BSY,2.0,51.5451643215911,-0.202308734122339,53.7956274464893,-1.54802567392696,2.6221247793733364
Brondesbury Park,BSP,2.0,51.5406977630272,-0.210127665126915,53.7956274464893,-1.54802567392696,2.621960899653086
Brookmans Park,BPK,1.0,51.7210604040222,-0.204548729285783,53.7956274464893,-1.54802567392696,2.47159032092155
Brookwood,BKO,2.0,51.3037572593507,-0.635747900032551,53.7956274464893,-1.54802567392696,2.6536140952090057
Broome,BME,2.0,52.4227745962921,-2.88520796216339,53.7956274464893,-1.54802567392696,1.9164502133548331
Broomfleet,BMF,1.0,53.7402076992399,-0.671828400321333,53.7956274464893,-1.54802567392696,0.8779481822175617
Brora,BRA,2.0,58.012954677959,-3.85228367382381,53.7956274464893,-1.54802567392696,4.805772977095833
Brough,BUH,0.0,53.726959736948,-0.578724236728498,53.7956274464893,-1.54802567392696,0.9717306882509436
Broughty Ferry,BYF,1.0,56.4671632427311,-2.87315275743822,53.7956274464893,-1.54802567392696,2.9821242928584244
Broxbourne,BXB,2.0,51.7469087203036,-0.0110867237416249,53.7956274464893,-1.54802567392696,2.5611383710414293
Bruce Grove,BCV,2.0,51.5939575362971,-0.0698670703254643,53.7956274464893,-1.54802567392696,2.6518490248969417
Brundall,BDA,2.0,52.6194794445227,1.43929868679443,53.7956274464893,-1.54802567392696,3.2105187989933146
Brundall Gardens,BGA,2.0,52.623439277351,1.41841612253682,53.7956274464893,-1.54802567392696,3.189639797167552
Brunstane,BSU,1.0,55.9425140850115,-3.10098653970798,53.7956274464893,-1.54802567392696,2.649681054261532
Brunswick,BRW,2.0,53.3832435421687,-2.97607735757102,53.7956274464893,-1.54802567392696,1.4864024003281666
Bruton,BRU,1.0,51.1116412233567,-2.44707381432238,53.7956274464893,-1.54802567392696,2.8305599454373085
Bryn,BYN,1.0,53.4998691660173,-2.6472139954436,53.7956274464893,-1.54802567392696,1.1382828851504017
Buckenham (Norfolk),BUC,-999.0,52.5977342869752,1.47032522512213,53.7956274464893,-1.54802567392696,3.247366651827466
Buckley,BCK,2.0,53.163039091322,-3.05592619131988,53.7956274464893,-1.54802567392696,1.6352161928769864
Bucknell,BUK,2.0,52.3573820377697,-2.94737831871819,53.7956274464893,-1.54802567392696,2.0066732868574313
Buckshaw Parkway,BSV,1.0,53.6733436562841,-2.6608302706882,53.7956274464893,-1.54802567392696,1.1195031915630675
Bugle,BGL,2.0,50.4003548175137,-4.79210144517706,53.7956274464893,-1.54802567392696,4.695945467601045
Builth Road,BHR,2.0,52.1693260878635,-3.42703322967269,53.7956274464893,-1.54802567392696,2.485060462768995
Bulwell,BLW,1.0,52.9996957837852,-1.19623056375416,53.7956274464893,-1.54802567392696,0.8702109004352935
Bures,BUE,2.0,51.9711590332091,0.769143780923498,53.7956274464893,-1.54802567392696,2.9492302849301444
Burgess Hill,BUG,2.0,50.9536546008005,-0.127412852764647,53.7956274464893,-1.54802567392696,3.1772551744049844
Burley Park,BUY,0.0,53.8120311080587,-1.57776768947798,53.7956274464893,-1.54802567392696,0.03396568270947138
Burley-in-Wharfedale,BUW,0.0,53.9081516997075,-1.75337211508043,53.7956274464893,-1.54802567392696,0.23415565006360634
Burnage,BNA,1.0,53.4211687602571,-2.21567840315285,53.7956274464893,-1.54802567392696,0.7654929617818318
Burneside (Cumbria),BUD,1.0,54.3549826054845,-2.76667730640148,53.7956274464893,-1.54802567392696,1.3408914927119795
Burnham (Bucks),BNM,2.0,51.5235048795581,-0.646373823188634,53.7956274464893,-1.54802567392696,2.44448706666611
Burnham-on-Crouch,BUU,2.0,51.6336547723703,0.814027782561537,53.7956274464893,-1.54802567392696,3.202096559279016
Burnley Barracks,BUB,2.0,53.7908801067712,-2.25808600820696,53.7956274464893,-1.54802567392696,0.7100762040458928
Burnley Central,BNC,1.0,53.7935141377532,-2.24497131410056,53.7956274464893,-1.54802567392696,0.696948844199345
Burnley Manchester Road,BYM,0.0,53.784967519749,-2.24886752625716,53.7956274464893,-1.54802567392696,0.7009229173138328
Burnside (Strathclyde),BUI,1.0,55.8169313339993,-4.20239033426663,53.7956274464893,-1.54802567392696,3.3363634627724803
Burntisland,BTS,1.0,56.0570842114504,-3.23319831966981,53.7956274464893,-1.54802567392696,2.820282529419401
Burscough Bridge,BCB,0.0,53.6052595050232,-2.84088028461687,53.7956274464893,-1.54802567392696,1.3067949332317597
Burscough Junction,BCJ,1.0,53.5975223038556,-2.84060569626726,53.7956274464893,-1.54802567392696,1.3076730331742599
Bursledon,BUO,1.0,50.8836886125224,-1.30503236047306,53.7956274464893,-1.54802567392696,2.9220598082769995
Burton Joyce,BUJ,1.0,52.9834418843688,-1.04087761567102,53.7956274464893,-1.54802567392696,0.9575199947310543
Burton-on-Trent,BUT,0.0,52.8058165084357,-1.64245997205794,53.7956274464893,-1.54802567392696,0.9943055515051905
Bury St Edmunds,BSE,1.0,52.2537604920335,0.713306656862091,53.7956274464893,-1.54802567392696,2.73696503732047
Busby,BUS,1.0,55.7803445376612,-4.26220173231044,53.7956274464893,-1.54802567392696,3.3624178217306575
Bush Hill Park,BHK,2.0,51.6415169536941,-0.0692211146516689,53.7956274464893,-1.54802567392696,2.612863360320198
Bushey,BSH,2.0,51.6457502336329,-0.385321269560704,53.7956274464893,-1.54802567392696,2.4441467963876216
Butlers Lane,BUL,1.0,52.5924709448511,-1.83802031828625,53.7956274464893,-1.54802567392696,1.2376115954496134
Buxted,BXD,2.0,50.9900108378352,0.131438921683175,53.7956274464893,-1.54802567392696,3.269875514857353
Buxton,BUX,1.0,53.2607227045765,-1.91286358993768,53.7956274464893,-1.54802567392696,0.6474795656079357
Byfleet & New Haw,BFN,2.0,51.3497957278428,-0.481389767596653,53.7956274464893,-1.54802567392696,2.6682962640251073
Bynea,BYE,2.0,51.6720366859549,-4.09888164715589,53.7956274464893,-1.54802567392696,3.3191119165199563
Cadoxton,CAD,2.0,51.4122831697514,-3.24889594393883,53.7956274464893,-1.54802567392696,2.928018035612069
Caergwrle,CGW,2.0,53.1078664074892,-3.03291327418616,53.7956274464893,-1.54802567392696,1.6364310044025763
Caerphilly,CPH,2.0,51.57158067131,-3.21848255919666,53.7956274464893,-1.54802567392696,2.781512226061639
Caersws,CWS,1.0,52.5161279090032,-3.43249879239218,53.7956274464893,-1.54802567392696,2.277796742610096
Caldercruix,CAC,1.0,55.8879475461776,-3.88771190821316,53.7956274464893,-1.54802567392696,3.138779233152278
Caldicot,CDT,1.0,51.5847930591881,-2.76057390572724,53.7956274464893,-1.54802567392696,2.5215197604848245
Caledonian Rd & Barnsbury,CIR,2.0,51.5430392840645,-0.116729249835755,53.7956274464893,-1.54802567392696,2.6688504797220487
Calstock,CSK,1.0,50.4978023671618,-4.20898850028348,53.7956274464893,-1.54802567392696,4.237496125908869
Cam & Dursley,CDU,1.0,51.71762106741,-2.35908298700462,53.7956274464893,-1.54802567392696,2.2306780306873084
Camberley,CAM,2.0,51.3363271281171,-0.744271720142327,53.7956274464893,-1.54802567392696,2.5873110509117447
Camborne,CBN,1.0,50.2104431448962,-5.2974123155278,53.7956274464893,-1.54802567392696,5.1876243758202465
Cambridge,CBG,1.0,52.1940653655991,0.137456461171047,53.7956274464893,-1.54802567392696,2.3250486288849688
Cambridge Heath,CBH,2.0,51.5319710950389,-0.0572790666047599,53.7956274464893,-1.54802567392696,2.710436408533576
Cambuslang,CBL,1.0,55.8196110785266,-4.17300936139383,53.7956274464893,-1.54802567392696,3.314671794042672
Camden Road,CMD,2.0,51.541789311709,-0.138700901327927,53.7956274464893,-1.54802567392696,2.658191613193307
Camelon,CMO,1.0,56.0060960246981,-3.81760595611437,53.7956274464893,-1.54802567392696,3.1681486695769716
Canada Water,ZCW,2.0,51.4979884652777,-0.0497198367270248,53.7956274464893,-1.54802567392696,2.7430029656875092
Canley,CNL,1.0,52.3992417616656,-1.54757487164278,53.7956274464893,-1.54802567392696,1.3963857575910925
Cannock,CAO,1.0,52.6861624456421,-2.02214749992606,53.7956274464893,-1.54802567392696,1.2065256292319704
Canonbury,CNN,2.0,51.5487306960064,-0.0921909296515918,53.7956274464893,-1.54802567392696,2.677312049420076
Canterbury East,CBE,2.0,51.2742643010057,1.07596836838028,53.7956274464893,-1.54802567392696,3.6390406490539275
Canterbury West,CBW,2.0,51.2842658182293,1.07530307014886,53.7956274464893,-1.54802567392696,3.6316374994472023
Cantley,CNY,2.0,52.5787439208642,1.51341203393271,53.7956274464893,-1.54802567392696,3.294420488347358
Capenhurst,CPU,1.0,53.2601766897761,-2.94228526259152,53.7956274464893,-1.54802567392696,1.4935418686624766
Carbis Bay,CBB,2.0,50.1970567010486,-5.46326466277764,53.7956274464893,-1.54802567392696,5.317782220978789
Cardenden,CDD,1.0,56.1412590120684,-3.26164246018956,53.7956274464893,-1.54802567392696,2.9049044616995654
Cardiff Bay,CDB,2.0,51.4671120338694,-3.16640344566505,53.7956274464893,-1.54802567392696,2.8356887415342977
Cardiff Central,CDF,1.0,51.4760288851757,-3.17930229689385,53.7956274464893,-1.54802567392696,2.835771659757952
Cardiff Queen Street,CDQ,2.0,51.4819650131963,-3.17018110795731,53.7956274464893,-1.54802567392696,2.8256719744842047
Cardonald,CDO,1.0,55.8525736689993,-4.34069348123436,53.7956274464893,-1.54802567392696,3.468432101723959
Cardross,CDR,1.0,55.9603843832927,-4.65307437435214,53.7956274464893,-1.54802567392696,3.785168427884093
Carfin,CRF,1.0,55.8073437453988,-3.9562545230792,53.7956274464893,-1.54802567392696,3.1379242593133565
Cark & Cartmel,CAK,1.0,54.1779579416092,-2.97406410040301,53.7956274464893,-1.54802567392696,1.4764017750209184
Carlisle,CAR,0.0,54.8906549298,-2.93319211047497,53.7956274464893,-1.54802567392696,1.765721168855627
Carlton,CTO,1.0,52.965087366641,-1.07865502808069,53.7956274464893,-1.54802567392696,0.9539945636200248
Carluke,CLU,1.0,55.7312694028257,-3.84892564535903,53.7956274464893,-1.54802567392696,3.0068007020196608
Carmarthen,CMN,1.0,51.8533578808521,-4.30596190317658,53.7956274464893,-1.54802567392696,3.3732215032825987
Carmyle,CML,1.0,55.8343417681725,-4.15818113045633,53.7956274464893,-1.54802567392696,3.3119884650593576
Carnforth,CNF,0.0,54.1296807999724,-2.77123283370784,53.7956274464893,-1.54802567392696,1.2680013401856136
Carnoustie,CAN,1.0,56.5005661034066,-2.70660077824166,53.7956274464893,-1.54802567392696,2.942616082675989
Carntyne,CAY,1.0,55.8548777008205,-4.17857314789674,53.7956274464893,-1.54802567392696,3.3407022649095683
Carpenders Park,CPK,2.0,51.6283500844943,-0.385939110192136,53.7956274464893,-1.54802567392696,2.4591739152465424
Carrbridge,CAG,1.0,57.2795057695212,-3.82820361192189,53.7956274464893,-1.54802567392696,4.1637266479213535
Carshalton,CSH,2.0,51.3684528774191,-0.166368536051504,53.7956274464893,-1.54802567392696,2.7928753705425686
Carshalton Beeches,CSB,2.0,51.3574095253256,-0.169797044692897,53.7956274464893,-1.54802567392696,2.8007893147333003
Carstairs,CRS,1.0,55.6910505751263,-3.66847398361363,53.7956274464893,-1.54802567392696,2.8441044057181033
Cartsdyke,CDY,1.0,55.9422189788465,-4.73159192667259,53.7956274464893,-1.54802567392696,3.8396548402699535
Castle Bar Park,CBP,2.0,51.5229293420363,-0.331548940592461,53.7956274464893,-1.54802567392696,2.577784381349307
Castle Cary,CLC,1.0,51.0998172088069,-2.52279469643867,53.7956274464893,-1.54802567392696,2.8666299874315277
Castleford,CFD,0.0,53.7240777865092,-1.354652736609,53.7956274464893,-1.54802567392696,0.20618546682597105
Castleton (Manchester),CAS,0.0,53.5918484863424,-2.17823419505367,53.7956274464893,-1.54802567392696,0.6623357492233573
Castleton Moor,CSM,1.0,54.4671435348016,-0.946648402304519,53.7956274464893,-1.54802567392696,0.901436897229255
Caterham,CAT,2.0,51.2821399092314,-0.0783071221606942,53.7956274464893,-1.54802567392696,2.9116476815296046
Catford,CTF,2.0,51.4444050592825,-0.0263165980978829,53.7956274464893,-1.54802567392696,2.8006865632489135
Catford Bridge,CFB,2.0,51.4447390713824,-0.0247911767036132,53.7956274464893,-1.54802567392696,2.801235349938311
Cathays,CYS,2.0,51.4889025348744,-3.17868388381823,53.7956274464893,-1.54802567392696,2.8248939830284905
Cathcart,CCT,1.0,55.8176734833053,-4.26053705302787,53.7956274464893,-1.54802567392696,3.383251122331184
Cattal,CTL,0.0,53.9974405714928,-1.32053513613482,53.7956274464893,-1.54802567392696,0.30410603777076994
Causeland,CAU,2.0,50.4056959147701,-4.46644892679679,53.7956274464893,-1.54802567392696,4.473123078189935
Cefn-y-Bedd,CYB,2.0,53.0988032278231,-3.03105323734973,53.7956274464893,-1.54802567392696,1.6385770490249887
Chadwell Heath,CTH,2.0,51.5680368465285,0.128958362519305,53.7956274464893,-1.54802567392696,2.788267444046449
Chafford Hundred Lakeside,CFH,2.0,51.4855550575053,0.28744692045023,53.7956274464893,-1.54802567392696,2.950490482454733
Chalfont & Latimer,CFO,2.0,51.6681076576697,-0.560526398177912,53.7956274464893,-1.54802567392696,2.3455266511860144
Chalkwell,CHW,2.0,51.5387163080302,0.670592556917399,53.7956274464893,-1.54802567392696,3.1647930013091985
Chandlers Ford,CFR,2.0,50.9836845147777,-1.38517039014294,53.7956274464893,-1.54802567392696,2.8166549122423916
Chapel-en-le-Frith,CEF,1.0,53.3122322961308,-1.91876260821786,53.7956274464893,-1.54802567392696,0.6091935208433598
Chapelton (Devon),CPN,1.0,51.0165400933197,-4.02472276399646,53.7956274464893,-1.54802567392696,3.722546842217831
Chapeltown (South Yorks),CLN,0.0,53.4623369950109,-1.46627538451147,53.7956274464893,-1.54802567392696,0.3431699795526854
Chappel & Wakes Colne,CWC,2.0,51.9259030310448,0.758501135970095,53.7956274464893,-1.54802567392696,2.969164076719771
Charing (Kent),CHG,2.0,51.2080962778901,0.790331124900325,53.7956274464893,-1.54802567392696,3.4875822667134497
Charing Cross (Glasgow),CHC,1.0,55.8646868840175,-4.2698209416277,53.7956274464893,-1.54802567392696,3.4189437601842285
Charlbury,CBY,1.0,51.8724282813146,-1.48969393048958,53.7956274464893,-1.54802567392696,1.9240835795830469
Charlton,CTN,2.0,51.4868115310585,0.0312574909275387,53.7956274464893,-1.54802567392696,2.7972783640780907
Chartham,CRT,2.0,51.2572624478548,1.01803921286391,53.7956274464893,-1.54802567392696,3.60943013085359
Chassen Road,CSR,1.0,53.4461614853374,-2.36823319572701,53.7956274464893,-1.54802567392696,0.8915530476764695
Chatelherault,CTE,2.0,55.7652234915406,-4.00467524821846,53.7956274464893,-1.54802567392696,3.1487196940261843
Chatham,CTM,2.0,51.3803760158194,0.521150706594487,53.7956274464893,-1.54802567392696,3.1803978315708905
Chathill,CHT,1.0,55.5367340174025,-1.70637532341525,53.7956274464893,-1.54802567392696,1.7482925106429408
Cheadle Hulme,CHU,1.0,53.3759306424827,-2.1883029825707,53.7956274464893,-1.54802567392696,0.7655719686988443
Cheam,CHE,2.0,51.3554775610295,-0.214167523240628,53.7956274464893,-1.54802567392696,2.7809187384139467
Cheddington,CED,2.0,51.8579176369762,-0.662151871991779,53.7956274464893,-1.54802567392696,2.130608293149727
Chelford (Cheshire),CEL,1.0,53.2703118842523,-2.28057730967718,53.7956274464893,-1.54802567392696,0.901436819177415
Chelmsford,CHM,2.0,51.736370182895,0.468572080657349,53.7956274464893,-1.54802567392696,2.8822225766689753
Chelsfield,CLD,2.0,51.3562540463622,0.109069814712519,53.7956274464893,-1.54802567392696,2.9489842393130794
Cheltenham Spa,CNM,0.0,51.897399026527,-2.09962021886949,53.7956274464893,-1.54802567392696,1.9767467405722288
Chepstow,CPW,1.0,51.6401819017246,-2.67190561030381,53.7956274464893,-1.54802567392696,2.4308540901988356
Cherry Tree,CYT,0.0,53.7328728448942,-2.51837919025585,53.7956274464893,-1.54802567392696,0.9723806284954472
Chertsey,CHY,2.0,51.387067986648,-0.509316626293664,53.7956274464893,-1.54802567392696,2.6229897363936217
Cheshunt,CHN,2.0,51.7028745312854,-0.0239597248580568,53.7956274464893,-1.54802567392696,2.588897792730663
Chessington North,CSN,2.0,51.3640398492818,-0.300699137972596,53.7956274464893,-1.54802567392696,2.73284498832064
Chessington South,CSS,2.0,51.3565491107847,-0.308157574149904,53.7956274464893,-1.54802567392696,2.736124272131712
Chester,CTR,1.0,53.1966981459934,-2.879593999182,53.7956274464893,-1.54802567392696,1.46006524231454
Chester Road,CRD,1.0,52.5356474587434,-1.83247949958833,53.7956274464893,-1.54802567392696,1.2916901905850136
Chesterfield,CHD,0.0,53.2382208069527,-1.42011597140436,53.7956274464893,-1.54802567392696,0.5718942680241751
Chester-le-Street,CLS,0.0,54.854595364494,-1.57801542177952,53.7956274464893,-1.54802567392696,1.0593924845587108
Chestfield & Swalecliffe,CSW,2.0,51.360237745381,1.06693052184082,53.7956274464893,-1.54802567392696,3.5733903931768594
Chetnole,CNO,1.0,50.8663655335093,-2.57292595204148,53.7956274464893,-1.54802567392696,3.1033845934583177
Chichester,CCH,2.0,50.8320529892616,-0.781748952807999,53.7956274464893,-1.54802567392696,3.0610379901042206
Chilham,CIL,2.0,51.2446076985827,0.975895539359203,53.7956274464893,-1.54802567392696,3.5885763256597114
Chilworth,CHL,1.0,51.2152123162868,-0.524824137256049,53.7956274464893,-1.54802567392696,2.775875290574791
Chingford,CHI,2.0,51.6330849559396,0.00989703968061354,53.7956274464893,-1.54802567392696,2.6652791983218704
Chinley,CLY,1.0,53.3402914179345,-1.94394095141586,53.7956274464893,-1.54802567392696,0.6033902599886474
Chippenham,CPM,1.0,51.4624897217942,-2.11539415452921,53.7956274464893,-1.54802567392696,2.4011327816629238
Chipstead,CHP,2.0,51.3092758788923,-0.169503225609274,53.7956274464893,-1.54802567392696,2.842933037939486
Chirk,CRK,2.0,52.9330904882563,-3.06564362624753,53.7956274464893,-1.54802567392696,1.74560426601321
Chislehurst,CIT,2.0,51.4055547408408,0.0574179687488035,53.7956274464893,-1.54802567392696,2.879218093179807
Chiswick,CHK,2.0,51.4811353508269,-0.267835206320324,53.7956274464893,-1.54802567392696,2.6449501496691075
Cholsey,CHO,2.0,51.5702025135637,-1.15802300516055,53.7956274464893,-1.54802567392696,2.2593402164640515
Chorley,CRL,1.0,53.6525386748143,-2.62684103630161,53.7956274464893,-1.54802567392696,1.088263287387297
Chorleywood,CLW,2.0,51.6542477676637,-0.518320062534133,53.7956274464893,-1.54802567392696,2.3760893449155294
Christchurch,CHR,2.0,50.7382153631909,-1.78454614689707,53.7956274464893,-1.54802567392696,3.0665470127218066
Christs Hospital,CHH,2.0,51.0506848896206,-0.363556339669494,53.7956274464893,-1.54802567392696,2.9895948294551897
Church & Oswaldtwistle,CTW,1.0,53.7505227746877,-2.39121218921604,53.7956274464893,-1.54802567392696,0.8443920481527948
Church Fenton,CHF,0.0,53.8266010051519,-1.22758889955301,53.7956274464893,-1.54802567392696,0.3219302528614038
Church Stretton,CTT,1.0,52.5374242388884,-2.80369477152189,53.7956274464893,-1.54802567392696,1.7775770571966942
Cilmeri,CIM,2.0,52.1505334866855,-3.45654171112508,53.7956274464893,-1.54802567392696,2.519676090457932
City Thameslink,CTK,1.0,51.5139346019675,-0.103589643870664,53.7956274464893,-1.54802567392696,2.7004661970976
Clacton-on-Sea,CLT,2.0,51.7939991870545,1.15409160775521,53.7956274464893,-1.54802567392696,3.362730065428001
Clandon,CLA,2.0,51.2640043702166,-0.502766109156909,53.7956274464893,-1.54802567392696,2.738920034988195
Clapham (North Yorkshire),CPY,0.0,54.1053880706421,-2.4103762733162,53.7956274464893,-1.54802567392696,0.9162970045473874
Clapham High Street,CLP,2.0,51.465479417202,-0.132521686185382,53.7956274464893,-1.54802567392696,2.7263971423297453
Clapham Junction,CLJ,2.0,51.4641865965587,-0.170293416365599,53.7956274464893,-1.54802567392696,2.70809206088904
Clapton,CPT,2.0,51.5616423238882,-0.0570246574503497,53.7956274464893,-1.54802567392696,2.6858468979331875
Clarbeston Road,CLR,1.0,51.8516714049905,-4.8835490247474,53.7956274464893,-1.54802567392696,3.860658119433538
Clarkston,CKS,1.0,55.7893535486702,-4.27564475472092,53.7956274464893,-1.54802567392696,3.378586926575774
Claverdon,CLV,1.0,52.277091521558,-1.69656001384624,53.7956274464893,-1.54802567392696,1.5257830138791733
Claygate,CLG,2.0,51.3612128745663,-0.34824779526903,53.7956274464893,-1.54802567392696,2.714008339358589
Cleethorpes,CLE,1.0,53.5619045675724,-0.0292209300100191,53.7956274464893,-1.54802567392696,1.5366828671765067
Cleland,CEA,1.0,55.804652232152,-3.91024482718574,53.7956274464893,-1.54802567392696,3.1010094997322564
Clifton (Manchester),CLI,1.0,53.522491666707,-2.31474664635258,53.7956274464893,-1.54802567392696,0.8139190400491769
Clifton Down,CFN,1.0,51.4645471476911,-2.61174122454121,53.7956274464893,-1.54802567392696,2.5623087503389743
Clitheroe,CLH,1.0,53.8734683464237,-2.39433664531423,53.7956274464893,-1.54802567392696,0.8498832072661879
Clock House,CLK,2.0,51.4085847718765,-0.0406570648343016,53.7956274464893,-1.54802567392696,2.823142372268988
Clunderwen,CUW,1.0,51.840545791914,-4.73184301881061,53.7956274464893,-1.54802567392696,3.736179487342498
Clydebank,CYK,1.0,55.9006964941048,-4.40441492241242,53.7956274464893,-1.54802567392696,3.54827778423451
Coatbridge Central,CBC,1.0,55.8625102963699,-4.0318976496868,53.7956274464893,-1.54802567392696,3.2313502916111774
Coatbridge Sunnyside,CBS,1.0,55.8668386609231,-4.02828798060081,53.7956274464893,-1.54802567392696,3.23134909978842
Coatdyke,COA,1.0,55.8643447692187,-4.00498525207608,53.7956274464893,-1.54802567392696,3.2118906784041372
Cobham & Stoke d'Abernon,CSD,2.0,51.3180996661306,-0.389346373427882,53.7956274464893,-1.54802567392696,2.735083476578756
Codsall,CSL,1.0,52.6272899571536,-2.20176310096144,53.7956274464893,-1.54802567392696,1.33879987768632
Cogan,CGN,2.0,51.4459958120536,-3.18909039001181,53.7956274464893,-1.54802567392696,2.865983639157699
Colchester,COL,1.0,51.90071062168,0.89259805805851,53.7956274464893,-1.54802567392696,3.0898792814729905
Colchester Town,CET,2.0,51.8864527052257,0.9047624659822,53.7956274464893,-1.54802567392696,3.108233879867788
Coleshill Parkway,CEH,1.0,52.5165275432713,-1.70817740730361,53.7956274464893,-1.54802567392696,1.289086940479902
Collingham,CLM,1.0,53.1440857576614,-0.750393934928215,53.7956274464893,-1.54802567392696,1.0299140562876454
Collington,CLL,2.0,50.8392865411482,0.457861387933257,53.7956274464893,-1.54802567392696,3.5726089141594066
Colne,CNE,1.0,53.8547444008362,-2.18185934114806,53.7956274464893,-1.54802567392696,0.6365845835348213
Colwall,CWL,1.0,52.0798705537891,-2.35695037506955,53.7956274464893,-1.54802567392696,1.8968871571516506
Colwyn Bay,CWB,1.0,53.2963632033856,-3.72541732837559,53.7956274464893,-1.54802567392696,2.2338977598145466
Combe (Oxon),CME,1.0,51.8325940324182,-1.39407333584626,53.7956274464893,-1.54802567392696,1.9690610724810307
Commondale,COM,1.0,54.4812740872027,-0.975148019682156,53.7956274464893,-1.54802567392696,0.8934764253490969
Congleton,CNG,1.0,53.1578561862417,-2.19258027037562,53.7956274464893,-1.54802567392696,0.9067539954149101
Conisbrough,CNS,1.0,53.4893094105923,-1.23433150755602,53.7956274464893,-1.54802567392696,0.43844585655580653
Connel Ferry,CON,2.0,56.4523594657108,-5.38544247761732,53.7956274464893,-1.54802567392696,4.667332508746499
Conon Bridge,CBD,2.0,57.5617567994351,-4.44040638557,53.7956274464893,-1.54802567392696,4.748641540925644
Cononley,CEY,0.0,53.9175717411782,-2.01206789209741,53.7956274464893,-1.54802567392696,0.4797974481504934
Conway Park,CNP,1.0,53.3933615887328,-3.02267129068915,53.7956274464893,-1.54802567392696,1.5285278915847462
Conwy,CNW,1.0,53.280106240192,-3.83052500023981,53.7956274464893,-1.54802567392696,2.3399925830568007
Cooden Beach,COB,2.0,50.8333700419813,0.426858738350685,53.7956274464893,-1.54802567392696,3.5602159165449083
Cookham,COO,2.0,51.557462203665,-0.722079072881563,53.7956274464893,-1.54802567392696,2.3857014570069763
Cooksbridge,CBR,2.0,50.9037547738731,-0.0092027514388362,53.7956274464893,-1.54802567392696,3.2758057850549114
Coombe Junction Halt,COE,2.0,50.4459252926848,-4.48185232237372,53.7956274464893,-1.54802567392696,4.452846653809095
Copplestone,COP,1.0,50.8144709700958,-3.75157247453534,53.7956274464893,-1.54802567392696,3.7071434338604083
Corbridge,CRB,1.0,54.9662625268169,-2.01840032187859,53.7956274464893,-1.54802567392696,1.2616016806937225
Corby,COR,1.0,52.4888508478421,-0.6883354035657,53.7956274464893,-1.54802567392696,1.5642034521524857
Corkerhill,CKH,1.0,55.8375061471062,-4.33429351905428,53.7956274464893,-1.54802567392696,3.45435335957736
Corkickle,CKL,1.0,54.5416834476749,-3.58216474823985,53.7956274464893,-1.54802567392696,2.166638255582032
Corpach,CPA,2.0,56.8428332781627,-5.12195790866533,53.7956274464893,-1.54802567392696,4.696642949925658
Corrour,CRR,2.0,56.7602193492772,-4.69060138585505,53.7956274464893,-1.54802567392696,4.320253147128757
Coryton,COY,2.0,51.5204395971461,-3.23181845626842,53.7956274464893,-1.54802567392696,2.8304836836950886
Coseley,CSY,1.0,52.5450842204875,-2.08577774384501,53.7956274464893,-1.54802567392696,1.361262520162854
Cosford,COS,1.0,52.6448359469502,-2.30027497544232,53.7956274464893,-1.54802567392696,1.3748454775143966
Cosham,CSA,2.0,50.8419241447189,-1.06732879438891,53.7956274464893,-1.54802567392696,2.992562895727834
Cottingham,CGM,1.0,53.7816479755855,-0.406433983012819,53.7956274464893,-1.54802567392696,1.1416772811836793
Cottingley,COT,0.0,53.7678175756796,-1.58770821538294,53.7956274464893,-1.54802567392696,0.04845712549107354
Coulsdon South,CDS,1.0,51.3158366640872,-0.137887293899879,53.7956274464893,-1.54802567392696,2.852692162731866
Coulsdon Town,CDN,2.0,51.3220411523246,-0.134464231082376,53.7956274464893,-1.54802567392696,2.8489972108403867
Coventry,COV,1.0,52.4008144382941,-1.51345977599177,53.7956274464893,-1.54802567392696,1.3952412440616173
Coventry Arena,CAA,2.0,52.4477337100526,-1.49412470531811,53.7956274464893,-1.54802567392696,1.3489710297638895
Cowden (Kent),CWN,2.0,51.1556353416943,0.110032723034128,53.7956274464893,-1.54802567392696,3.1174855189901205
Cowdenbeath,COW,1.0,56.1120953327991,-3.34318635187069,53.7956274464893,-1.54802567392696,2.930635652540246
Cradley Heath,CRA,2.0,52.4696552938033,-2.09048839521938,53.7956274464893,-1.54802567392696,1.43264369390673
Craigendoran,CGD,1.0,55.9948018624344,-4.71124492675969,53.7956274464893,-1.54802567392696,3.852573705101453
Cramlington,CRM,1.0,55.0877690033603,-1.59859511992401,53.7956274464893,-1.54802567392696,1.2931307249700106
Cranbrook (Devon),CBK,1.0,50.7500952464281,-3.42041599201744,53.7956274464893,-1.54802567392696,3.575068095140085
Craven Arms,CRV,1.0,52.4425417003323,-2.83742232035607,53.7956274464893,-1.54802567392696,1.8690598567932164
Crawley,CRW,1.0,51.1122123903253,-0.186672935434113,53.7956274464893,-1.54802567392696,3.008986148563935
Crayford,CRY,2.0,51.4482779041524,0.178936075571555,53.7956274464893,-1.54802567392696,2.914180289230614
Crediton,CDI,1.0,50.7833069483759,-3.64677829535681,53.7956274464893,-1.54802567392696,3.6713536126765027
Cressing (Essex),CES,2.0,51.8523340604127,0.577961040362359,53.7956274464893,-1.54802567392696,2.8803139922070544
Cressington,CSG,2.0,53.3587520488864,-2.91200333610422,53.7956274464893,-1.54802567392696,1.432234329971612
Creswell,CWD,1.0,53.264112781138,-1.21639486472377,53.7956274464893,-1.54802567392696,0.6264876958857709
Crewe,CRE,1.0,53.0896271575516,-2.4329691730368,53.7956274464893,-1.54802567392696,1.1320606894495038
Crewkerne,CKN,1.0,50.8735384311373,-2.77849644743115,53.7956274464893,-1.54802567392696,3.1705934047254973
Crews Hill,CWH,1.0,51.684484296328,-0.106887096068869,53.7956274464893,-1.54802567392696,2.5561310218890982
Crianlarich,CNR,2.0,56.3904817962502,-4.61843468589525,53.7956274464893,-1.54802567392696,4.020034900003874
Criccieth,CCC,1.0,52.9184156772103,-4.23751289496718,53.7956274464893,-1.54802567392696,2.828929479555869
Cricklewood,CRI,2.0,51.5584516063089,-0.21267663535896,53.7956274464893,-1.54802567392696,2.6054006975302966
Croftfoot,CFF,1.0,55.8182615046635,-4.2283256121718,53.7956274464893,-1.54802567392696,3.3578350603091747
Crofton Park,CFT,2.0,51.4551875557246,-0.0365030454664447,53.7956274464893,-1.54802567392696,2.7861011357506142
Cromer,CMR,2.0,52.930080690008,1.29282430287158,53.7956274464893,-1.54802567392696,2.969781099396312
Cromford,CMF,1.0,53.1129329746475,-1.5491620139343,53.7956274464893,-1.54802567392696,0.682695417556003
Crookston,CKT,1.0,55.842318324364,-4.3646760010174,53.7956274464893,-1.54802567392696,3.4817327029331535
Cross Gates,CRG,0.0,53.8049143949973,-1.45158048553366,53.7956274464893,-1.54802567392696,0.09689128844643022
Crossflatts,CFL,0.0,53.85846717734,-1.84488619236594,53.7956274464893,-1.54802567392696,0.30343862506485403
Crosshill,COI,1.0,55.833290292641,-4.25681226287329,53.7956274464893,-1.54802567392696,3.3896304605432372
Crosskeys,CKY,2.0,51.6209052713811,-3.12617046220163,53.7956274464893,-1.54802567392696,2.686997862236933
Crossmyloof,CMY,1.0,55.8339508036377,-4.28431839013047,53.7956274464893,-1.54802567392696,3.4120462976116115
Croston,CSO,1.0,53.6675629248262,-2.7777501372441,53.7956274464893,-1.54802567392696,1.236374853104602
Crouch Hill,CRH,2.0,51.5713003694514,-0.117148819750171,53.7956274464893,-1.54802567392696,2.6448137018442006
Crowborough,COH,2.0,51.0463795309772,0.188012411090755,53.7956274464893,-1.54802567392696,3.2514907863285734
Crowhurst,CWU,2.0,50.8885767869689,0.501336510177375,53.7956274464893,-1.54802567392696,3.556800373742514
Crowle,CWE,1.0,53.5897328427991,-0.81735865187716,53.7956274464893,-1.54802567392696,0.7591224439705799
Crowthorne,CRN,1.0,51.366727169526,-0.819273411974494,53.7956274464893,-1.54802567392696,2.535869952251735
Croy,CRO,1.0,55.9556821274184,-4.0359768431357,53.7956274464893,-1.54802567392696,3.2948045837304
Crystal Palace,CYP,2.0,51.4181074460731,-0.072609878955063,53.7956274464893,-1.54802567392696,2.7981159948135796
Cuddington,CUD,1.0,53.2399218257185,-2.59930662534034,53.7956274464893,-1.54802567392696,1.1891174776954896
Cuffley,CUF,1.0,51.7087202077633,-0.10978341309134,53.7956274464893,-1.54802567392696,2.534506386636366
Culham,CUM,1.0,51.6537935596445,-1.23651383491957,53.7956274464893,-1.54802567392696,2.1643687358392683
Culrain,CUA,2.0,57.9195183107936,-4.40427167605383,53.7956274464893,-1.54802567392696,5.016434698604
Cumbernauld,CUB,1.0,55.9420305501203,-3.98033519205288,53.7956274464893,-1.54802567392696,3.2439444932431787
Cupar,CUP,0.0,56.3169904139478,-3.00875666756718,53.7956274464893,-1.54802567392696,2.9139331237096506
Curriehill,CUH,1.0,55.9005690535793,-3.3187519699346,53.7956274464893,-1.54802567392696,2.7506818763047756
Cuxton,CUX,2.0,51.3739241251142,0.46170858180193,53.7956274464893,-1.54802567392696,3.147011082822769
Cwmbach,CMH,2.0,51.7019311514616,-3.41372372042933,53.7956274464893,-1.54802567392696,2.8043525770729096
Cwmbran,CWM,1.0,51.656589162343,-3.01620383997003,53.7956274464893,-1.54802567392696,2.594423232298292
Cynghordy,CYN,2.0,52.0515022362178,-3.7482113284355,53.7956274464893,-1.54802567392696,2.8076306137755678
Dagenham Dock,DDK,2.0,51.5260877297843,0.146102888033722,53.7956274464893,-1.54802567392696,2.8321161893807196
Daisy Hill,DSY,0.0,53.5394553429484,-2.51586138257427,53.7956274464893,-1.54802567392696,1.0011643748982528
Dalgety Bay,DAG,1.0,56.0420983541516,-3.36772120470528,53.7956274464893,-1.54802567392696,2.89100732681667
Dalmally,DAL,2.0,56.4011953995722,-4.98355341151622,53.7956274464893,-1.54802567392696,4.311825042122861
Dalmarnock,DAK,1.0,55.8420903351636,-4.2177095618254,53.7956274464893,-1.54802567392696,3.363810698601466
Dalmeny,DAM,1.0,55.9863224095627,-3.38162023146767,53.7956274464893,-1.54802567392696,2.8567837549730815
Dalmuir,DMR,1.0,55.9119346513924,-4.42668195442919,53.7956274464893,-1.54802567392696,3.5728725371610603
Dalreoch,DLR,1.0,55.9474206110829,-4.57786407515961,53.7956274464893,-1.54802567392696,3.7161989398814153
Dalry,DLY,1.0,55.7062259599313,-4.71108082709015,53.7956274464893,-1.54802567392696,3.6953084555310136
Dalston (Cumbria),DLS,1.0,54.8461793005894,-2.98885243258072,53.7956274464893,-1.54802567392696,1.7831547735981468
Dalston Junction,DLJ,2.0,51.5461140533343,-0.075137571913028,53.7956274464893,-1.54802567392696,2.6888119806036865
Dalston Kingsland,DLK,2.0,51.548146614991,-0.0757008270787684,53.7956274464893,-1.54802567392696,2.68680303383014
Dalton (Cumbria),DLT,1.0,54.1542402484565,-3.17900332996882,53.7956274464893,-1.54802567392696,1.669937500699523
Dalwhinnie,DLW,1.0,56.9351747606959,-4.24619941232607,53.7956274464893,-1.54802567392696,4.139673762596338
Danby,DNY,1.0,54.4661531404483,-0.910955849347219,53.7956274464893,-1.54802567392696,0.9249122486210574
Danescourt,DCT,2.0,51.5005094348701,-3.2339173943314,53.7956274464893,-1.54802567392696,2.8477706333528903
Danzey,DZY,2.0,52.3248139247282,-1.82087736085094,53.7956274464893,-1.54802567392696,1.495907904535756
Darlington,DAR,0.0,54.5204487638895,-1.5473239913848,53.7956274464893,-1.54802567392696,0.7248216570413373
Darnall,DAN,0.0,53.3845848539264,-1.4125672166063,53.7956274464893,-1.54802567392696,0.432787484292838
Darsham,DSM,2.0,52.2729949292624,1.52346982245693,53.7956274464893,-1.54802567392696,3.428191121688409
Dartford,DFD,2.0,51.4473686091583,0.219247795125754,53.7956274464893,-1.54802567392696,2.938975175383544
Darton,DRT,0.0,53.5883685698073,-1.53165757467506,53.7956274464893,-1.54802567392696,0.20790420062279535
Darwen,DWN,1.0,53.6980382551398,-2.46494001713562,53.7956274464893,-1.54802567392696,0.9220930338366176
Datchet,DAT,2.0,51.4830761133821,-0.579421910690656,53.7956274464893,-1.54802567392696,2.5072069955253844
Davenport,DVN,1.0,53.3909022414929,-2.15295802817964,53.7956274464893,-1.54802567392696,0.7278362760821038
Dawlish,DWL,1.0,50.5808243984253,-3.46462586729764,53.7956274464893,-1.54802567392696,3.7427683523122433
Dawlish Warren,DWW,1.0,50.5987145190544,-3.44356213176095,53.7956274464893,-1.54802567392696,3.716626256240762
Deal,DEA,2.0,51.2230404404227,1.39884675211659,53.7956274464893,-1.54802567392696,3.9118104503105084
Dean (Wilts),DEN,2.0,51.0424618999667,-1.63486720856804,53.7956274464893,-1.54802567392696,2.7545348025933305
Deansgate,DGT,1.0,53.4741857640751,-2.25105124318295,53.7956274464893,-1.54802567392696,0.7730263295780927
Deganwy,DGY,1.0,53.2947519812566,-3.83338710286836,53.7956274464893,-1.54802567392696,2.3396053283759524
Deighton,DHN,0.0,53.6684837829464,-1.75189659292689,53.7956274464893,-1.54802567392696,0.24026831416769256
Delamere,DLM,1.0,53.2287779256449,-2.66656070710605,53.7956274464893,-1.54802567392696,1.2539692977622994
Denby Dale,DBD,1.0,53.5726320929315,-1.66321052492305,53.7956274464893,-1.54802567392696,0.2509870068496759
Denham,DNM,2.0,51.578836362709,-0.497436854492594,53.7956274464893,-1.54802567392696,2.453140757610198
Denham Golf Club,DGC,2.0,51.580596815156,-0.51778668246761,53.7956274464893,-1.54802567392696,2.4428984991742846
Denmark Hill,DMK,2.0,51.4682011118168,-0.0893608845630425,53.7956274464893,-1.54802567392696,2.7467464955938556
Dent,DNT,0.0,54.2824108456213,-2.36359889232972,53.7956274464893,-1.54802567392696,0.9497987956648193
Denton,DTN,1.0,53.4568674739172,-2.13165979003999,53.7956274464893,-1.54802567392696,0.6748237551450651
Deptford,DEP,2.0,51.4788463642079,-0.026270214115525,53.7956274464893,-1.54802567392696,2.771861155015326
Derby,DBY,0.0,52.9165485818253,-1.46335478012848,53.7956274464893,-1.54802567392696,0.8831471058411348
Derby Road (Ipswich),DBR,2.0,52.050551175491,1.18264326424955,53.7956274464893,-1.54802567392696,3.240654878496528
Devonport (Devon),DPT,1.0,50.3785384996853,-4.17071080992923,53.7956274464893,-1.54802567392696,4.307548513131027
Devonport Dockyard,DOC,1.0,50.3821742019037,-4.1758986568326,53.7956274464893,-1.54802567392696,4.3078276970251865
Dewsbury,DEW,0.0,53.6921323675954,-1.63310655566078,53.7956274464893,-1.54802567392696,0.13397756450935674
Didcot Parkway,DID,2.0,51.6109546860743,-1.24289356096081,53.7956274464893,-1.54802567392696,2.2058786631323297
Digby & Sowton,DIG,1.0,50.713993328666,-3.47356109719659,53.7956274464893,-1.54802567392696,3.633752262111265
Dilton Marsh,DMH,1.0,51.2489890910928,-2.20791557793657,53.7956274464893,-1.54802567392696,2.630745445418538
Dinas (Rhondda),DMG,2.0,51.6178378851192,-3.43754173872447,53.7956274464893,-1.54802567392696,2.883234005893457
Dinas Powys,DNS,2.0,51.4316678020878,-3.21835212130232,53.7956274464893,-1.54802567392696,2.894528569760617
Dingle Road,DGL,2.0,51.4400570944876,-3.18059109298652,53.7956274464893,-1.54802567392696,2.866004454068159
Dingwall,DIN,2.0,57.59424066943,-4.42219986587001,53.7956274464893,-1.54802567392696,4.763437803008604
Dinsdale,DND,1.0,54.5147295901116,-1.46706513570219,53.7956274464893,-1.54802567392696,0.7236452872173168
Dinting,DTG,1.0,53.4493321635491,-1.97029878612479,53.7956274464893,-1.54802567392696,0.5461089673974163
Disley,DSL,1.0,53.3581843467523,-2.04248177088045,53.7956274464893,-1.54802567392696,0.6601842904235077
Diss,DIS,2.0,52.3736543722193,1.12369734579394,53.7956274464893,-1.54802567392696,3.026567580288839
Dodworth,DOD,1.0,53.5443255754093,-1.53169088048623,53.7956274464893,-1.54802567392696,0.2518321978720314
Dolau,DOL,2.0,52.29535399865,-3.26362091602153,53.7956274464893,-1.54802567392696,2.2790540697818344
Doleham,DLH,2.0,50.9185854757412,0.609974730800684,53.7956274464893,-1.54802567392696,3.5964338236996323
Dolgarrog,DLG,2.0,53.1863525124092,-3.82263691779208,53.7956274464893,-1.54802567392696,2.354797710211205
Dolwyddelan,DWD,2.0,53.0520169904365,-3.88513298649778,53.7956274464893,-1.54802567392696,2.452555218710285
Doncaster,DON,0.0,53.5221497040669,-1.13984532561563,53.7956274464893,-1.54802567392696,0.4913260346735267
Dorchester South,DCH,1.0,50.7092941817416,-2.43724302167314,53.7956274464893,-1.54802567392696,3.21187803514096
Dorchester West,DCW,1.0,50.7109558301461,-2.44254130185048,53.7956274464893,-1.54802567392696,3.211752977623401
Dore & Totley,DOR,1.0,53.3276351284421,-1.51529775653157,53.7956274464893,-1.54802567392696,0.4691352963999113
Dorking (Main),DKG,2.0,51.2409286574082,-0.324250782074152,53.7956274464893,-1.54802567392696,2.832686161377888
Dorking Deepdene,DPD,2.0,51.2388030074627,-0.324643185528021,53.7956274464893,-1.54802567392696,2.8344339690535856
Dorking West,DKT,1.0,51.2362248191187,-0.339978560509645,53.7956274464893,-1.54802567392696,2.8301801421866086
Dormans,DMS,2.0,51.1557900843982,-0.00430826569700688,53.7956274464893,-1.54802567392696,3.0580720617350243
Dorridge,DDG,2.0,52.3720695979365,-1.7529004491151,53.7956274464893,-1.54802567392696,1.4382248161134816
Dove Holes,DVH,1.0,53.3000293384446,-1.88975176117671,53.7956274464893,-1.54802567392696,0.60199186323779
Dover Priory,DVP,2.0,51.1256965964877,1.30529347028767,53.7956274464893,-1.54802567392696,3.907679731315243
Dovercourt,DVC,2.0,51.9387345600673,1.28061089295205,53.7956274464893,-1.54802567392696,3.3836719727434694
Dovey Junction,DVY,1.0,52.5643635350253,-3.92390297461625,53.7956274464893,-1.54802567392696,2.6759678188655878
Downham Market,DOW,2.0,52.6041065863828,0.365681057551921,53.7956274464893,-1.54802567392696,2.254328151396002
Drayton Green,DRG,2.0,51.516615460614,-0.33019425245541,53.7956274464893,-1.54802567392696,2.5839909061153246
Drayton Park,DYP,1.0,51.5527683445258,-0.105509008966857,53.7956274464893,-1.54802567392696,2.6666966981545013
Drem,DRM,1.0,56.0051254677484,-2.78604825861367,53.7956274464893,-1.54802567392696,2.532702395889072
Driffield,DRF,1.0,54.0015272627459,-0.434665009990613,53.7956274464893,-1.54802567392696,1.1322396841372795
Drigg,DRI,1.0,54.3769633209494,-3.44341362306065,53.7956274464893,-1.54802567392696,1.9825354666828803
Droitwich Spa,DTW,1.0,52.2682048110456,-2.15836341611519,53.7956274464893,-1.54802567392696,1.6448501654573893
Dronfield,DRO,0.0,53.301369608262,-1.46877868224617,53.7956274464893,-1.54802567392696,0.5005705707885527
Drumchapel,DMC,2.0,55.9048173082117,-4.36287986166729,53.7956274464893,-1.54802567392696,3.5173976134397753
Drumfrochar,DFR,1.0,55.941253590074,-4.7747672712099,53.7956274464893,-1.54802567392696,3.8749932753064495
Drumgelloch,DRU,1.0,55.8673580650901,-3.94888294626481,53.7956274464893,-1.54802567392696,3.171148592889587
Drumry,DMY,2.0,55.9045972303031,-4.38547328830428,53.7956274464893,-1.54802567392696,3.5353730373717513
Dublin Ferryport,DFP,2.0,nan,nan,53.7956274464893,-1.54802567392696,nan
Dublin Port - Stena,DPS,2.0,nan,nan,53.7956274464893,-1.54802567392696,nan
Duddeston,DUD,1.0,52.4883642047734,-1.87139067866748,53.7956274464893,-1.54802567392696,1.3466633244550783
Dudley Port,DDP,1.0,52.5246530129006,-2.04947980373852,53.7956274464893,-1.54802567392696,1.3663206999607305
Duffield,DFI,1.0,52.9884014400862,-1.48597186949023,53.7956274464893,-1.54802567392696,0.8096076210477314
Duirinish,DRN,2.0,57.319983293958,-5.69131781581449,53.7956274464893,-1.54802567392696,5.4394810333903925
Duke Street,DST,2.0,55.8584414373244,-4.2130485563449,53.7956274464893,-1.54802567392696,3.370096218892907
Dullingham,DUL,2.0,52.2016485756332,0.366663821056869,53.7956274464893,-1.54802567392696,2.4913459219741267
Dumbarton Central,DBC,1.0,55.9466604798905,-4.566921701259,53.7956274464893,-1.54802567392696,3.7068418275702473
Dumbarton East,DBE,1.0,55.9422524714118,-4.55413782204535,53.7956274464893,-1.54802567392696,3.693874557248592
Dumbreck,DUM,1.0,55.8446540909046,-4.30124003607443,53.7956274464893,-1.54802567392696,3.432011001360415
Dumfries,DMF,1.0,55.072560279693,-3.60430398071058,53.7956274464893,-1.54802567392696,2.4205036532636233
Dumpton Park,DMP,2.0,51.3456955683759,1.42581850787212,53.7956274464893,-1.54802567392696,3.853039764266192
Dunbar,DUN,0.0,55.9982961094783,-2.51334649990357,53.7956274464893,-1.54802567392696,2.4049102968672043
Dunblane,DBL,1.0,56.1858943626205,-3.96548684337943,53.7956274464893,-1.54802567392696,3.3996315147618392
Duncraig,DCG,2.0,57.3370088020812,-5.63713233286221,53.7956274464893,-1.54802567392696,5.4094523913130566
Dundee,DEE,0.0,56.4564890772048,-2.97120503713119,53.7956274464893,-1.54802567392696,3.0175526702386417
Dunfermline Queen Margaret,DFL,1.0,56.0805782860466,-3.42146840922136,53.7956274464893,-1.54802567392696,2.954790689984824
Dunfermline Town,DFE,1.0,56.068193893139,-3.45252931740364,53.7956274464893,-1.54802567392696,2.965078815555159
Dunkeld & Birnam,DKD,1.0,56.5570605801315,-3.57839962708896,53.7956274464893,-1.54802567392696,3.427525542028194
Dunlop,DNL,1.0,55.7118854515322,-4.53238991249355,53.7956274464893,-1.54802567392696,3.5466145336540498
Dunrobin Castle,DNO,-999.0,57.9855381206844,-3.94892170714185,53.7956274464893,-1.54802567392696,4.829042681530271
Dunston,DOT,1.0,54.9500563207881,-1.64204458851339,53.7956274464893,-1.54802567392696,1.1582510876812544
Dunton Green,DNG,2.0,51.2964882631909,0.170937116397448,53.7956274464893,-1.54802567392696,3.033237500100718
Durham,DHM,0.0,54.7793912284615,-1.58175210120156,53.7956274464893,-1.54802567392696,0.984341734671936
Durrington-on-Sea,DUR,2.0,50.8175268119417,-0.411468707281776,53.7956274464893,-1.54802567392696,3.187608057450371
Dyce,DYC,1.0,57.2056516865783,-2.19232258891137,53.7956274464893,-1.54802567392696,3.4703578825033303
Dyffryn Ardudwy,DYF,1.0,52.7888563835265,-4.10464455585967,53.7956274464893,-1.54802567392696,2.747705966924791
Eaglescliffe,EAG,1.0,54.5294320938467,-1.34943715428009,53.7956274464893,-1.54802567392696,0.7602017236358104
Ealing Broadway,EAL,2.0,51.5148402459065,-0.301751768794788,53.7956274464893,-1.54802567392696,2.599074623968254
Earlestown,ERL,1.0,53.4511393445328,-2.63766364961555,53.7956274464893,-1.54802567392696,1.1427961193722704
Earley,EAR,1.0,51.4410997593376,-0.917988243278776,53.7956274464893,-1.54802567392696,2.4373649282743255
Earlsfield,EAD,2.0,51.4423355716453,-0.187714934858848,53.7956274464893,-1.54802567392696,2.718166285389988
Earlswood (Surrey),ELD,1.0,51.2273270225923,-0.170823068766138,53.7956274464893,-1.54802567392696,2.9142501750967202
Earlswood (West Midlands),EWD,2.0,52.3665825052423,-1.8611697000963,53.7956274464893,-1.54802567392696,1.4629520242404346
East Croydon,ECR,1.0,51.375452247008,-0.0927797007945513,53.7956274464893,-1.54802567392696,2.824002273105041
East Didsbury,EDY,1.0,53.4093102676041,-2.22199660364924,53.7956274464893,-1.54802567392696,0.7768383208960111
East Dulwich,EDW,2.0,51.4614929058056,-0.0805717011574361,53.7956274464893,-1.54802567392696,2.7571008716058545
East Farleigh,EFL,2.0,51.2552351625774,0.48472893141574,53.7956274464893,-1.54802567392696,3.2535648513132593
East Garforth,EGF,0.0,53.791978068865,-1.37053696173991,53.7956274464893,-1.54802567392696,0.17752622598045123
East Grinstead,EGR,2.0,51.1262718897162,-0.0179000957224751,53.7956274464893,-1.54802567392696,3.0768073344866793
East Kilbride,EKL,1.0,55.7660084213155,-4.18022795719083,53.7956274464893,-1.54802567392696,3.2879917953025024
East Malling,EML,2.0,51.2858073765709,0.439280267235468,53.7956274464893,-1.54802567392696,3.2013406077992816
East Midlands Parkway,EMD,0.0,52.8625009507858,-1.26323198480542,53.7956274464893,-1.54802567392696,0.9756190354576656
East Tilbury,ETL,2.0,51.4848289691417,0.412927781783206,53.7956274464893,-1.54802567392696,3.030697619092609
East Worthing,EWR,2.0,50.8216440311297,-0.354893751833792,53.7956274464893,-1.54802567392696,3.204394036062306
Eastbourne,EBN,2.0,50.769375796356,0.281246925814933,53.7956274464893,-1.54802567392696,3.5361613784018635
Eastbrook,EBK,2.0,51.4376389302109,-3.20613799233607,53.7956274464893,-1.54802567392696,2.8826110218620946
Easterhouse,EST,1.0,55.8597611434519,-4.10717729312099,53.7956274464893,-1.54802567392696,3.28784198661674
Eastham Rake,ERA,1.0,53.307541541813,-2.98113292052366,53.7956274464893,-1.54802567392696,1.5139432719199402
Eastleigh,ESL,2.0,50.9692506626551,-1.35008459359062,53.7956274464893,-1.54802567392696,2.8332995597856696
Eastrington,EGN,1.0,53.7551607566439,-0.787630411364113,53.7956274464893,-1.54802567392696,0.7614712787197324
Ebbsfleet International,EBD,2.0,51.4429709652907,0.32092083234529,53.7956274464893,-1.54802567392696,3.004655314979246
Ebbw Vale Parkway,EBV,2.0,51.7571470124788,-3.19610327359543,53.7956274464893,-1.54802567392696,2.621366486085574
Ebbw Vale Town,EBB,2.0,51.7766914366017,-3.20257748551815,53.7956274464893,-1.54802567392696,2.6102958279207624
Eccles (Manchester),ECC,1.0,53.4853606544673,-2.33451459617625,53.7956274464893,-1.54802567392696,0.8454763787667117
Eccles Road,ECS,1.0,52.470880756208,0.9699171605498,53.7956274464893,-1.54802567392696,2.8451695751051687
Eccleston Park,ECL,1.0,53.4307889509427,-2.78004194630839,53.7956274464893,-1.54802567392696,1.2849012503867139
Edale,EDL,1.0,53.3649724276593,-1.81662641323107,53.7956274464893,-1.54802567392696,0.5075530537768224
Eden Park,EDN,2.0,51.3900893651293,-0.0263551602667185,53.7956274464893,-1.54802567392696,2.846417856361952
Edenbridge,EBR,2.0,51.2084338014699,0.0606462610283875,53.7956274464893,-1.54802567392696,3.046538421084122
Edenbridge Town,EBT,2.0,51.2000809020151,0.0671730164326339,53.7956274464893,-1.54802567392696,3.0570784539935
Edge Hill,EDG,1.0,53.4026192646978,-2.94648344109004,53.7956274464893,-1.54802567392696,1.4526319415095512
Edinburgh,EDB,0.0,55.9523963079519,-3.18822824323027,53.7956274464893,-1.54802567392696,2.709597089997675
Edinburgh Gateway,EGY,1.0,55.9409436079933,-3.32025199802754,53.7956274464893,-1.54802567392696,2.782654771373069
Edinburgh Park,EDP,1.0,55.9275544602882,-3.30766474611863,53.7956274464893,-1.54802567392696,2.7643159111340836
Edmonton Green,EDR,2.0,51.6249271577681,-0.061112495341183,53.7956274464893,-1.54802567392696,2.6311310389462474
Effingham Junction,EFF,2.0,51.2914943131304,-0.419965418267021,53.7956274464893,-1.54802567392696,2.7464891570849908
Eggesford,EGG,1.0,50.8877413451847,-3.8747459315936,53.7956274464893,-1.54802567392696,3.7241681937845894
Egham,EGH,1.0,51.4296459643391,-0.546512233572854,53.7956274464893,-1.54802567392696,2.5692211942702716
Egton,EGT,1.0,54.4374810712663,-0.761464966771902,53.7956274464893,-1.54802567392696,1.0152112202293855
Elephant & Castle,EPH,2.0,51.4940272342536,-0.098725576447673,53.7956274464893,-1.54802567392696,2.7198960107910155
Elephant & Castle (Underground),ZEL,-999.0,nan,nan,53.7956274464893,-1.54802567392696,nan
Elgin,ELG,1.0,57.6429130327793,-3.3112465068439,53.7956274464893,-1.54802567392696,4.2320862571676265
Ellesmere Port,ELP,1.0,53.2821939982944,-2.89642303912049,53.7956274464893,-1.54802567392696,1.4428407258551286
Elmers End,ELE,2.0,51.3984907228231,-0.0495703490218307,53.7956274464893,-1.54802567392696,2.826947617605544
Elmstead Woods,ESD,2.0,51.4171158227735,0.0442740591944571,53.7956274464893,-1.54802567392696,2.8622955794693326
Elmswell,ESW,1.0,52.2380370806758,0.912589403049404,53.7956274464893,-1.54802567392696,2.912166599753252
Elsecar,ELR,0.0,53.4986597288227,-1.42742391502071,53.7956274464893,-1.54802567392696,0.32052240106954893
Elsenham (Essex),ESM,2.0,51.9205434621908,0.228070270071964,53.7956274464893,-1.54802567392696,2.5827227397578243
Elstree & Borehamwood,ELS,2.0,51.653068116385,-0.280081540392811,53.7956274464893,-1.54802567392696,2.48962704210503
Eltham,ELW,2.0,51.4556417308034,0.0524723310748576,53.7956274464893,-1.54802567392696,2.8349827184003864
Elton & Orston,ELO,1.0,52.9521360042829,-0.855512437952713,53.7956274464893,-1.54802567392696,1.0913534693558065
Ely,ELY,1.0,52.3912277010784,0.266827583237292,53.7956274464893,-1.54802567392696,2.294783429857792
Emerson Park,EMP,2.0,51.5686403621106,0.220113229215512,53.7956274464893,-1.54802567392696,2.843551767560317
Emsworth,EMS,2.0,50.8516141341351,-0.938429764103964,53.7956274464893,-1.54802567392696,3.006463297063791
Energlyn & Churchill Park,ECP,2.0,51.5832164323409,-3.22879606589368,53.7956274464893,-1.54802567392696,2.778444098058681
Enfield Chase,ENC,1.0,51.6532525338014,-0.0906963712828411,53.7956274464893,-1.54802567392696,2.591057498948967
Enfield Lock,ENL,2.0,51.6709204354558,-0.0285324658222715,53.7956274464893,-1.54802567392696,2.612133130644606
Enfield Town,ENF,2.0,51.6520239893496,-0.0793276428368423,53.7956274464893,-1.54802567392696,2.598482189276896
Entwistle,ENT,1.0,53.6559786935683,-2.41454505509583,53.7956274464893,-1.54802567392696,0.8777001835101047
Epsom (Surrey),EPS,2.0,51.3343914612577,-0.268777680483958,53.7956274464893,-1.54802567392696,2.7738345307041823
Epsom Downs,EPD,2.0,51.3236861855796,-0.2389548499911,53.7956274464893,-1.54802567392696,2.797170001889045
Erdington,ERD,1.0,52.5282854859969,-1.83950909009634,53.7956274464893,-1.54802567392696,1.300430016081788
Eridge,ERI,2.0,51.0889635853662,0.201431713057724,53.7956274464893,-1.54802567392696,3.2228295651469177
Erith,ERH,2.0,51.481668933412,0.175054448859463,53.7956274464893,-1.54802567392696,2.8850319079317934
Esher,ESH,2.0,51.3798899750361,-0.353337838372063,53.7956274464893,-1.54802567392696,2.6950077097117804
Eskbank,EKB,1.0,55.8818057426337,-3.08307353739981,53.7956274464893,-1.54802567392696,2.5900795019567506
Essex Road,EXR,1.0,51.5407037990573,-0.0962760595924929,53.7956274464893,-1.54802567392696,2.6818384735976015
Etchingham,ETC,2.0,51.0105437070136,0.442356266553348,53.7956274464893,-1.54802567392696,3.42320196670925
Euxton Balshaw Lane,EBA,1.0,53.6604819715387,-2.67202385840804,53.7956274464893,-1.54802567392696,1.1320937320365247
Evesham,EVE,2.0,52.0983985539654,-1.94731370609441,53.7956274464893,-1.54802567392696,1.7435644084030977
Ewell East,EWE,2.0,51.3452982319215,-0.241529638967969,53.7956274464893,-1.54802567392696,2.7768768696375474
Ewell West,EWW,2.0,51.3500435722978,-0.256986619886036,53.7956274464893,-1.54802567392696,2.7654407107664385
Exeter Central,EXC,1.0,50.726488241429,-3.53327709081269,53.7956274464893,-1.54802567392696,3.655248096680298
Exeter St David's,EXD,0.0,50.729278976491,-3.54328686333265,53.7956274464893,-1.54802567392696,3.658354842468059
Exeter St Thomas,EXT,1.0,50.7171518711947,-3.53883698274128,53.7956274464893,-1.54802567392696,3.66610713632163
Exhibition Centre (Glasgow),EXG,1.0,55.8615560763509,-4.28358973053668,53.7956274464893,-1.54802567392696,3.4280273936327967
Exmouth,EXM,1.0,50.6216387262065,-3.41497227480739,53.7956274464893,-1.54802567392696,3.682348979526715
Exton,EXN,1.0,50.6683075102992,-3.44409684947275,53.7956274464893,-1.54802567392696,3.657214224792914
Eynsford,EYN,2.0,51.3627183040984,0.204393120925889,53.7956274464893,-1.54802567392696,2.998335959775476
Fairbourne,FRB,1.0,52.6960464630273,-4.04941426648684,53.7956274464893,-1.54802567392696,2.7324024648978695
Fairfield,FRF,1.0,53.471295546374,-2.14577519882972,53.7956274464893,-1.54802567392696,0.680070346327403
Fairlie,FRL,1.0,55.7519484298977,-4.85326868616408,53.7956274464893,-1.54802567392696,3.840810221823819
Fairwater,FRW,2.0,51.4939101690858,-3.23383998994953,53.7956274464893,-1.54802567392696,2.8530461498553463
Falconwood,FCN,2.0,51.4591526356848,0.0793044770026859,53.7956274464893,-1.54802567392696,2.8473352387185833
Falkirk Grahamston,FKG,1.0,56.0026177290346,-3.78504688532692,53.7956274464893,-1.54802567392696,3.142462411470139
Falkirk High,FKK,1.0,55.9918195759738,-3.79224489222847,53.7956274464893,-1.54802567392696,3.1400286255707144
Falls of Cruachan,FOC,-999.0,56.393889401057,-5.11247911920548,53.7956274464893,-1.54802567392696,4.410928875884522
Falmer,FMR,2.0,50.8621274713423,-0.0873855066246158,53.7956274464893,-1.54802567392696,3.2770248400835285
Falmouth Docks,FAL,2.0,50.1507142799667,-5.05602948101336,53.7956274464893,-1.54802567392696,5.0588024968388
Falmouth Town,FMT,2.0,50.1483473407862,-5.06493628645553,53.7956274464893,-1.54802567392696,5.0666865332259965
Fareham,FRM,2.0,50.8530338308312,-1.19203724188042,53.7956274464893,-1.54802567392696,2.9640487429633726
Farnborough (Main),FNB,2.0,51.296604884603,-0.755725724931643,53.7956274464893,-1.54802567392696,2.6216126666604938
Farnborough North,FNN,2.0,51.3020444491095,-0.743026929007782,53.7956274464893,-1.54802567392696,2.6203013460560336
Farncombe,FNC,2.0,51.1971531239671,-0.604548878459314,53.7956274464893,-1.54802567392696,2.764456052895959
Farnham,FNH,2.0,51.2119042298562,-0.792427196436538,53.7956274464893,-1.54802567392696,2.6919425549878877
Farningham Road,FNR,2.0,51.4016634815392,0.235452055986937,53.7956274464893,-1.54802567392696,2.9852732334877508
Farnworth,FNW,1.0,53.5500060922431,-2.38784997242115,53.7956274464893,-1.54802567392696,0.8750055439841475
Farringdon,ZFD,1.0,51.5201655608346,-0.105204669877814,53.7956274464893,-1.54802567392696,2.69433836828128
Fauldhouse,FLD,1.0,55.8224777300448,-3.71931936502271,53.7956274464893,-1.54802567392696,2.970292639613348
Faversham,FAV,2.0,51.3117105445912,0.891044848807162,53.7956274464893,-1.54802567392696,3.4812222265183745
Faygate,FGT,1.0,51.095889351236,-0.263018670595782,53.7956274464893,-1.54802567392696,2.9899546454038504
Fazakerley,FAZ,2.0,53.4690878780859,-2.93672370069026,53.7956274464893,-1.54802567392696,1.4265729211187768
Fearn,FRN,2.0,57.7781470089061,-3.99393654949616,53.7956274464893,-1.54802567392696,4.673643340720409
Featherstone,FEA,0.0,53.6790669195959,-1.35844424440448,53.7956274464893,-1.54802567392696,0.22254769117978837
Felixstowe,FLX,2.0,51.9670684291527,1.35043499148186,53.7956274464893,-1.54802567392696,3.4270544653981116
Feltham,FEL,2.0,51.4478973442697,-0.409838240699482,53.7956274464893,-1.54802567392696,2.6090816901785594
Feniton,FNT,1.0,50.7866805768598,-3.28541829669429,53.7956274464893,-1.54802567392696,3.4745207424765066
Fenny Stratford,FEN,2.0,52.0000683454646,-0.715997362186537,53.7956274464893,-1.54802567392696,1.978965284387336
Fernhill,FER,2.0,51.6864988102667,-3.39588328122109,53.7956274464893,-1.54802567392696,2.8041043741217964
Ferriby,FRY,1.0,53.7171537976793,-0.507830473428837,53.7956274464893,-1.54802567392696,1.0431510766408119
Ferryside,FYS,1.0,51.7683725332786,-4.36945917743674,53.7956274464893,-1.54802567392696,3.4742264603598287
Ffairfach,FFA,2.0,51.8724792728464,-3.9928602757854,53.7956274464893,-1.54802567392696,3.1105811560270116
Filey,FIL,1.0,54.2098572113142,-0.293849397915568,53.7956274464893,-1.54802567392696,1.3208120340823282
Filton Abbey Wood,FIT,1.0,51.5049414768014,-2.56243092363725,53.7956274464893,-1.54802567392696,2.505246539238162
Finchley Road & Frognal,FNY,2.0,51.5502644624917,-0.183140600658463,53.7956274464893,-1.54802567392696,2.627654123574441
Finsbury Park,FPK,1.0,51.5643002449157,-0.106284978884699,53.7956274464893,-1.54802567392696,2.656583767213677
Finstock,FIN,1.0,51.852782857678,-1.4693431033147,53.7956274464893,-1.54802567392696,1.9444372047436997
Fishbourne (Sussex),FSB,2.0,50.839050994238,-0.815084252072113,53.7956274464893,-1.54802567392696,3.0460708208899994
Fishersgate,FSG,2.0,50.8342331969519,-0.219423238635621,53.7956274464893,-1.54802567392696,3.2457726864731686
Fishguard & Goodwick,FGW,1.0,52.0041205147366,-4.99483911549407,53.7956274464893,-1.54802567392696,3.884587492577002
Fishguard Harbour,FGH,1.0,52.0115490590944,-4.98564336378428,53.7956274464893,-1.54802567392696,3.8730028497264963
Fiskerton,FSK,1.0,53.060273739149,-0.912187610219373,53.7956274464893,-1.54802567392696,0.9721291674250596
Fitzwilliam,FZW,0.0,53.6325012276325,-1.37427316573517,53.7956274464893,-1.54802567392696,0.23832771005792275
Five Ways,FWY,1.0,52.471096381369,-1.91295451976274,53.7956274464893,-1.54802567392696,1.3738834029828524
Fleet,FLE,2.0,51.290634463196,-0.830805697283605,53.7956274464893,-1.54802567392696,2.6056466263184954
Flimby,FLM,1.0,54.6896909968798,-3.5207407041013,53.7956274464893,-1.54802567392696,2.165861081051278
Flint,FLN,1.0,53.249527518706,-3.13299365746619,53.7956274464893,-1.54802567392696,1.6764094487831227
Flitwick,FLT,1.0,52.0036411879386,-0.495257873996204,53.7956274464893,-1.54802567392696,2.078349054274951
Flixton,FLI,1.0,53.443809978016,-2.38424675876937,53.7956274464893,-1.54802567392696,0.9072162001739048
Flowery Field,FLF,1.0,53.4618562073799,-2.08105317397333,53.7956274464893,-1.54802567392696,0.6289050451875102
Folkestone Central,FKC,2.0,51.0828838914415,1.16948226479176,53.7956274464893,-1.54802567392696,3.8397691327022057
Folkestone West,FKW,2.0,51.084582896074,1.15390330754187,53.7956274464893,-1.54802567392696,3.827555718110149
Ford,FOD,2.0,50.8293930308604,-0.578410029818067,53.7956274464893,-1.54802567392696,3.12068920364749
Forest Gate,FOG,2.0,51.5494301979489,0.0243528171904902,53.7956274464893,-1.54802567392696,2.7418563417289463
Forest Hill,FOH,2.0,51.4392784872536,-0.0531571058976325,53.7956274464893,-1.54802567392696,2.7905218962361142
Formby,FBY,1.0,53.5534804308434,-3.07090821445518,53.7956274464893,-1.54802567392696,1.542013751375746
Forres,FOR,1.0,57.6098000095499,-3.62595038813861,53.7956274464893,-1.54802567392696,4.343464453490537
Forsinard,FRS,2.0,58.3569037821129,-3.89688108603807,53.7956274464893,-1.54802567392696,5.130532482786123
Fort Matilda,FTM,1.0,55.9590370104671,-4.79526871008857,53.7956274464893,-1.54802567392696,3.9019134123415258
Fort William,FTW,2.0,56.8204504611118,-5.10614472047831,53.7956274464893,-1.54802567392696,4.670092656385035
Four Oaks,FOK,1.0,52.5797812436274,-1.82803190041241,53.7956274464893,-1.54802567392696,1.2476720225621454
Foxfield,FOX,1.0,54.2586714739313,-3.216062079698,53.7956274464893,-1.54802567392696,1.7311138675220876
Foxton,FXN,1.0,52.1192118267723,0.0563080918097999,53.7956274464893,-1.54802567392696,2.320400000412476
Frant,FRT,2.0,51.1040264976395,0.294543047861973,53.7956274464893,-1.54802567392696,3.261866821678044
Fratton,FTN,2.0,50.7963389126627,-1.07398277385311,53.7956274464893,-1.54802567392696,3.036519122326442
Freshfield,FRE,1.0,53.5660564604323,-3.07182995042112,53.7956274464893,-1.54802567392696,1.5410004252760845
Freshford,FFD,1.0,51.3420317090826,-2.30100872969826,53.7956274464893,-1.54802567392696,2.566537653123176
Frimley,FML,2.0,51.3118614892824,-0.746991364293745,53.7956274464893,-1.54802567392696,2.609741231499679
Frinton-on-Sea,FRI,2.0,51.8376787265319,1.24317054105804,53.7956274464893,-1.54802567392696,3.4094485625287576
Frizinghall,FZH,0.0,53.820371215731,-1.76900125757173,53.7956274464893,-1.54802567392696,0.222356611512753
Frodsham,FRD,1.0,53.2958177869804,-2.72356723663145,53.7956274464893,-1.54802567392696,1.2773831302252723
Frome,FRO,1.0,51.2272725800456,-2.30999705913937,53.7956274464893,-1.54802567392696,2.6790011406991874
Fulwell,FLW,2.0,51.4339339825483,-0.349467607470903,53.7956274464893,-1.54802567392696,2.6484216915530143
Furness Vale,FNV,1.0,53.3487533587757,-1.98884482439185,53.7956274464893,-1.54802567392696,0.6277085101274681
