Name,Code,Changes,lat,lon,terminal lat,terminal lon,linear distance
Abbey Wood,ABW,2.0,51.4910605627019,0.121394025366647,53.40631168010053,-2.984510383414912,3.64894903214411
Aber,ABE,2.0,51.5749691125956,-3.22982905106563,53.40631168010053,-2.984510383414912,1.8477004216737782
Abercynon,ACY,2.0,51.6447124034837,-3.32698855170195,53.40631168010053,-2.984510383414912,1.7945816523998497
Aberdare,ABA,2.0,51.7150618291708,-3.44308409477462,53.40631168010053,-2.984510383414912,1.7523172963307896
Aberdeen,ABD,1.0,57.1437058328662,-2.09868538622245,53.40631168010053,-2.984510383414912,3.84093751300097
Aberdour,AUR,2.0,56.0545955695197,-3.30056061487314,53.40631168010053,-2.984510383414912,2.6670761720959377
Aberdovey,AVY,1.0,52.5439615025967,-4.05706796158074,53.40631168010053,-2.984510383414912,1.3762367482093443
Abererch,ABH,1.0,52.8985884658899,-4.37417647351973,53.40631168010053,-2.984510383414912,1.4795116438323777
Abergavenny,AGV,1.0,51.8166930409601,-3.00964730040687,53.40631168010053,-2.984510383414912,1.5898173739453667
Abergele & Pensarn,AGL,1.0,53.2945771647609,-3.58262268840784,53.40631168010053,-2.984510383414912,0.6084594738371114
Aberystwyth,AYW,1.0,52.4140498933205,-4.08189442746786,53.40631168010053,-2.984510383414912,1.4794712547548516
Accrington,ACR,1.0,53.7529733751372,-2.36954810226505,53.40631168010053,-2.984510383414912,0.7059411718002718
Achanalt,AAT,2.0,57.6096018732679,-4.91385256332031,53.40631168010053,-2.984510383414912,4.6249334800772095
Achnasheen,ACN,2.0,57.5792959197415,-5.07233352893289,53.40631168010053,-2.984510383414912,4.666133619095417
Achnashellach,ACH,2.0,57.4820809030767,-5.33305678830677,53.40631168010053,-2.984510383414912,4.703994576409527
Acklington,ACK,1.0,55.3070993237817,-1.65183479633575,53.40631168010053,-2.984510383414912,2.3214258305549635
Acle,ACL,1.0,52.6346777628319,1.54391497575916,53.40631168010053,-2.984510383414912,4.59369732741396
Acocks Green,ACG,1.0,52.4493240670217,-1.81897562150643,53.40631168010053,-2.984510383414912,1.5080771110269457
Acton Bridge (Cheshire),ACB,0.0,53.2665097605329,-2.60312690733168,53.40631168010053,-2.984510383414912,0.40619937536156253
Acton Central,ACC,2.0,51.5087150057177,-0.262970693276422,53.40631168010053,-2.984510383414912,3.3177780853498766
Acton Main Line,AML,2.0,51.5171788796431,-0.266756440210259,53.40631168010053,-2.984510383414912,3.309835227555683
Adderley Park,ADD,0.0,52.4830872932844,-1.85594463679675,53.40631168010053,-2.984510383414912,1.4580822723193057
Addiewell,ADW,2.0,55.8434130805542,-3.60652712168835,53.40631168010053,-2.984510383414912,2.515227238001682
Addlestone,ASN,2.0,51.3730447500684,-0.48445679693337,53.40631168010053,-2.984510383414912,3.2224900843976996
Adisham,ADM,2.0,51.2411978022143,1.19908904695378,53.40631168010053,-2.984510383414912,4.710649880642455
Adlington (Cheshire),ADC,1.0,53.3195557900317,-2.13356274381038,53.40631168010053,-2.984510383414912,0.8553586790406463
Adlington (Lancs),ADL,1.0,53.6132468473224,-2.6030711963325,53.40631168010053,-2.984510383414912,0.4339562384333647
Adwick,AWK,1.0,53.5723210050351,-1.180356329611,53.40631168010053,-2.984510383414912,1.8117756334111355
Aigburth,AIG,0.0,53.3645680055959,-2.92715540113816,53.40631168010053,-2.984510383414912,0.07093749610125141
Ainsdale,ANS,0.0,53.6020355257546,-3.04265252059266,53.40631168010053,-2.984510383414912,0.20417720703647393
Aintree,AIN,0.0,53.4739127558616,-2.95628079876913,53.40631168010053,-2.984510383414912,0.07325854826112155
Airbles,AIR,2.0,55.7828378389089,-3.99419330717581,53.40631168010053,-2.984510383414912,2.582118546859305
Airdrie,ADR,2.0,55.8639835131324,-3.98291292517007,53.40631168010053,-2.984510383414912,2.652726611292881
Albany Park,AYP,2.0,51.4354507399114,0.12573706592842,53.40631168010053,-2.984510383414912,3.6821097270056837
Albrighton,ALB,1.0,52.6379442676754,-2.26890024505565,53.40631168010053,-2.984510383414912,1.0499935002653347
Alderley Edge,ALD,0.0,53.3037821045932,-2.23679936267512,53.40631168010053,-2.984510383414912,0.7547079464199737
Aldermaston,AMT,2.0,51.4019618556841,-1.1374239270022,53.40631168010053,-2.984510383414912,2.725646087829717
Aldershot,AHT,2.0,51.2464179114788,-0.759859888333875,53.40631168010053,-2.984510383414912,3.1006791057759067
Aldrington,AGT,2.0,50.8363824121951,-0.183821512855377,53.40631168010053,-2.984510383414912,3.8011043910570232
Alexandra Palace,AAP,2.0,51.5979224924556,-0.120235220128854,53.40631168010053,-2.984510383414912,3.3873800591324934
Alexandra Parade,AXP,2.0,55.8631759802332,-4.21064896878422,53.40631168010053,-2.984510383414912,2.7458328462959742
Alexandria,ALX,2.0,55.9850887680667,-4.57748537031666,53.40631168010053,-2.984510383414912,3.031115401682015
Alfreton,ALF,0.0,53.1004322999438,-1.36969621564025,53.40631168010053,-2.984510383414912,1.643528822884114
Allens West,ALW,1.0,54.5246233650745,-1.36111683481751,53.40631168010053,-2.984510383414912,1.9713010014650172
Alloa,ALO,2.0,56.1177936041036,-3.79005640302655,53.40631168010053,-2.984510383414912,2.8286107215217093
Alness,ASS,2.0,57.6943991747966,-4.24971726526612,53.40631168010053,-2.984510383414912,4.4708436358312165
Alnmouth,ALM,1.0,55.3927786386397,-1.63663783937358,53.40631168010053,-2.984510383414912,2.4005856311217695
Alresford (Essex),ALR,2.0,51.8539974379073,0.997436403040026,53.40631168010053,-2.984510383414912,4.273824951571454
Alsager,ASG,1.0,53.0930054110113,-2.29905784069112,53.40631168010053,-2.984510383414912,0.7536617321962988
Althorne (Essex),ALN,2.0,51.6478675266105,0.75248341471277,53.40631168010053,-2.984510383414912,4.1300421896377815
Althorpe,ALP,1.0,53.5855003548442,-0.733182290833722,53.40631168010053,-2.984510383414912,2.2584478655930167
Altnabreac,ABC,2.0,58.3881525009701,-3.7062809681672,53.40631168010053,-2.984510383414912,5.033854461691962
Alton,AON,2.0,51.1519686627366,-0.966913302570746,53.40631168010053,-2.984510383414912,3.025352941487721
Altrincham,ALT,1.0,53.3877187203289,-2.34688910433965,53.40631168010053,-2.984510383414912,0.6378923057089205
Alvechurch,ALV,1.0,52.3460721156993,-1.96766073187852,53.40631168010053,-2.984510383414912,1.4690442974095064
Ambergate,AMB,2.0,53.0605170840145,-1.48069758186533,53.40631168010053,-2.984510383414912,1.5430576284723467
Amberley,AMY,2.0,50.8966791881016,-0.541992407726222,53.40631168010053,-2.984510383414912,3.502020746149161
Amersham,AMR,2.0,51.6742050968552,-0.607596139216709,53.40631168010053,-2.984510383414912,2.941073705297801
Ammanford,AMF,1.0,51.7959795450084,-3.99673575596767,53.40631168010053,-2.984510383414912,1.9020435826105417
Ancaster,ANC,1.0,52.9876865844111,-0.535623734022494,53.40631168010053,-2.984510383414912,2.484409948521662
Anderston,AND,2.0,55.8599021238713,-4.27098003165416,53.40631168010053,-2.984510383414912,2.7703989282419355
Andover,ADV,2.0,51.2115476149434,-1.49223307188506,53.40631168010053,-2.984510383414912,2.654031061651656
Anerley,ANZ,2.0,51.4121513855632,-0.0658859220340606,53.40631168010053,-2.984510383414912,3.534832956007947
Angel Road,AGR,2.0,51.61240330726,-0.0487914234374522,53.40631168010053,-2.984510383414912,3.4404291973703636
Angmering,ANG,2.0,50.8165743892467,-0.489394019247872,53.40631168010053,-2.984510383414912,3.5961569635338586
Annan,ANN,2.0,54.9838388790739,-3.2625810423293,53.40631168010053,-2.984510383414912,1.6018474817690516
Anniesland,ANL,2.0,55.8893555064876,-4.32195784208586,53.40631168010053,-2.984510383414912,2.8203319571398517
Ansdell & Fairhaven,AFV,1.0,53.7414654744213,-2.99303444657805,53.40631168010053,-2.984510383414912,0.3352621742762169
Apperley Bridge,APY,1.0,53.8417501065548,-1.70582867126391,53.40631168010053,-2.984510383414912,1.350789970433001
Appleby,APP,1.0,54.5803488158896,-2.48669258391647,53.40631168010053,-2.984510383414912,1.2752198860232993
Appledore (Kent),APD,2.0,51.0332342031393,0.816341504124954,53.40631168010053,-2.984510383414912,4.480844985343281
Appleford,APF,2.0,51.6396415502262,-1.24214153179695,53.40631168010053,-2.984510383414912,2.481324759655348
Appley Bridge,APB,2.0,53.5786734960166,-2.71925251339081,53.40631168010053,-2.984510383414912,0.3163389530165523
Apsley,APS,1.0,51.7325208234117,-0.462934812195194,53.40631168010053,-2.984510383414912,3.0265358404134557
Arbroath,ARB,1.0,56.5595762979872,-2.58893177406225,53.40631168010053,-2.984510383414912,3.1779805201721034
Ardgay,ARD,2.0,57.8814576101148,-4.36209023833324,53.40631168010053,-2.984510383414912,4.682377318371524
Ardlui,AUI,2.0,56.3019723653141,-4.72165858161935,53.40631168010053,-2.984510383414912,3.3767639340671196
Ardrossan Harbour,ADS,2.0,55.6398782290401,-4.82111163323781,53.40631168010053,-2.984510383414912,2.89169909904071
Ardrossan South Beach,ASB,2.0,55.641422142645,-4.80121264089138,53.40631168010053,-2.984510383414912,2.880299614987275
Ardrossan Town,ADN,2.0,55.6397124556587,-4.81267645169651,53.40631168010053,-2.984510383414912,2.886220746491863
Ardwick,ADK,1.0,53.471345820655,-2.21388417456067,53.40631168010053,-2.984510383414912,0.7733654978150505
Argyle Street,AGS,2.0,55.8573090626122,-4.25069486323156,53.40631168010053,-2.984510383414912,2.7587336417290502
Arisaig,ARG,2.0,56.9125537431151,-5.83907949880085,53.40631168010053,-2.984510383414912,4.521315985304269
Arlesey,ARL,2.0,52.0260300130868,-0.266319838272065,53.40631168010053,-2.984510383414912,3.048563156635952
Armadale (West Lothian),ARM,2.0,55.8857140292087,-3.69541334262219,53.40631168010053,-2.984510383414912,2.5793059194622066
Armathwaite,AWT,1.0,54.8094679848183,-2.77207147292765,53.40631168010053,-2.984510383414912,1.4191468937915617
Arnside,ARN,1.0,54.2027315043991,-2.82824189170434,53.40631168010053,-2.984510383414912,0.8116060485464965
Arram,ARR,1.0,53.8843427696163,-0.426570132093475,53.40631168010053,-2.984510383414912,2.60222444302447
Arrochar & Tarbet,ART,2.0,56.2039766194239,-4.72277124702392,53.40631168010053,-2.984510383414912,3.293703074454946
Arundel,ARU,2.0,50.84821399905,-0.546174298416944,53.40631168010053,-2.984510383414912,3.53402696780872
Ascot (Berks),ACT,2.0,51.406243053303,-0.675833255037063,53.40631168010053,-2.984510383414912,3.054548181809339
Ascott-under-Wychwood,AUW,2.0,51.8673416456497,-1.56405280921503,53.40631168010053,-2.984510383414912,2.09430859403274
Ash,ASH,2.0,51.2495967734882,-0.712805474371656,53.40631168010053,-2.984510383414912,3.132421169347292
Ash Vale,AHV,2.0,51.2722464128127,-0.72164859629209,53.40631168010053,-2.984510383414912,3.110430522076481
Ashburys,ABY,1.0,53.471639721401,-2.19443661452133,53.40631168010053,-2.984510383414912,0.7927700254637944
Ashchurch for Tewkesbury,ASC,1.0,51.9989057939667,-2.10876020926952,53.40631168010053,-2.984510383414912,1.657627731379949
Ashfield,ASF,2.0,55.8889269328418,-4.24921509407071,53.40631168010053,-2.984510383414912,2.7861903198271576
Ashford (Surrey),AFS,2.0,51.4365062586203,-0.468070995385795,53.40631168010053,-2.984510383414912,3.1957159748821966
Ashford International,AFK,2.0,51.1437026741936,0.876197214386404,53.40631168010053,-2.984510383414912,4.474870128767086
Ashford International (Eurostar),ASI,-999.0,nan,nan,53.40631168010053,-2.984510383414912,nan
Ashley,ASY,1.0,53.3557258053839,-2.34146074338483,53.40631168010053,-2.984510383414912,0.645036254999411
Ashtead,AHD,2.0,51.317872587997,-0.307571763628547,53.40631168010053,-2.984510383414912,3.3952287427403083
Ashton-under-Lyne,AHN,1.0,53.4912746360398,-2.09431253377749,53.40631168010053,-2.984510383414912,0.8942432081827784
Ashurst (Kent),AHS,2.0,51.1286608253579,0.152652111896866,53.40631168010053,-2.984510383414912,3.8767875796979983
Ashurst New Forest,ANF,2.0,50.8898511647037,-1.52663085660955,53.40631168010053,-2.984510383414912,2.908261721411865
Ashwell & Morden,AWM,2.0,52.0307706434447,-0.109788918120069,53.40631168010053,-2.984510383414912,3.1868694115936305
Askam,ASK,2.0,54.1889331625586,-3.20451175494515,53.40631168010053,-2.984510383414912,0.8129557111430187
Aslockton,ALK,0.0,52.9515495737311,-0.898097621841918,53.40631168010053,-2.984510383414912,2.1353985073152524
Aspatria,ASP,2.0,54.7589599137074,-3.33187421074512,53.40631168010053,-2.984510383414912,1.3965381743501604
Aspley Guise,APG,2.0,52.0212361960308,-0.632334507265971,53.40631168010053,-2.984510383414912,2.7296822981636595
Aston,AST,0.0,52.5042320347358,-1.8719337575538,53.40631168010053,-2.984510383414912,1.4323318173502442
Atherstone,ATH,1.0,52.5789720633612,-1.55281147568713,53.40631168010053,-2.984510383414912,1.6535575598736518
Atherton,ATN,1.0,53.5291462480773,-2.47897234425216,53.40631168010053,-2.984510383414912,0.5202470952639343
Attadale,ATT,2.0,57.3950433711996,-5.4555786528295,53.40631168010053,-2.984510383414912,4.692137987707272
Attenborough,ATB,1.0,52.9062133028873,-1.23141560765685,53.40631168010053,-2.984510383414912,1.8230303562150338
Attleborough,ATL,0.0,52.5145445883409,1.02234755537498,53.40631168010053,-2.984510383414912,4.1048945281930225
Auchinleck,AUK,2.0,55.4702784722357,-4.29535018687193,53.40631168010053,-2.984510383414912,2.445048038252822
Audley End,AUD,1.0,52.0044405435161,0.207160027997398,53.40631168010053,-2.984510383414912,3.485972274513002
Aughton Park,AUG,0.0,53.5542504500956,-2.89522128047861,53.40631168010053,-2.984510383414912,0.17279590148734542
Aviemore,AVM,2.0,57.1885162452285,-3.82886797624022,53.40631168010053,-2.984510383414912,3.8753078738387483
Avoncliff,AVF,2.0,51.3396528744674,-2.28132558221387,53.40631168010053,-2.984510383414912,2.183013395181329
Avonmouth,AVN,2.0,51.5003648679963,-2.69946651797304,53.40631168010053,-2.984510383414912,1.9271438077622294
Axminster,AXM,2.0,50.7792744117621,-3.00472359764506,53.40631168010053,-2.984510383414912,2.627115030459941
Aylesbury,AYS,2.0,51.8138902206829,-0.815095998270687,53.40631168010053,-2.984510383414912,2.6911270647972882
Aylesbury Vale Parkway,AVP,2.0,51.8311587338339,-0.860182437861177,53.40631168010053,-2.984510383414912,2.6445937352253157
Aylesford,AYL,2.0,51.3013153585378,0.466170568242092,53.40631168010053,-2.984510383414912,4.042054990214893
Aylesham,AYH,2.0,51.2272505439136,1.2094526827124,53.40631168010053,-2.984510383414912,4.7262705842218
Ayr,AYR,2.0,55.4581477383334,-4.62587677242484,53.40631168010053,-2.984510383414912,2.6275682356194108
Bache,BAC,0.0,53.2087886904783,-2.89167051075084,53.40631168010053,-2.984510383414912,0.21825346133700663
Baglan,BAJ,1.0,51.615545271975,-3.81113654529303,53.40631168010053,-2.984510383414912,1.972347621483635
Bagshot,BAG,2.0,51.3643669407293,-0.688661997063008,53.40631168010053,-2.984510383414912,3.0725328528366447
Baildon,BLD,2.0,53.8502255005868,-1.75363638811678,53.40631168010053,-2.984510383414912,1.308476317064969
Baillieston,BIO,2.0,55.844505909339,-4.11369931815988,53.40631168010053,-2.984510383414912,2.6869794844475923
Balcombe,BAB,2.0,51.0555201604538,-0.136933757536862,53.40631168010053,-2.984510383414912,3.6925483624578277
Baldock,BDK,2.0,51.9928698318742,-0.187563753520231,53.40631168010053,-2.984510383414912,3.1338041273820334
Balham,BAL,1.0,51.4432234163815,-0.152424495700288,53.40631168010053,-2.984510383414912,3.4459289032920752
Balloch,BHC,2.0,56.0029392993731,-4.58348654319574,53.40631168010053,-2.984510383414912,3.049458927861886
Balmossie,BSI,2.0,56.4745685552318,-2.83895622541232,53.40631168010053,-2.984510383414912,3.0717073859178288
Bamber Bridge,BMB,1.0,53.7268691714662,-2.6607753764786,53.40631168010053,-2.984510383414912,0.4555891350621797
Bamford,BAM,0.0,53.3390008432273,-1.68908191470249,53.40631168010053,-2.984510383414912,1.2971760352053936
Banavie,BNV,2.0,56.8433146084024,-5.09542698683765,53.40631168010053,-2.984510383414912,4.0334796436527895
Banbury,BAN,1.0,52.0603086671337,-1.32813289497966,53.40631168010053,-2.984510383414912,2.1343173370215744
Bangor (Gwynedd),BNG,1.0,53.2222875881889,-4.1358808597691,53.40631168010053,-2.984510383414912,1.1659840651672602
Bank Hall,BAH,0.0,53.4374965462522,-2.98751189569183,53.40631168010053,-2.984510383414912,0.03132897944150129
Banstead,BAD,2.0,51.3293474848423,-0.213158931277083,53.40631168010053,-2.984510383414912,3.4632599006789992
Barassie,BSS,2.0,55.5610644543682,-4.65113966824502,53.40631168010053,-2.984510383414912,2.7240801550739175
Barbican,ZBB,1.0,nan,nan,53.40631168010053,-2.984510383414912,nan
Bardon Mill,BLL,1.0,54.9744957852522,-2.34650475516335,53.40631168010053,-2.984510383414912,1.693001054143506
Bare Lane,BAR,2.0,54.0745443408907,-2.83533086719705,53.40631168010053,-2.984510383414912,0.6846819823872262
Bargeddie,BGI,2.0,55.8512961462984,-4.07380825280165,53.40631168010053,-2.984510383414912,2.676661892768563
Bargoed,BGD,2.0,51.6923127611933,-3.22968013064506,53.40631168010053,-2.984510383414912,1.7314446277522266
Barking,BKG,2.0,51.5394928787692,0.0809024258638578,53.40631168010053,-2.984510383414912,3.5891180153757123
Barlaston,BRT,2.0,nan,nan,53.40631168010053,-2.984510383414912,nan
Barming,BMG,2.0,51.2848926922128,0.478958086821072,53.40631168010053,-2.984510383414912,4.061530791030567
Barmouth,BRM,1.0,52.7228954666472,-4.05659664341287,53.40631168010053,-2.984510383414912,1.271387694484768
Barnehurst,BNH,2.0,51.4649571594916,0.159646215915891,53.40631168010053,-2.984510383414912,3.6952101558374424
Barnes,BNS,2.0,51.4670847781107,-0.242164290131055,53.40631168010053,-2.984510383414912,3.35872938367328
Barnes Bridge,BNI,2.0,51.4720072305495,-0.252630234454485,53.40631168010053,-2.984510383414912,3.347342655277011
Barnetby,BTB,1.0,53.575120046432,-0.409679706265516,53.40631168010053,-2.984510383414912,2.5803583628118627
Barnham,BAA,2.0,50.8309058508596,-0.639679954401345,53.40631168010053,-2.984510383414912,3.4829506063273565
Barnhill,BNL,2.0,55.8774948886876,-4.22300584363342,53.40631168010053,-2.984510383414912,2.764166683719443
Barnsley,BNY,1.0,53.5543015489003,-1.47716484028851,53.40631168010053,-2.984510383414912,1.514592878515676
Barnstaple,BNP,2.0,51.0739744679973,-4.06311775092404,53.40631168010053,-2.984510383414912,2.569667434553822
Barnt Green,BTG,1.0,52.3610898378667,-1.99246673824797,53.40631168010053,-2.984510383414912,1.4410549237967278
Barrhead,BRR,2.0,55.8037583421428,-4.39728431394783,53.40631168010053,-2.984510383414912,2.7827469658830024
Barrhill,BRL,2.0,55.0970106102442,-4.78178229089313,53.40631168010053,-2.984510383414912,2.467518831093156
Barrow Haven,BAV,2.0,53.697419946542,-0.392955239385703,53.40631168010053,-2.984510383414912,2.607853923695653
Barrow-in-Furness,BIF,1.0,54.1190037011827,-3.22612090695349,53.40631168010053,-2.984510383414912,0.7525327647343822
Barrow-Upon-Soar,BWS,1.0,52.7493358553102,-1.14484305880024,53.40631168010053,-2.984510383414912,1.953456705333865
Barry,BRY,2.0,51.3967862682376,-3.28498495899336,53.40631168010053,-2.984510383414912,2.0318654855801683
Barry Docks,BYD,2.0,51.4024452836283,-3.26070393235989,53.40631168010053,-2.984510383414912,2.0228107700398983
Barry Island,BYI,2.0,51.3924170726249,-3.27336400852697,53.40631168010053,-2.984510383414912,2.034504339331767
Barry Links,BYL,2.0,56.4931516826701,-2.74544214683501,53.40631168010053,-2.984510383414912,3.096083788143523
Barton-on-Humber,BAU,2.0,53.6889177395454,-0.44343673614012,53.40631168010053,-2.984510383414912,2.556740398575767
Basildon,BSO,2.0,51.5681040297501,0.456788850539816,53.40631168010053,-2.984510383414912,3.901480204156396
Basingstoke,BSK,1.0,51.2683569850094,-1.08726383162934,53.40631168010053,-2.984510383414912,2.858390238670091
Bat & Ball,BBL,2.0,51.2897587469008,0.194227480292899,53.40631168010053,-2.984510383414912,3.818922717888655
Bath Spa,BTH,1.0,51.3776883852266,-2.3570184714201,53.40631168010053,-2.984510383414912,2.123454396054709
Bathgate,BHG,2.0,55.8971563834902,-3.63609679157923,53.40631168010053,-2.984510383414912,2.5746596248259395
Batley,BTL,1.0,53.7099423400798,-1.6229526318262,53.40631168010053,-2.984510383414912,1.3950021822888865
Battersby,BTT,2.0,54.457680170473,-1.09297186288525,53.40631168010053,-2.984510383414912,2.164091882798793
Battersea Park,BAK,2.0,51.4769582891996,-0.147533519657093,53.40631168010053,-2.984510383414912,3.4308661052973286
Battle,BAT,2.0,50.9129130238687,0.494702777064857,53.40631168010053,-2.984510383414912,4.280415993213081
Battlesbridge,BLB,2.0,51.624822766888,0.56528550890708,53.40631168010053,-2.984510383414912,3.9717444058052425
Bayford,BAY,2.0,51.7577148923117,-0.0956100209046352,53.40631168010053,-2.984510383414912,3.3262015382745025
Beaconsfield,BCF,2.0,51.6112905925788,-0.643822282354315,53.40631168010053,-2.984510383414912,2.9497324439844315
Bearley,BER,2.0,52.2444115945748,-1.75025547969474,53.40631168010053,-2.984510383414912,1.6951097239122868
Bearsden,BRN,2.0,55.9171345827093,-4.3320211452141,53.40631168010053,-2.984510383414912,2.8495643353729307
Bearsted,BSD,2.0,51.2758187894535,0.577580355704965,53.40631168010053,-2.984510383414912,4.150601208357786
Beasdale,BSL,2.0,56.8995610683265,-5.76380325043513,53.40631168010053,-2.984510383414912,4.463995982190236
Beaulieu Road,BEU,2.0,50.8550493435382,-1.50474962699015,53.40631168010053,-2.984510383414912,2.9493442332519053
Beauly,BEL,2.0,57.4782879378611,-4.46986686037102,53.40631168010053,-2.984510383414912,4.334428971318046
Bebington,BEB,0.0,53.3576570664328,-3.00363517233964,53.40631168010053,-2.984510383414912,0.05227837968578753
Beccles,BCC,2.0,52.4585181871493,1.5694932615698,53.40631168010053,-2.984510383414912,4.651587009163081
Beckenham Hill,BEC,2.0,51.4245808668055,-0.0159511139458484,53.40631168010053,-2.984510383414912,3.569257787371722
Beckenham Junction,BKJ,2.0,51.4111718661491,-0.0260225635677561,53.40631168010053,-2.984510383414912,3.568365600299125
Bedford,BDM,1.0,52.1361864656103,-0.479442379912954,53.40631168010053,-2.984510383414912,2.808662272800547
Bedford St Johns,BSJ,2.0,52.1294772366621,-0.467501028060375,53.40631168010053,-2.984510383414912,2.822346947292801
Bedhampton,BDH,2.0,50.8539566355958,-0.99582843515536,53.40631168010053,-2.984510383414912,3.235640920210731
Bedminster,BMT,2.0,51.4400904239394,-2.59414932604792,53.40631168010053,-2.984510383414912,2.0045966634933112
Bedworth,BEH,1.0,52.4792974206142,-1.46739223305473,53.40631168010053,-2.984510383414912,1.7779209542168302
Bedwyn,BDW,2.0,51.3796409426581,-1.59878627020561,53.40631168010053,-2.984510383414912,2.4551223179172053
Beeston,BEE,1.0,52.9207551214346,-1.20765801407939,53.40631168010053,-2.984510383414912,1.8420014967628977
Bekesbourne,BKS,2.0,51.2613539349877,1.13670763163281,53.40631168010053,-2.984510383414912,4.645996303902252
Belle Vue,BLV,1.0,53.4623764935822,-2.18050724055323,53.40631168010053,-2.984510383414912,0.8059555304371304
Bellgrove,BLG,2.0,55.8567093051092,-4.22437490020632,53.40631168010053,-2.984510383414912,2.7462178611039803
Bellingham,BGM,2.0,51.4329113825773,-0.0193308081217253,53.40631168010053,-2.984510383414912,3.561825184929862
Bellshill,BLH,2.0,55.8170682424416,-4.02449996284266,53.40631168010053,-2.984510383414912,2.625514335932836
Belmont,BLM,2.0,51.3438134158344,-0.198855124360003,53.40631168010053,-2.984510383414912,3.4660891956787667
Belper,BLP,2.0,53.0237591485711,-1.48251049959613,53.40631168010053,-2.984510383414912,1.549951641300853
Beltring,BEG,2.0,51.2047063375307,0.403495486821792,53.40631168010053,-2.984510383414912,4.0405011893563865
Belvedere,BVD,2.0,51.4921162437256,0.152286098901381,53.40631168010053,-2.984510383414912,3.6747294240679116
Bempton,BEM,1.0,54.1276580609781,-0.18045684367924,53.40631168010053,-2.984510383414912,2.895350903588254
Ben Rhydding,BEY,1.0,53.9257153348267,-1.79743026313235,53.40631168010053,-2.984510383414912,1.2957389276057747
Benfleet,BEF,2.0,51.5439424321207,0.561713345502072,53.40631168010053,-2.984510383414912,4.005511446913468
Bentham,BEN,1.0,54.1155197017626,-2.51067651046258,53.40631168010053,-2.984510383414912,0.8529329147986001
Bentley (Hants),BTY,2.0,51.1812327932647,-0.868126900052275,53.40631168010053,-2.984510383414912,3.0708394782685646
Bentley (South Yorks),BYK,1.0,53.543936635355,-1.15094859528964,53.40631168010053,-2.984510383414912,1.8387195161801977
Bere Alston,BAS,2.0,50.4855988011236,-4.20035543651004,53.40631168010053,-2.984510383414912,3.1636755387614564
Bere Ferrers,BFE,2.0,50.4512820780774,-4.18143518031599,53.40631168010053,-2.984510383414912,3.1882328833179163
Berkhamsted,BKM,1.0,51.7631330812332,-0.562012981628892,53.40631168010053,-2.984510383414912,2.9272050781309495
Berkswell,BKW,1.0,52.3958819317755,-1.64284047482006,53.40631168010053,-2.984510383414912,1.6795971004765111
Bermuda Park,BEP,1.0,52.5014343619449,-1.47217775464212,53.40631168010053,-2.984510383414912,1.76237139699989
Berney Arms,BYA,-999.0,52.5897827472666,1.63037533346209,53.40631168010053,-2.984510383414912,4.686564805696203
Berry Brow,BBW,1.0,53.6210419716152,-1.79343228301033,53.40631168010053,-2.984510383414912,1.2102793641789331
Berrylands,BRS,2.0,51.3990439366779,-0.280713667843256,53.40631168010053,-2.984510383414912,3.3674382656436412
Berwick (Sussex),BRK,2.0,50.8403762860459,0.166017608785235,53.40631168010053,-2.984510383414912,4.063231605028067
Berwick-upon-Tweed,BWK,1.0,55.7743389009866,-2.01097357377303,53.40631168010053,-2.984510383414912,2.56033725094666
Bescar Lane,BES,2.0,53.623855333027,-2.9146110021991,53.40631168010053,-2.984510383414912,0.22849762454552378
Bescot Stadium,BSC,0.0,52.5630947071172,-1.9911057185482,53.40631168010053,-2.984510383414912,1.3030225215651918
Betchworth,BTO,2.0,51.2481879331766,-0.266973015200458,53.40631168010053,-2.984510383414912,3.4702316139818263
Bethnal Green,BET,2.0,51.5239156627757,-0.0595680464428894,53.40631168010053,-2.984510383414912,3.478318910142044
Betws-y-Coed,BYC,2.0,53.0920709395504,-3.80086212197837,53.40631168010053,-2.984510383414912,0.874744193508635
Beverley,BEV,1.0,53.8422725915824,-0.422980126740875,53.40631168010053,-2.984510383414912,2.5983647111590513
Bexhill,BEX,2.0,50.84103990242,0.477016592346932,53.40631168010053,-2.984510383414912,4.308455442184723
Bexley,BXY,2.0,51.4402175270263,0.147902494716889,53.40631168010053,-2.984510383414912,3.698315381067254
Bexleyheath,BXH,2.0,51.4634982236074,0.133734871030645,53.40631168010053,-2.984510383414912,3.6739593892152658
Bicester North,BCS,2.0,51.9034829537461,-1.15038352192815,53.40631168010053,-2.984510383414912,2.3711844139128777
Bicester Village,BIT,2.0,51.8930236127002,-1.14876425178293,53.40631168010053,-2.984510383414912,2.3790764247367124
Bickley,BKL,2.0,51.4001024308637,0.0452405405139698,53.40631168010053,-2.984510383414912,3.6337674956952495
Bidston,BID,0.0,53.4091398593576,-3.07856110228132,53.40631168010053,-2.984510383414912,0.09409323204778457
Biggleswade,BIW,2.0,52.0846785950736,-0.261187193156868,53.40631168010053,-2.984510383414912,3.0270783290220713
Bilbrook,BBK,1.0,52.6237197237583,-2.18608801838282,53.40631168010053,-2.984510383414912,1.1180019870800761
Billericay,BIC,2.0,51.6288812691945,0.418629610467223,53.40631168010053,-2.984510383414912,3.839351596763921
Billingham (Cleveland),BIL,2.0,54.605606575355,-1.27971968622732,53.40631168010053,-2.984510383414912,2.0843751022790458
Billingshurst,BIG,2.0,51.0152034952011,-0.450302232654151,53.40631168010053,-2.984510383414912,3.4841942114749176
Bingham,BIN,0.0,52.9541905628363,-0.95154335353279,53.40631168010053,-2.984510383414912,2.0826349774417956
Bingley,BIY,1.0,53.8486154371384,-1.8373224993653,53.40631168010053,-2.984510383414912,1.2295009779581476
Birchgrove,BCG,2.0,51.5215597229164,-3.20185379786194,53.40631168010053,-2.984510383414912,1.8972422354335507
Birchington-on-sea,BCH,2.0,51.3774886896266,1.3014083545974,53.40631168010053,-2.984510383414912,4.741858512811261
Birchwood,BWD,0.0,53.4127205850305,-2.5253082468513,53.40631168010053,-2.984510383414912,0.4592468576778587
Birkbeck,BIK,2.0,51.4038899816034,-0.0557387405611835,53.40631168010053,-2.984510383414912,3.5478720375171737
Birkdale,BDL,0.0,53.6340528065899,-3.01445011129132,53.40631168010053,-2.984510383414912,0.22970069220609807
Birkenhead Central,BKC,0.0,53.3883166263867,-3.02082115838918,53.40631168010053,-2.984510383414912,0.0405252308740574
Birkenhead Hamilton Square,BKQ,0.0,53.3946967251861,-3.01368016573114,53.40631168010053,-2.984510383414912,0.03139718742244783
Birkenhead North,BKN,0.0,53.4044379353974,-3.05753365912751,53.40631168010053,-2.984510383414912,0.07304731148379552
Birkenhead Park,BKP,0.0,53.3974085855031,-3.03910128885113,53.40631168010053,-2.984510383414912,0.0553121329344374
Birmingham International,BHI,0.0,52.4508081112451,-1.72585685988124,53.40631168010053,-2.984510383414912,1.580251803479175
Birmingham Moor Street,BMO,1.0,52.479080623723,-1.89247273057604,53.40631168010053,-2.984510383414912,1.4325863559062753
Birmingham New Street,BHM,0.0,52.4778198092097,-1.9002055706822,53.40631168010053,-2.984510383414912,1.4275202559773632
Birmingham Snow Hill,BSW,1.0,52.4833566780576,-1.89908868312646,53.40631168010053,-2.984510383414912,1.4247758431602957
Bishop Auckland,BIA,1.0,54.6571963763698,-1.67771509725951,53.40631168010053,-2.984510383414912,1.808984920688571
Bishopbriggs,BBG,2.0,55.9038831792009,-4.22491571705821,53.40631168010053,-2.984510383414912,2.788632063368926
Bishops Stortford,BIS,2.0,51.8666894209812,0.16489410333554,53.40631168010053,-2.984510383414912,3.505593433634251
Bishopstone (Sussex),BIP,2.0,50.7801416620368,0.082756921439231,53.40631168010053,-2.984510383414912,4.037932352479925
Bishopton (Strathclyde),BPT,2.0,55.9022694882255,-4.5004875625329,53.40631168010053,-2.984510383414912,2.920272622127348
Bitterne,BTE,2.0,50.9182213632939,-1.37699961416727,53.40631168010053,-2.984510383414912,2.9622093609051414
Blackburn,BBN,1.0,53.7465184457461,-2.47912240276289,53.40631168010053,-2.984510383414912,0.6092270958998356
Blackheath,BKH,2.0,51.4657945200002,0.00887187089452019,53.40631168010053,-2.984510383414912,3.5673441338141822
Blackhorse Road,BHO,1.0,51.58660384873,-0.0412357433706351,53.40631168010053,-2.984510383414912,3.460376019781521
Blackpool North,BPN,0.0,53.8219180942013,-3.04927516714828,53.40631168010053,-2.984510383414912,0.4206223587182832
Blackpool Pleasure Beach,BPB,1.0,53.7879555202556,-3.05387646984086,53.40631168010053,-2.984510383414912,0.3878964741710881
Blackpool South,BPS,1.0,53.7987040263195,-3.04893832565541,53.40631168010053,-2.984510383414912,0.39764646749666
Blackridge,BKR,2.0,55.8842557507999,-3.75079743413867,53.40631168010053,-2.984510383414912,2.5937237057213887
Blackrod,BLK,1.0,53.5915244932358,-2.56952431744104,53.40631168010053,-2.984510383414912,0.4544416586339245
Blackwater,BAW,2.0,51.3315811457068,-0.776741026218888,53.40631168010053,-2.984510383414912,3.0296455774429187
Blaenau Ffestiniog,BFF,2.0,52.9945530771849,-3.93859577234881,53.40631168010053,-2.984510383414912,1.0391458398377877
Blair Atholl,BLA,2.0,56.7655504660718,-3.85022876626298,53.40631168010053,-2.984510383414912,3.4689989247007293
Blairhill,BAI,2.0,55.8664556230225,-4.0432911996593,53.40631168010053,-2.984510383414912,2.6783063746970415
Blake Street,BKT,1.0,52.6048860712992,-1.84491459685048,53.40631168010053,-2.984510383414912,1.3931839660281733
Blakedown,BKD,1.0,52.4064026596129,-2.17686566095142,53.40631168010053,-2.984510383414912,1.2853435521196888
Blantyre,BLT,2.0,55.7973304780703,-4.08697164977011,53.40631168010053,-2.984510383414912,2.632943549728766
Blaydon,BLO,1.0,54.9657896857216,-1.71258088882198,53.40631168010053,-2.984510383414912,2.0124055975949067
Bleasby,BSB,1.0,53.0413649497003,-0.943687538181265,53.40631168010053,-2.984510383414912,2.073196566092413
Bletchley,BLY,1.0,51.9953339717924,-0.736320506839459,53.40631168010053,-2.984510383414912,2.654282542322655
Bloxwich,BLX,1.0,52.6182018754768,-2.01147807238452,53.40631168010053,-2.984510383414912,1.2521617077890534
Bloxwich North,BWN,1.0,52.6254378492086,-2.01768461058018,53.40631168010053,-2.984510383414912,1.2427855868126696
Blundellsands & Crosby,BLN,0.0,53.4876867000616,-3.03986028592851,53.40631168010053,-2.984510383414912,0.09841496624970077
Blythe Bridge,BYB,1.0,52.9681439666743,-2.06696136521393,53.40631168010053,-2.984510383414912,1.0168024124139157
Bodmin Parkway,BOD,1.0,50.4458686645733,-4.66292953056928,53.40631168010053,-2.984510383414912,3.4031329215471984
Bodorgan,BOR,1.0,53.2043074000119,-4.41800424551237,53.40631168010053,-2.984510383414912,1.447656859150404
Bognor Regis,BOG,2.0,50.7865584395345,-0.676178286011514,53.40631168010053,-2.984510383414912,3.4916334448734694
Bogston,BGS,2.0,55.9370473872407,-4.71140217696609,53.40631168010053,-2.984510383414912,3.0637849934400885
Bolton,BON,1.0,53.5741455351566,-2.42582497565139,53.40631168010053,-2.984510383414912,0.583350313063151
Bolton-Upon-Dearne,BTD,1.0,53.5189470302023,-1.31154616002462,53.40631168010053,-2.984510383414912,1.676751625863661
Bookham,BKA,2.0,51.2887375770933,-0.384020684769355,53.40631168010053,-2.984510383414912,3.3536050385351777
Bootle (Cumbria),BOC,2.0,54.2913058315169,-3.39386227213438,53.40631168010053,-2.984510383414912,0.9750813385761106
Bootle New Strand,BNW,0.0,53.4533917659639,-2.99474773972908,53.40631168010053,-2.984510383414912,0.048180265142541596
Bootle Oriel Road,BOT,0.0,53.4466239167649,-2.9957338918952,53.40631168010053,-2.984510383414912,0.04184547248498063
Bordesley,BBS,1.0,52.4718743800827,-1.87776885469942,53.40631168010053,-2.984510383414912,1.4484646626853241
Borough Green & Wrotham,BRG,2.0,51.2932170234776,0.306244959659036,53.40631168010053,-2.984510383414912,3.9107850562026676
Borth,BRH,1.0,52.4910318901744,-4.05017708151719,53.40631168010053,-2.984510383414912,1.404771371181601
Bosham,BOH,2.0,50.8427472866996,-0.847431235664145,53.40631168010053,-2.984510383414912,3.3375095030372917
Boston,BSN,1.0,52.9780883520384,-0.03100323679323,53.40631168010053,-2.984510383414912,2.9843893318134547
Botley,BOE,2.0,50.9164546156522,-1.25923650546392,53.40631168010053,-2.984510383414912,3.0291844043113834
Bottesford,BTF,0.0,52.9446141670485,-0.794842711685305,53.40631168010053,-2.984510383414912,2.237813465455999
Bourne End,BNE,2.0,51.5771173647136,-0.710473547391366,53.40631168010053,-2.984510383414912,2.918423439981908
Bournemouth,BMH,1.0,50.7272746595869,-1.86450316465566,53.40631168010053,-2.984510383414912,2.90373131115043
Bournville,BRV,1.0,52.4269645832552,-1.92642405915734,53.40631168010053,-2.984510383414912,1.4417584422087761
Bow Brickhill,BWB,2.0,52.0043001848605,-0.696077833880482,53.40631168010053,-2.984510383414912,2.6837585149476175
Bowes Park,BOP,2.0,51.6070103763875,-0.120581954633459,53.40631168010053,-2.984510383414912,3.3822435197256286
Bowling,BWG,2.0,55.9310849001239,-4.49384261915191,53.40631168010053,-2.984510383414912,2.941524028523653
Box Hill & Westhumble,BXW,2.0,51.2540106794359,-0.328489952956063,53.40631168010053,-2.984510383414912,3.4186026567117698
Bracknell,BCE,2.0,51.4130914141393,-0.751703650172948,53.40631168010053,-2.984510383414912,2.9930507741515506
Bradford Forster Square,BDQ,1.0,53.7969256219995,-1.75296173787813,53.40631168010053,-2.984510383414912,1.292010571910824
Bradford Interchange,BDI,1.0,53.7910764525054,-1.74959589964649,53.40631168010053,-2.984510383414912,1.2934673216996249
Bradford-on-Avon,BOA,2.0,51.3449161602034,-2.25232693866303,53.40631168010053,-2.984510383414912,2.1875657901468246
Brading,BDN,2.0,50.6783720718463,-1.13872244962043,53.40631168010053,-2.984510383414912,3.2937194177439517
Braintree,BTR,2.0,51.8753890748181,0.556686982906197,53.40631168010053,-2.984510383414912,3.8579531892707424
Braintree Freeport,BTP,2.0,51.8694135093739,0.568434688069829,53.40631168010053,-2.984510383414912,3.8711076797436896
Bramhall,BML,1.0,53.360614520234,-2.16359288123925,53.40631168010053,-2.984510383414912,0.822188406509235
Bramley (Hants),BMY,2.0,51.3302932744388,-1.06100278415591,53.40631168010053,-2.984510383414912,2.830147329213338
Bramley (W Yorks),BLE,1.0,53.8053497570895,-1.63720635437646,53.40631168010053,-2.984510383414912,1.405154629765103
Brampton (Cumbria),BMP,2.0,54.9323930102284,-2.70294760254176,53.40631168010053,-2.984510383414912,1.551838208621595
Brampton (Suffolk),BRP,2.0,52.3954307722651,1.54381046672808,53.40631168010053,-2.984510383414912,4.639781237479407
Branchton,BCN,2.0,55.9406016000061,-4.80354935893801,53.40631168010053,-2.984510383414912,3.119539740507739
Brandon,BND,1.0,52.4540047306678,0.624731734521936,53.40631168010053,-2.984510383414912,3.7327626755296324
Branksome,BSM,2.0,50.7269660330633,-1.91975842787338,53.40631168010053,-2.984510383414912,2.883156225931379
Braystones (Cumbria),BYS,2.0,54.4393640536404,-3.54182643942065,53.40631168010053,-2.984510383414912,1.1737965721359722
Bredbury,BDY,1.0,53.4231550957567,-2.11048830300964,53.40631168010053,-2.984510383414912,0.8741843613831844
Breich,BRC,2.0,55.8273164832767,-3.66812586892786,53.40631168010053,-2.984510383414912,2.5156697694719745
Brentford,BFD,2.0,51.4875457097478,-0.3096509962364,53.40631168010053,-2.984510383414912,3.291889364811743
Brentwood,BRE,2.0,51.6136030493508,0.2995857793073,53.40631168010053,-2.984510383414912,3.7415360269241464
Bricket Wood,BWO,2.0,51.7054267834401,-0.359115040469,53.40631168010053,-2.984510383414912,3.1282119714702246
Bridge of Allan,BEA,2.0,56.1566398048563,-3.95722936202684,53.40631168010053,-2.984510383414912,2.917273899580636
Bridge of Orchy,BRO,2.0,56.5158728605762,-4.76299400728156,53.40631168010053,-2.984510383414912,3.582230413510988
Bridgend,BGN,1.0,51.5069776497295,-3.57527638119945,53.40631168010053,-2.984510383414912,1.9890887921517784
Bridgeton,BDG,2.0,55.8489676845822,-4.22605724682491,53.40631168010053,-2.984510383414912,2.7400742636420565
Bridgwater,BWT,2.0,51.1278595271724,-2.99040597303838,53.40631168010053,-2.984510383414912,2.2784597804569318
Bridlington,BDT,1.0,54.0841300013586,-0.198720390714093,53.40631168010053,-2.984510383414912,2.8670653219041142
Brierfield,BRF,1.0,53.8239823807197,-2.23649020577414,53.40631168010053,-2.984510383414912,0.8567280783967804
Brigg,BGG,1.0,53.5491442686681,-0.486124757673641,53.40631168010053,-2.984510383414912,2.502465161249506
Brighouse,BGH,1.0,53.6981985445311,-1.77943904000537,53.40631168010053,-2.984510383414912,1.2399172893116663
Brighton (East Sussex),BTN,2.0,50.8290032740444,-0.141280362604851,53.40631168010053,-2.984510383414912,3.8375090320627456
Brimsdown,BMD,2.0,51.6555817179022,-0.0308174334464399,53.40631168010053,-2.984510383414912,3.433563373993906
Brinnington,BNT,1.0,53.4321182782686,-2.13512015019042,53.40631168010053,-2.984510383414912,0.8497821772702493
Bristol Parkway,BPW,1.0,51.5138036668802,-2.54216343130652,53.40631168010053,-2.984510383414912,1.9435167625062413
Bristol Temple Meads,BRI,1.0,51.449146420501,-2.58131562733598,53.40631168010053,-2.984510383414912,1.9982647133732896
Brithdir,BHD,2.0,51.7103060616454,-3.22872077880337,53.40631168010053,-2.984510383414912,1.7134975270035149
Briton Ferry,BNF,1.0,51.6379005035521,-3.81925304025098,53.40631168010053,-2.984510383414912,1.9555238153709933
Brixton,BRX,2.0,51.4632974069132,-0.114183479348404,53.40631168010053,-2.984510383414912,3.4661334368454018
Broad Green,BGE,0.0,53.4065063198581,-2.8934843782564,53.40631168010053,-2.984510383414912,0.09102621325614232
Broadbottom,BDB,1.0,53.4409753914717,-2.01652101691897,53.40631168010053,-2.984510383414912,0.9686098216181992
Broadstairs,BSR,2.0,51.3606706129939,1.43356042841681,53.40631168010053,-2.984510383414912,4.868675084023636
Brockenhurst,BCU,1.0,50.8168418133325,-1.57353117285741,53.40631168010053,-2.984510383414912,2.9489348116777854
Brockholes,BHS,1.0,53.5969730380642,-1.76969142002127,53.40631168010053,-2.984510383414912,1.2296897443019332
Brockley,BCY,2.0,51.4646472014469,-0.0375366925196268,53.40631168010053,-2.984510383414912,3.5291238122931086
Bromborough,BOM,0.0,53.3218495381578,-2.98689585549247,53.40631168010053,-2.984510383414912,0.08449582178182924
Bromborough Rake,BMR,0.0,53.3299093778849,-2.98946942122466,53.40631168010053,-2.984510383414912,0.07656307099278642
Bromley Cross (Lancs),BMC,1.0,53.6140430093272,-2.41089911446368,53.40631168010053,-2.984510383414912,0.6100673675997766
Bromley North,BMN,2.0,51.4083259856208,0.0169926357417391,53.40631168010053,-2.984510383414912,3.6056854007736368
Bromley South,BMS,2.0,51.3999745779484,0.0173440284479178,53.40631168010053,-2.984510383414912,3.610611925628749
Bromsgrove,BMV,1.0,52.3222879772082,-2.04734524157192,53.40631168010053,-2.984510383414912,1.43296402310665
Brondesbury,BSY,2.0,51.5451643215911,-0.202308734122339,53.40631168010053,-2.984510383414912,3.3473146711077124
Brondesbury Park,BSP,2.0,51.5406977630272,-0.210127665126915,53.40631168010053,-2.984510383414912,3.34330895298547
Brookmans Park,BPK,2.0,51.7210604040222,-0.204548729285783,53.40631168010053,-2.984510383414912,3.250885827271086
Brookwood,BKO,2.0,51.3037572593507,-0.635747900032551,53.40631168010053,-2.984510383414912,3.1523674112576314
Broome,BME,1.0,52.4227745962921,-2.88520796216339,53.40631168010053,-2.984510383414912,0.9885373873014631
Broomfleet,BMF,1.0,53.7402076992399,-0.671828400321333,53.40631168010053,-2.984510383414912,2.3366609738091597
Brora,BRA,2.0,58.012954677959,-3.85228367382381,53.40631168010053,-2.984510383414912,4.687663617759446
Brough,BUH,1.0,53.726959736948,-0.578724236728498,53.40631168010053,-2.984510383414912,2.4270603947879668
Broughty Ferry,BYF,2.0,56.4671632427311,-2.87315275743822,53.40631168010053,-2.984510383414912,3.0628765579633064
Broxbourne,BXB,2.0,51.7469087203036,-0.0110867237416249,53.40631168010053,-2.984510383414912,3.4051235576536265
Bruce Grove,BCV,2.0,51.5939575362971,-0.0698670703254643,53.40631168010053,-2.984510383414912,3.432167417988013
Brundall,BDA,1.0,52.6194794445227,1.43929868679443,53.40631168010053,-2.984510383414912,4.493238437542663
Brundall Gardens,BGA,1.0,52.623439277351,1.41841612253682,53.40631168010053,-2.984510383414912,4.471985131437621
Brunstane,BSU,2.0,55.9425140850115,-3.10098653970798,53.40631168010053,-2.984510383414912,2.5388756042116385
Brunswick,BRW,0.0,53.3832435421687,-2.97607735757102,53.40631168010053,-2.984510383414912,0.024561248187453283
Bruton,BRU,2.0,51.1116412233567,-2.44707381432238,53.40631168010053,-2.984510383414912,2.356766974236293
Bryn,BYN,0.0,53.4998691660173,-2.6472139954436,53.40631168010053,-2.984510383414912,0.3500312221924787
Buckenham (Norfolk),BUC,-999.0,52.5977342869752,1.47032522512213,53.40631168010053,-2.984510383414912,4.527621638317734
Buckley,BCK,1.0,53.163039091322,-3.05592619131988,53.40631168010053,-2.984510383414912,0.2535384982004262
Bucknell,BUK,1.0,52.3573820377697,-2.94737831871819,53.40631168010053,-2.984510383414912,1.0495866733095063
Buckshaw Parkway,BSV,1.0,53.6733436562841,-2.6608302706882,53.40631168010053,-2.984510383414912,0.4196127877928435
Bugle,BGL,2.0,50.4003548175137,-4.79210144517706,53.40631168010053,-2.984510383414912,3.5075863647664125
Builth Road,BHR,1.0,52.1693260878635,-3.42703322967269,53.40631168010053,-2.984510383414912,1.3137579019218386
Bulwell,BLW,1.0,52.9996957837852,-1.19623056375416,53.40631168010053,-2.984510383414912,1.8339250804060159
Bures,BUE,2.0,51.9711590332091,0.769143780923498,53.40631168010053,-2.984510383414912,4.018654340116175
Burgess Hill,BUG,2.0,50.9536546008005,-0.127412852764647,53.40631168010053,-2.984510383414912,3.765439290214145
Burley Park,BUY,1.0,53.8120311080587,-1.57776768947798,53.40631168010053,-2.984510383414912,1.4640810295771338
Burley-in-Wharfedale,BUW,1.0,53.9081516997075,-1.75337211508043,53.40631168010053,-2.984510383414912,1.3294904441314177
Burnage,BNA,0.0,53.4211687602571,-2.21567840315285,53.40631168010053,-2.984510383414912,0.7689755176235865
Burneside (Cumbria),BUD,1.0,54.3549826054845,-2.76667730640148,53.40631168010053,-2.984510383414912,0.9733590160418825
Burnham (Bucks),BNM,2.0,51.5235048795581,-0.646373823188634,53.40631168010053,-2.984510383414912,3.001973354717794
Burnham-on-Crouch,BUU,2.0,51.6336547723703,0.814027782561537,53.40631168010053,-2.984510383414912,4.191802083937579
Burnley Barracks,BUB,1.0,53.7908801067712,-2.25808600820696,53.40631168010053,-2.984510383414912,0.8219399294888993
Burnley Central,BNC,1.0,53.7935141377532,-2.24497131410056,53.40631168010053,-2.984510383414912,0.8347716922935312
Burnley Manchester Road,BYM,1.0,53.784967519749,-2.24886752625716,53.40631168010053,-2.984510383414912,0.8273757660139144
Burnside (Strathclyde),BUI,2.0,55.8169313339993,-4.20239033426663,53.40631168010053,-2.984510383414912,2.7007996390790656
Burntisland,BTS,2.0,56.0570842114504,-3.23319831966981,53.40631168010053,-2.984510383414912,2.662412571822356
Burscough Bridge,BCB,2.0,53.6052595050232,-2.84088028461687,53.40631168010053,-2.984510383414912,0.24537693926324128
Burscough Junction,BCJ,1.0,53.5975223038556,-2.84060569626726,53.40631168010053,-2.984510383414912,0.23931164121259568
Bursledon,BUO,2.0,50.8836886125224,-1.30503236047306,53.40631168010053,-2.984510383414912,3.030556643691382
Burton Joyce,BUJ,1.0,52.9834418843688,-1.04087761567102,53.40631168010053,-2.984510383414912,1.9891021089903795
Burton-on-Trent,BUT,1.0,52.8058165084357,-1.64245997205794,53.40631168010053,-2.984510383414912,1.470269960863036
Bury St Edmunds,BSE,1.0,52.2537604920335,0.713306656862091,53.40631168010053,-2.984510383414912,3.8732705953080138
Busby,BUS,2.0,55.7803445376612,-4.26220173231044,53.40631168010053,-2.984510383414912,2.696020621549501
Bush Hill Park,BHK,2.0,51.6415169536941,-0.0692211146516689,53.40631168010053,-2.984510383414912,3.4078456459936777
Bushey,BSH,1.0,51.6457502336329,-0.385321269560704,53.40631168010053,-2.984510383414912,3.139324872702155
Butlers Lane,BUL,1.0,52.5924709448511,-1.83802031828625,53.40631168010053,-2.984510383414912,1.4059787380291546
Buxted,BXD,2.0,50.9900108378352,0.131438921683175,53.40631168010053,-2.984510383414912,3.943050828010386
Buxton,BUX,1.0,53.2607227045765,-1.91286358993768,53.40631168010053,-2.984510383414912,1.0814911001779761
Byfleet & New Haw,BFN,2.0,51.3497957278428,-0.481389767596653,53.40631168010053,-2.984510383414912,3.2395787811419066
Bynea,BYE,1.0,51.6720366859549,-4.09888164715589,53.40631168010053,-2.984510383414912,2.061439562240544
Cadoxton,CAD,2.0,51.4122831697514,-3.24889594393883,53.40631168010053,-2.984510383414912,2.0114794119500017
Caergwrle,CGW,1.0,53.1078664074892,-3.03291327418616,53.40631168010053,-2.984510383414912,0.30234487027079776
Caerphilly,CPH,2.0,51.57158067131,-3.21848255919666,53.40631168010053,-2.984510383414912,1.849589374336247
Caersws,CWS,1.0,52.5161279090032,-3.43249879239218,53.40631168010053,-2.984510383414912,0.9965544445252562
Caldercruix,CAC,2.0,55.8879475461776,-3.88771190821316,53.40631168010053,-2.984510383414912,2.6408880260620613
Caldicot,CDT,1.0,51.5847930591881,-2.76057390572724,53.40631168010053,-2.984510383414912,1.83523231019124
Caledonian Rd & Barnsbury,CIR,2.0,51.5430392840645,-0.116729249835755,53.40631168010053,-2.984510383414912,3.4199345976118325
Calstock,CSK,2.0,50.4978023671618,-4.20898850028348,53.40631168010053,-2.984510383414912,3.1557523797252047
Cam & Dursley,CDU,2.0,51.71762106741,-2.35908298700462,53.40631168010053,-2.984510383414912,1.800787442639933
Camberley,CAM,2.0,51.3363271281171,-0.744271720142327,53.40631168010053,-2.984510383414912,3.050164801100325
Camborne,CBN,1.0,50.2104431448962,-5.2974123155278,53.40631168010053,-2.984510383414912,3.945008370318189
Cambridge,CBG,1.0,52.1940653655991,0.137456461171047,53.40631168010053,-2.984510383414912,3.3490622725945696
Cambridge Heath,CBH,2.0,51.5319710950389,-0.0572790666047599,53.40631168010053,-2.984510383414912,3.4758935269831377
Cambuslang,CBL,2.0,55.8196110785266,-4.17300936139383,53.40631168010053,-2.984510383414912,2.6900824907613075
Camden Road,CMD,2.0,51.541789311709,-0.138700901327927,53.40631168010053,-2.984510383414912,3.4022162292494786
Camelon,CMO,2.0,56.0060960246981,-3.81760595611437,53.40631168010053,-2.984510383414912,2.730004921546126
Canada Water,ZCW,2.0,51.4979884652777,-0.0497198367270248,53.40631168010053,-2.984510383414912,3.5006703708233267
Canley,CNL,1.0,52.3992417616656,-1.54757487164278,53.40631168010053,-2.984510383414912,1.7547003976771574
Cannock,CAO,1.0,52.6861624456421,-2.02214749992606,53.40631168010053,-2.984510383414912,1.2019805486812356
Canonbury,CNN,2.0,51.5487306960064,-0.0921909296515918,53.40631168010053,-2.984510383414912,3.4374582084857206
Canterbury East,CBE,2.0,51.2742643010057,1.07596836838028,53.40631168010053,-2.984510383414912,4.586187274903344
Canterbury West,CBW,2.0,51.2842658182293,1.07530307014886,53.40631168010053,-2.984510383414912,4.580956659653331
Cantley,CNY,1.0,52.5787439208642,1.51341203393271,53.40631168010053,-2.984510383414912,4.5734204342708
Capenhurst,CPU,0.0,53.2601766897761,-2.94228526259152,53.40631168010053,-2.984510383414912,0.1521131033989853
Carbis Bay,CBB,2.0,50.1970567010486,-5.46326466277764,53.40631168010053,-2.984510383414912,4.0550635381000655
Cardenden,CDD,2.0,56.1412590120684,-3.26164246018956,53.40631168010053,-2.984510383414912,2.748952363467876
Cardiff Bay,CDB,2.0,51.4671120338694,-3.16640344566505,53.40631168010053,-2.984510383414912,1.9477115684920283
Cardiff Central,CDF,1.0,51.4760288851757,-3.17930229689385,53.40631168010053,-2.984510383414912,1.9400864820774337
Cardiff Queen Street,CDQ,2.0,51.4819650131963,-3.17018110795731,53.40631168010053,-2.984510383414912,1.9332831433542035
Cardonald,CDO,2.0,55.8525736689993,-4.34069348123436,53.40631168010053,-2.984510383414912,2.7970395623126456
Cardross,CDR,2.0,55.9603843832927,-4.65307437435214,53.40631168010053,-2.984510383414912,3.0508020527467403
Carfin,CRF,2.0,55.8073437453988,-3.9562545230792,53.40631168010053,-2.984510383414912,2.5902203866780105
Cark & Cartmel,CAK,1.0,54.1779579416092,-2.97406410040301,53.40631168010053,-2.984510383414912,0.7717169673715056
Carlisle,CAR,1.0,54.8906549298,-2.93319211047497,53.40631168010053,-2.984510383414912,1.4852300993670724
Carlton,CTO,1.0,52.965087366641,-1.07865502808069,53.40631168010053,-2.984510383414912,1.9562626434719768
Carluke,CLU,2.0,55.7312694028257,-3.84892564535903,53.40631168010053,-2.984510383414912,2.480452006699856
Carmarthen,CMN,1.0,51.8533578808521,-4.30596190317658,53.40631168010053,-2.984510383414912,2.039092842830004
Carmyle,CML,2.0,55.8343417681725,-4.15818113045633,53.40631168010053,-2.984510383414912,2.696819076438674
Carnforth,CNF,1.0,54.1296807999724,-2.77123283370784,53.40631168010053,-2.984510383414912,0.7541552869225638
Carnoustie,CAN,2.0,56.5005661034066,-2.70660077824166,53.40631168010053,-2.984510383414912,3.106709543036929
Carntyne,CAY,2.0,55.8548777008205,-4.17857314789674,53.40631168010053,-2.984510383414912,2.724199229745583
Carpenders Park,CPK,1.0,51.6283500844943,-0.385939110192136,53.40631168010053,-2.984510383414912,3.148606056252399
Carrbridge,CAG,2.0,57.2795057695212,-3.82820361192189,53.40631168010053,-2.984510383414912,3.9640195153595994
Carshalton,CSH,2.0,51.3684528774191,-0.166368536051504,53.40631168010053,-2.984510383414912,3.477756744156644
Carshalton Beeches,CSB,2.0,51.3574095253256,-0.169797044692897,53.40631168010053,-2.984510383414912,3.48146682003735
Carstairs,CRS,2.0,55.6910505751263,-3.66847398361363,53.40631168010053,-2.984510383414912,2.38491887175232
Cartsdyke,CDY,2.0,55.9422189788465,-4.73159192667259,53.40631168010053,-2.984510383414912,3.079467445293862
Castle Bar Park,CBP,2.0,51.5229293420363,-0.331548940592461,53.40631168010053,-2.984510383414912,3.2535109418034645
Castle Cary,CLC,2.0,51.0998172088069,-2.52279469643867,53.40631168010053,-2.984510383414912,2.352253838706196
Castleford,CFD,1.0,53.7240777865092,-1.354652736609,53.40631168010053,-2.984510383414912,1.660545466777056
Castleton (Manchester),CAS,1.0,53.5918484863424,-2.17823419505367,53.40631168010053,-2.984510383414912,0.8273482932772428
Castleton Moor,CSM,1.0,54.4671435348016,-0.946648402304519,53.40631168010053,-2.984510383414912,2.297443291575157
Caterham,CAT,2.0,51.2821399092314,-0.0783071221606942,53.40631168010053,-2.984510383414912,3.5997393111004525
Catford,CTF,2.0,51.4444050592825,-0.0263165980978829,53.40631168010053,-2.984510383414912,3.549646188044367
Catford Bridge,CFB,2.0,51.4447390713824,-0.0247911767036132,53.40631168010053,-2.984510383414912,3.5507330062747617
Cathays,CYS,2.0,51.4889025348744,-3.17868388381823,53.40631168010053,-2.984510383414912,1.9272159138134157
Cathcart,CCT,2.0,55.8176734833053,-4.26053705302787,53.40631168010053,-2.984510383414912,2.7281696808517055
Cattal,CTL,1.0,53.9974405714928,-1.32053513613482,53.40631168010053,-2.984510383414912,1.7658558802460356
Causeland,CAU,2.0,50.4056959147701,-4.46644892679679,53.40631168010053,-2.984510383414912,3.3466157259999725
Cefn-y-Bedd,CYB,1.0,53.0988032278231,-3.03105323734973,53.40631168010053,-2.984510383414912,0.3110107481654925
Chadwell Heath,CTH,2.0,51.5680368465285,0.128958362519305,53.40631168010053,-2.984510383414912,3.6156523610067186
Chafford Hundred Lakeside,CFH,2.0,51.4855550575053,0.28744692045023,53.40631168010053,-2.984510383414912,3.794075724278559
Chalfont & Latimer,CFO,2.0,51.6681076576697,-0.560526398177912,53.40631168010053,-2.984510383414912,2.9827925815048153
Chalkwell,CHW,2.0,51.5387163080302,0.670592556917399,53.40631168010053,-2.984510383414912,4.10459376530789
Chandlers Ford,CFR,2.0,50.9836845147777,-1.38517039014294,53.40631168010053,-2.984510383414912,2.902931414318864
Chapel-en-le-Frith,CEF,1.0,53.3122322961308,-1.91876260821786,53.40631168010053,-2.984510383414912,1.0698921678494473
Chapelton (Devon),CPN,2.0,51.0165400933197,-4.02472276399646,53.40631168010053,-2.984510383414912,2.6063480262045022
Chapeltown (South Yorks),CLN,1.0,53.4623369950109,-1.46627538451147,53.40631168010053,-2.984510383414912,1.519268359377678
Chappel & Wakes Colne,CWC,2.0,51.9259030310448,0.758501135970095,53.40631168010053,-2.984510383414912,4.025139128334309
Charing (Kent),CHG,2.0,51.2080962778901,0.790331124900325,53.40631168010053,-2.984510383414912,4.368246715492934
Charing Cross (Glasgow),CHC,2.0,55.8646868840175,-4.2698209416277,53.40631168010053,-2.984510383414912,2.774100191825646
Charlbury,CBY,2.0,51.8724282813146,-1.48969393048958,53.40631168010053,-2.984510383414912,2.141792358985192
Charlton,CTN,2.0,51.4868115310585,0.0312574909275387,53.40631168010053,-2.984510383414912,3.5748198128141166
Chartham,CRT,2.0,51.2572624478548,1.01803921286391,53.40631168010053,-2.984510383414912,4.542996354091397
Chassen Road,CSR,0.0,53.4461614853374,-2.36823319572701,53.40631168010053,-2.984510383414912,0.6175642307014921
Chatelherault,CTE,2.0,55.7652234915406,-4.00467524821846,53.40631168010053,-2.984510383414912,2.570058615193655
Chatham,CTM,2.0,51.3803760158194,0.521150706594487,53.40631168010053,-2.984510383414912,4.048959742182195
Chathill,CHT,1.0,55.5367340174025,-1.70637532341525,53.40631168010053,-2.984510383414912,2.484417148321823
Cheadle Hulme,CHU,1.0,53.3759306424827,-2.1883029825707,53.40631168010053,-2.984510383414912,0.7967868175401946
Cheam,CHE,2.0,51.3554775610295,-0.214167523240628,53.40631168010053,-2.984510383414912,3.446842054238121
Cheddington,CED,1.0,51.8579176369762,-0.662151871991779,53.40631168010053,-2.984510383414912,2.791213565523496
Chelford (Cheshire),CEL,0.0,53.2703118842523,-2.28057730967718,53.40631168010053,-2.984510383414912,0.7169502889131234
Chelmsford,CHM,2.0,51.736370182895,0.468572080657349,53.40631168010053,-2.984510383414912,3.8356854808198753
Chelsfield,CLD,2.0,51.3562540463622,0.109069814712519,53.40631168010053,-2.984510383414912,3.7111958643939746
Cheltenham Spa,CNM,1.0,51.897399026527,-2.09962021886949,53.40631168010053,-2.984510383414912,1.7492421214410376
Chepstow,CPW,1.0,51.6401819017246,-2.67190561030381,53.40631168010053,-2.984510383414912,1.7935819296140458
Cherry Tree,CYT,1.0,53.7328728448942,-2.51837919025585,53.40631168010053,-2.984510383414912,0.5691401264954806
Chertsey,CHY,2.0,51.387067986648,-0.509316626293664,53.40631168010053,-2.984510383414912,3.1943589699405757
Cheshunt,CHN,2.0,51.7028745312854,-0.0239597248580568,53.40631168010053,-2.984510383414912,3.415634395225115
Chessington North,CSN,2.0,51.3640398492818,-0.300699137972596,53.40631168010053,-2.984510383414912,3.3724941856315054
Chessington South,CSS,2.0,51.3565491107847,-0.308157574149904,53.40631168010053,-2.984510383414912,3.371111233737169
Chester,CTR,0.0,53.1966981459934,-2.879593999182,53.40631168010053,-2.984510383414912,0.23440409843129428
Chester Road,CRD,1.0,52.5356474587434,-1.83247949958833,53.40631168010053,-2.984510383414912,1.4440330133489592
Chesterfield,CHD,0.0,53.2382208069527,-1.42011597140436,53.40631168010053,-2.984510383414912,1.5733990015140602
Chester-le-Street,CLS,0.0,54.854595364494,-1.57801542177952,53.40631168010053,-2.984510383414912,2.0188496000410923
Chestfield & Swalecliffe,CSW,2.0,51.360237745381,1.06693052184082,53.40631168010053,-2.984510383414912,4.538787498343368
Chetnole,CNO,2.0,50.8663655335093,-2.57292595204148,53.40631168010053,-2.984510383414912,2.5730775681530886
Chichester,CCH,2.0,50.8320529892616,-0.781748952807999,53.40631168010053,-2.984510383414912,3.3880622378476435
Chilham,CIL,2.0,51.2446076985827,0.975895539359203,53.40631168010053,-2.984510383414912,4.511959571722063
Chilworth,CHL,2.0,51.2152123162868,-0.524824137256049,53.40631168010053,-2.984510383414912,3.2940814883132443
Chingford,CHI,2.0,51.6330849559396,0.00989703968061354,53.40631168010053,-2.984510383414912,3.4800587395571476
Chinley,CLY,0.0,53.3402914179345,-1.94394095141586,53.40631168010053,-2.984510383414912,1.0426616986478887
Chippenham,CPM,2.0,51.4624897217942,-2.11539415452921,53.40631168010053,-2.984510383414912,2.129273778757997
Chipstead,CHP,2.0,51.3092758788923,-0.169503225609274,53.40631168010053,-2.984510383414912,3.510245639559433
Chirk,CRK,1.0,52.9330904882563,-3.06564362624753,53.40631168010053,-2.984510383414912,0.48012592046567504
Chislehurst,CIT,2.0,51.4055547408408,0.0574179687488035,53.40631168010053,-2.984510383414912,3.640927962716843
Chiswick,CHK,2.0,51.4811353508269,-0.267835206320324,53.40631168010053,-2.984510383414912,3.329658828864815
Cholsey,CHO,2.0,51.5702025135637,-1.15802300516055,53.40631168010053,-2.984510383414912,2.5898557902638255
Chorley,CRL,1.0,53.6525386748143,-2.62684103630161,53.40631168010053,-2.984510383414912,0.43422931129788106
Chorleywood,CLW,2.0,51.6542477676637,-0.518320062534133,53.40631168010053,-2.984510383414912,3.0251979525428574
Christchurch,CHR,2.0,50.7382153631909,-1.78454614689707,53.40631168010053,-2.984510383414912,2.92551741154083
Christs Hospital,CHH,2.0,51.0506848896206,-0.363556339669494,53.40631168010053,-2.984510383414912,3.5239718607633974
Church & Oswaldtwistle,CTW,1.0,53.7505227746877,-2.39121218921604,53.40631168010053,-2.984510383414912,0.6859183806230464
Church Fenton,CHF,1.0,53.8266010051519,-1.22758889955301,53.40631168010053,-2.984510383414912,1.8064927946736031
Church Stretton,CTT,1.0,52.5374242388884,-2.80369477152189,53.40631168010053,-2.984510383414912,0.8875019273220831
Cilmeri,CIM,1.0,52.1505334866855,-3.45654171112508,53.40631168010053,-2.984510383414912,1.3415634332362176
City Thameslink,CTK,2.0,51.5139346019675,-0.103589643870664,53.40631168010053,-2.984510383414912,3.4468529578993476
Clacton-on-Sea,CLT,2.0,51.7939991870545,1.15409160775521,53.40631168010053,-2.984510383414912,4.441573822030834
Clandon,CLA,2.0,51.2640043702166,-0.502766109156909,53.40631168010053,-2.984510383414912,3.2784958826868325
Clapham (North Yorkshire),CPY,1.0,54.1053880706421,-2.4103762733162,53.40631168010053,-2.984510383414912,0.9046202386590022
Clapham High Street,CLP,2.0,51.465479417202,-0.132521686185382,53.40631168010053,-2.984510383414912,3.44973468571611
Clapham Junction,CLJ,1.0,51.4641865965587,-0.170293416365599,53.40631168010053,-2.984510383414912,3.4193079676669376
Clapton,CPT,2.0,51.5616423238882,-0.0570246574503497,53.40631168010053,-2.984510383414912,3.4601990852370137
Clarbeston Road,CLR,1.0,51.8516714049905,-4.8835490247474,53.40631168010053,-2.984510383414912,2.4542318851869185
Clarkston,CKS,2.0,55.7893535486702,-4.27564475472092,53.40631168010053,-2.984510383414912,2.710335129116653
Claverdon,CLV,2.0,52.277091521558,-1.69656001384624,53.40631168010053,-2.984510383414912,1.7128789568825042
Claygate,CLG,2.0,51.3612128745663,-0.34824779526903,53.40631168010053,-2.984510383414912,3.336511585182219
Cleethorpes,CLE,1.0,53.5619045675724,-0.0292209300100191,53.40631168010053,-2.984510383414912,2.9593825200602275
Cleland,CEA,2.0,55.804652232152,-3.91024482718574,53.40631168010053,-2.984510383414912,2.5708017550947497
Clifton (Manchester),CLI,1.0,53.522491666707,-2.31474664635258,53.40631168010053,-2.984510383414912,0.6797655866337895
Clifton Down,CFN,2.0,51.4645471476911,-2.61174122454121,53.40631168010053,-2.984510383414912,1.977221875544224
Clitheroe,CLH,1.0,53.8734683464237,-2.39433664531423,53.40631168010053,-2.984510383414912,0.7526887750152184
Clock House,CLK,2.0,51.4085847718765,-0.0406570648343016,53.40631168010053,-2.984510383414912,3.557693798117036
Clunderwen,CUW,1.0,51.840545791914,-4.73184301881061,53.40631168010053,-2.984510383414912,2.3462297746229837
Clydebank,CYK,2.0,55.9006964941048,-4.40441492241242,53.40631168010053,-2.984510383414912,2.870206351501725
Coatbridge Central,CBC,2.0,55.8625102963699,-4.0318976496868,53.40631168010053,-2.984510383414912,2.6701932005216515
Coatbridge Sunnyside,CBS,2.0,55.8668386609231,-4.02828798060081,53.40631168010053,-2.984510383414912,2.6727634941653564
Coatdyke,COA,2.0,55.8643447692187,-4.00498525207608,53.40631168010053,-2.984510383414912,2.661446152896734
Cobham & Stoke d'Abernon,CSD,2.0,51.3180996661306,-0.389346373427882,53.40631168010053,-2.984510383414912,3.330991692277288
Codsall,CSL,1.0,52.6272899571536,-2.20176310096144,53.40631168010053,-2.984510383414912,1.1043405964699016
Cogan,CGN,2.0,51.4459958120536,-3.18909039001181,53.40631168010053,-2.984510383414912,1.9709620193234982
Colchester,COL,2.0,51.90071062168,0.89259805805851,53.40631168010053,-2.984510383414912,4.159183142644898
Colchester Town,CET,2.0,51.8864527052257,0.9047624659822,53.40631168010053,-2.984510383414912,4.175693307771189
Coleshill Parkway,CEH,1.0,52.5165275432713,-1.70817740730361,53.40631168010053,-2.984510383414912,1.5558732840633478
Collingham,CLM,1.0,53.1440857576614,-0.750393934928215,53.40631168010053,-2.984510383414912,2.249452986794315
Collington,CLL,2.0,50.8392865411482,0.457861387933257,53.40631168010053,-2.984510383414912,4.2941287214274295
Colne,CNE,1.0,53.8547444008362,-2.18185934114806,53.40631168010053,-2.984510383414912,0.9194240592231984
Colwall,CWL,1.0,52.0798705537891,-2.35695037506955,53.40631168010053,-2.984510383414912,1.4674050652920498
Colwyn Bay,CWB,1.0,53.2963632033856,-3.72541732837559,53.40631168010053,-2.984510383414912,0.749020539520044
Combe (Oxon),CME,2.0,51.8325940324182,-1.39407333584626,53.40631168010053,-2.984510383414912,2.237426476312841
Commondale,COM,1.0,54.4812740872027,-0.975148019682156,53.40631168010053,-2.984510383414912,2.2788333167365664
Congleton,CNG,1.0,53.1578561862417,-2.19258027037562,53.40631168010053,-2.984510383414912,0.8299900218478892
Conisbrough,CNS,1.0,53.4893094105923,-1.23433150755602,53.40631168010053,-2.984510383414912,1.7521457475819413
Connel Ferry,CON,2.0,56.4523594657108,-5.38544247761732,53.40631168010053,-2.984510383414912,3.878515441917486
Conon Bridge,CBD,2.0,57.5617567994351,-4.44040638557,53.40631168010053,-2.984510383414912,4.403107687632985
Cononley,CEY,1.0,53.9175717411782,-2.01206789209741,53.40631168010053,-2.984510383414912,1.0986497389855119
Conway Park,CNP,0.0,53.3933615887328,-3.02267129068915,53.40631168010053,-2.984510383414912,0.04029838347161681
Conwy,CNW,1.0,53.280106240192,-3.83052500023981,53.40631168010053,-2.984510383414912,0.8553762592823612
Cooden Beach,COB,2.0,50.8333700419813,0.426858738350685,53.40631168010053,-2.984510383414912,4.272875841643829
Cookham,COO,2.0,51.557462203665,-0.722079072881563,53.40631168010053,-2.984510383414912,2.921787093783116
Cooksbridge,CBR,2.0,50.9037547738731,-0.0092027514388362,53.40631168010053,-2.984510383414912,3.887833146342789
Coombe Junction Halt,COE,2.0,50.4459252926848,-4.48185232237372,53.40631168010053,-2.984510383414912,3.3175172109517814
Copplestone,COP,2.0,50.8144709700958,-3.75157247453534,53.40631168010053,-2.984510383414912,2.702965504343678
Corbridge,CRB,1.0,54.9662625268169,-2.01840032187859,53.40631168010053,-2.984510383414912,1.8348883604112898
Corby,COR,2.0,52.4888508478421,-0.6883354035657,53.40631168010053,-2.984510383414912,2.4726815235314588
Corkerhill,CKH,2.0,55.8375061471062,-4.33429351905428,53.40631168010053,-2.984510383414912,2.780759077959724
Corkickle,CKL,2.0,54.5416834476749,-3.58216474823985,53.40631168010053,-2.984510383414912,1.2830665572756732
Corpach,CPA,2.0,56.8428332781627,-5.12195790866533,53.40631168010053,-2.984510383414912,4.047018979093984
Corrour,CRR,2.0,56.7602193492772,-4.69060138585505,53.40631168010053,-2.984510383414912,3.7629035546993874
Coryton,COY,2.0,51.5204395971461,-3.23181845626842,53.40631168010053,-2.984510383414912,1.902018610888282
Coseley,CSY,0.0,52.5450842204875,-2.08577774384501,53.40631168010053,-2.984510383414912,1.2447622642978018
Cosford,COS,1.0,52.6448359469502,-2.30027497544232,53.40631168010053,-2.984510383414912,1.0237301332383684
Cosham,CSA,2.0,50.8419241447189,-1.06732879438891,53.40631168010053,-2.984510383414912,3.2018227116629867
Cottingham,CGM,1.0,53.7816479755855,-0.406433983012819,53.40631168010053,-2.984510383414912,2.605255315898731
Cottingley,COT,1.0,53.7678175756796,-1.58770821538294,53.40631168010053,-2.984510383414912,1.4428245940367264
Coulsdon South,CDS,2.0,51.3158366640872,-0.137887293899879,53.40631168010053,-2.984510383414912,3.5317628468423585
Coulsdon Town,CDN,2.0,51.3220411523246,-0.134464231082376,53.40631168010053,-2.984510383414912,3.5308563696900555
Coventry,COV,1.0,52.4008144382941,-1.51345977599177,53.40631168010053,-2.984510383414912,1.7818570629768076
Coventry Arena,CAA,1.0,52.4477337100526,-1.49412470531811,53.40631168010053,-2.984510383414912,1.7720387112411704
Cowden (Kent),CWN,2.0,51.1556353416943,0.110032723034128,53.40631168010053,-2.984510383414912,3.826452798341167
Cowdenbeath,COW,2.0,56.1120953327991,-3.34318635187069,53.40631168010053,-2.984510383414912,2.729452990171934
Cradley Heath,CRA,1.0,52.4696552938033,-2.09048839521938,53.40631168010053,-2.984510383414912,1.2948360905413772
Craigendoran,CGD,2.0,55.9948018624344,-4.71124492675969,53.40631168010053,-2.984510383414912,3.11157413654551
Cramlington,CRM,1.0,55.0877690033603,-1.59859511992401,53.40631168010053,-2.984510383414912,2.1790043248054762
Cranbrook (Devon),CBK,2.0,50.7500952464281,-3.42041599201744,53.40631168010053,-2.984510383414912,2.691746541211227
Craven Arms,CRV,1.0,52.4425417003323,-2.83742232035607,53.40631168010053,-2.984510383414912,0.974929470370476
Crawley,CRW,2.0,51.1122123903253,-0.186672935434113,53.40631168010053,-2.984510383414912,3.6181191158764987
Crayford,CRY,2.0,51.4482779041524,0.178936075571555,53.40631168010053,-2.984510383414912,3.7203883892179475
Crediton,CDI,2.0,50.7833069483759,-3.64677829535681,53.40631168010053,-2.984510383414912,2.7053193175367793
Cressing (Essex),CES,2.0,51.8523340604127,0.577961040362359,53.40631168010053,-2.984510383414912,3.88665011130669
Cressington,CSG,0.0,53.3587520488864,-2.91200333610422,53.40631168010053,-2.984510383414912,0.08671326559955393
Creswell,CWD,2.0,53.264112781138,-1.21639486472377,53.40631168010053,-2.984510383414912,1.7738244034578512
Crewe,CRE,0.0,53.0896271575516,-2.4329691730368,53.40631168010053,-2.984510383414912,0.6359927621973368
Crewkerne,CKN,2.0,50.8735384311373,-2.77849644743115,53.40631168010053,-2.984510383414912,2.541137948337965
Crews Hill,CWH,2.0,51.684484296328,-0.106887096068869,53.40631168010053,-2.984510383414912,3.3534169623512664
Crianlarich,CNR,2.0,56.3904817962502,-4.61843468589525,53.40631168010053,-2.984510383414912,3.4022022145011594
Criccieth,CCC,1.0,52.9184156772103,-4.23751289496718,53.40631168010053,-2.984510383414912,1.3446403993605711
Cricklewood,CRI,2.0,51.5584516063089,-0.21267663535896,53.40631168010053,-2.984510383414912,3.331313431542447
Croftfoot,CFF,2.0,55.8182615046635,-4.2283256121718,53.40631168010053,-2.984510383414912,2.7137756501776042
Crofton Park,CFT,2.0,51.4551875557246,-0.0365030454664447,53.40631168010053,-2.984510383414912,3.5351990910442015
Cromer,CMR,1.0,52.930080690008,1.29282430287158,53.40631168010053,-2.984510383414912,4.303764395785866
Cromford,CMF,2.0,53.1129329746475,-1.5491620139343,53.40631168010053,-2.984510383414912,1.4650242341285509
Crookston,CKT,2.0,55.842318324364,-4.3646760010174,53.40631168010053,-2.984510383414912,2.799818833944053
Cross Gates,CRG,0.0,53.8049143949973,-1.45158048553366,53.40631168010053,-2.984510383414912,1.5839059934671944
Crossflatts,CFL,1.0,53.85846717734,-1.84488619236594,53.40631168010053,-2.984510383414912,1.22604563149497
Crosshill,COI,2.0,55.833290292641,-4.25681226287329,53.40631168010053,-2.984510383414912,2.7402513129642334
Crosskeys,CKY,2.0,51.6209052713811,-3.12617046220163,53.40631168010053,-2.984510383414912,1.7910174823876728
Crossmyloof,CMY,2.0,55.8339508036377,-4.28431839013047,53.40631168010053,-2.984510383414912,2.7537125064992143
Croston,CSO,1.0,53.6675629248262,-2.7777501372441,53.40631168010053,-2.984510383414912,0.33316964487679107
Crouch Hill,CRH,2.0,51.5713003694514,-0.117148819750171,53.40631168010053,-2.984510383414912,3.4042662714588214
Crowborough,COH,2.0,51.0463795309772,0.188012411090755,53.40631168010053,-2.984510383414912,3.954008172743692
Crowhurst,CWU,2.0,50.8885767869689,0.501336510177375,53.40631168010053,-2.984510383414912,4.300013669473569
Crowle,CWE,1.0,53.5897328427991,-0.81735865187716,53.40631168010053,-2.984510383414912,2.174899986305755
Crowthorne,CRN,2.0,51.366727169526,-0.819273411974494,53.40631168010053,-2.984510383414912,2.974585032953002
Croy,CRO,2.0,55.9556821274184,-4.0359768431357,53.40631168010053,-2.984510383414912,2.757693128971293
Crystal Palace,CYP,2.0,51.4181074460731,-0.072609878955063,53.40631168010053,-2.984510383414912,3.5259212447356387
Cuddington,CUD,1.0,53.2399218257185,-2.59930662534034,53.40631168010053,-2.984510383414912,0.41960400245475193
Cuffley,CUF,2.0,51.7087202077633,-0.10978341309134,53.40631168010053,-2.984510383414912,3.338543389093188
Culham,CUM,2.0,51.6537935596445,-1.23651383491957,53.40631168010053,-2.984510383414912,2.4752397249717792
Culrain,CUA,2.0,57.9195183107936,-4.40427167605383,53.40631168010053,-2.984510383414912,4.731253134150362
Cumbernauld,CUB,2.0,55.9420305501203,-3.98033519205288,53.40631168010053,-2.984510383414912,2.7242498485405466
Cupar,CUP,1.0,56.3169904139478,-3.00875666756718,53.40631168010053,-2.984510383414912,2.910779719244646
Curriehill,CUH,2.0,55.9005690535793,-3.3187519699346,53.40631168010053,-2.984510383414912,2.5165526585613893
Cuxton,CUX,2.0,51.3739241251142,0.46170858180193,53.40631168010053,-2.984510383414912,4.000877944887041
Cwmbach,CMH,2.0,51.7019311514616,-3.41372372042933,53.40631168010053,-2.984510383414912,1.7575941155666646
Cwmbran,CWM,1.0,51.656589162343,-3.01620383997003,53.40631168010053,-2.984510383414912,1.7500095326415075
Cynghordy,CYN,1.0,52.0515022362178,-3.7482113284355,53.40631168010053,-2.984510383414912,1.5552323822050418
Dagenham Dock,DDK,2.0,51.5260877297843,0.146102888033722,53.40631168010053,-2.984510383414912,3.6518463218915826
Daisy Hill,DSY,1.0,53.5394553429484,-2.51586138257427,53.40631168010053,-2.984510383414912,0.48719515693968013
Dalgety Bay,DAG,2.0,56.0420983541516,-3.36772120470528,53.40631168010053,-2.984510383414912,2.663498061696166
Dalmally,DAL,2.0,56.4011953995722,-4.98355341151622,53.40631168010053,-2.984510383414912,3.600764019115517
Dalmarnock,DAK,2.0,55.8420903351636,-4.2177095618254,53.40631168010053,-2.984510383414912,2.730164440119523
Dalmeny,DAM,2.0,55.9863224095627,-3.38162023146767,53.40631168010053,-2.984510383414912,2.6103929963820436
Dalmuir,DMR,2.0,55.9119346513924,-4.42668195442919,53.40631168010053,-2.984510383414912,2.8910215001807393
Dalreoch,DLR,2.0,55.9474206110829,-4.57786407515961,53.40631168010053,-2.984510383414912,2.999335023986952
Dalry,DLY,2.0,55.7062259599313,-4.71108082709015,53.40631168010053,-2.984510383414912,2.8758739874240686
Dalston (Cumbria),DLS,2.0,54.8461793005894,-2.98885243258072,53.40631168010053,-2.984510383414912,1.4398741673921494
Dalston Junction,DLJ,2.0,51.5461140533343,-0.075137571913028,53.40631168010053,-2.984510383414912,3.4532282529443505
Dalston Kingsland,DLK,2.0,51.548146614991,-0.0757008270787684,53.40631168010053,-2.984510383414912,3.451659085747893
Dalton (Cumbria),DLT,1.0,54.1542402484565,-3.17900332996882,53.40631168010053,-2.984510383414912,0.772803111809365
Dalwhinnie,DLW,2.0,56.9351747606959,-4.24619941232607,53.40631168010053,-2.984510383414912,3.7476304309875377
Danby,DNY,2.0,54.4661531404483,-0.910955849347219,53.40631168010053,-2.984510383414912,2.328710442889965
Danescourt,DCT,2.0,51.5005094348701,-3.2339173943314,53.40631168010053,-2.984510383414912,1.9220525630220564
Danzey,DZY,1.0,52.3248139247282,-1.82087736085094,53.40631168010053,-2.984510383414912,1.588609204957833
Darlington,DAR,0.0,54.5204487638895,-1.5473239913848,53.40631168010053,-2.984510383414912,1.8184625833132548
Darnall,DAN,1.0,53.3845848539264,-1.4125672166063,53.40631168010053,-2.984510383414912,1.5720933097789993
Darsham,DSM,2.0,52.2729949292624,1.52346982245693,53.40631168010053,-2.984510383414912,4.6482569199929795
Dartford,DFD,2.0,51.4473686091583,0.219247795125754,53.40631168010053,-2.984510383414912,3.7551996513845656
Darton,DRT,1.0,53.5883685698073,-1.53165757467506,53.40631168010053,-2.984510383414912,1.464215146401983
Darwen,DWN,1.0,53.6980382551398,-2.46494001713562,53.40631168010053,-2.984510383414912,0.5958672336181448
Datchet,DAT,2.0,51.4830761133821,-0.579421910690656,53.40631168010053,-2.984510383414912,3.0794943751729544
Davenport,DVN,1.0,53.3909022414929,-2.15295802817964,53.40631168010053,-2.984510383414912,0.8316951185954685
Dawlish,DWL,1.0,50.5808243984253,-3.46462586729764,53.40631168010053,-2.984510383414912,2.8659883560078234
Dawlish Warren,DWW,2.0,50.5987145190544,-3.44356213176095,53.40631168010053,-2.984510383414912,2.8448779106270723
Deal,DEA,2.0,51.2230404404227,1.39884675211659,53.40631168010053,-2.984510383414912,4.896988164537392
Dean (Wilts),DEN,2.0,51.0424618999667,-1.63486720856804,53.40631168010053,-2.984510383414912,2.722007068772872
Deansgate,DGT,0.0,53.4741857640751,-2.25105124318295,53.40631168010053,-2.984510383414912,0.7365929687861513
Deganwy,DGY,1.0,53.2947519812566,-3.83338710286836,53.40631168010053,-2.984510383414912,0.8561759464246795
Deighton,DHN,1.0,53.6684837829464,-1.75189659292689,53.40631168010053,-2.984510383414912,1.2601868782096872
Delamere,DLM,1.0,53.2287779256449,-2.66656070710605,53.40631168010053,-2.984510383414912,0.36415687640908584
Denby Dale,DBD,1.0,53.5726320929315,-1.66321052492305,53.40631168010053,-2.984510383414912,1.3317266220117698
Denham,DNM,2.0,51.578836362709,-0.497436854492594,53.40631168010053,-2.984510383414912,3.0862923992942393
Denham Golf Club,DGC,2.0,51.580596815156,-0.51778668246761,53.40631168010053,-2.984510383414912,3.068869593986453
Denmark Hill,DMK,2.0,51.4682011118168,-0.0893608845630425,53.40631168010053,-2.984510383414912,3.4839866813171514
Dent,DNT,1.0,54.2824108456213,-2.36359889232972,53.40631168010053,-2.984510383414912,1.073816011981488
Denton,DTN,1.0,53.4568674739172,-2.13165979003999,53.40631168010053,-2.984510383414912,0.8543477177990181
Deptford,DEP,2.0,51.4788463642079,-0.026270214115525,53.40631168010053,-2.984510383414912,3.5307658437264786
Derby,DBY,1.0,52.9165485818253,-1.46335478012848,53.40631168010053,-2.984510383414912,1.5980557755728857
Derby Road (Ipswich),DBR,2.0,52.050551175491,1.18264326424955,53.40631168010053,-2.984510383414912,4.382151990643673
Devonport (Devon),DPT,2.0,50.3785384996853,-4.17071080992923,53.40631168010053,-2.984510383414912,3.2518428442814566
Devonport Dockyard,DOC,2.0,50.3821742019037,-4.1758986568326,53.40631168010053,-2.984510383414912,3.250355904369835
Dewsbury,DEW,1.0,53.6921323675954,-1.63310655566078,53.40631168010053,-2.984510383414912,1.3812985814329064
Didcot Parkway,DID,2.0,51.6109546860743,-1.24289356096081,53.40631168010053,-2.984510383414912,2.501306836886274
Digby & Sowton,DIG,2.0,50.713993328666,-3.47356109719659,53.40631168010053,-2.984510383414912,2.7363751033294967
Dilton Marsh,DMH,2.0,51.2489890910928,-2.20791557793657,53.40631168010053,-2.984510383414912,2.2928454472421262
Dinas (Rhondda),DMG,2.0,51.6178378851192,-3.43754173872447,53.40631168010053,-2.984510383414912,1.8449595996196042
Dinas Powys,DNS,2.0,51.4316678020878,-3.21835212130232,53.40631168010053,-2.984510383414912,1.9884417022762693
Dingle Road,DGL,2.0,51.4400570944876,-3.18059109298652,53.40631168010053,-2.984510383414912,1.9760072722816533
Dingwall,DIN,2.0,57.59424066943,-4.42219986587001,53.40631168010053,-2.984510383414912,4.427832457041275
Dinsdale,DND,1.0,54.5147295901116,-1.46706513570219,53.40631168010053,-2.984510383414912,1.8791568170430144
Dinting,DTG,1.0,53.4493321635491,-1.97029878612479,53.40631168010053,-2.984510383414912,1.0151236013776497
Disley,DSL,1.0,53.3581843467523,-2.04248177088045,53.40631168010053,-2.984510383414912,0.9432572008995291
Diss,DIS,1.0,52.3736543722193,1.12369734579394,53.40631168010053,-2.984510383414912,4.236006593697874
Dodworth,DOD,1.0,53.5443255754093,-1.53169088048623,53.40631168010053,-2.984510383414912,1.4593602514075283
Dolau,DOL,1.0,52.29535399865,-3.26362091602153,53.40631168010053,-2.984510383414912,1.1454822824408437
Doleham,DLH,2.0,50.9185854757412,0.609974730800684,53.40631168010053,-2.984510383414912,4.3713962190784725
Dolgarrog,DLG,2.0,53.1863525124092,-3.82263691779208,53.40631168010053,-2.984510383414912,0.8665091592583103
Dolwyddelan,DWD,2.0,53.0520169904365,-3.88513298649778,53.40631168010053,-2.984510383414912,0.967804629203587
Doncaster,DON,1.0,53.5221497040669,-1.13984532561563,53.40631168010053,-2.984510383414912,1.8482985752475334
Dorchester South,DCH,2.0,50.7092941817416,-2.43724302167314,53.40631168010053,-2.984510383414912,2.751982004243863
Dorchester West,DCW,2.0,50.7109558301461,-2.44254130185048,53.40631168010053,-2.984510383414912,2.7493042107513985
Dore & Totley,DOR,0.0,53.3276351284421,-1.51529775653157,53.40631168010053,-2.984510383414912,1.4713176892752675
Dorking (Main),DKG,2.0,51.2409286574082,-0.324250782074152,53.40631168010053,-2.984510383414912,3.4301406358179953
Dorking Deepdene,DPD,2.0,51.2388030074627,-0.324643185528021,53.40631168010053,-2.984510383414912,3.4311787123895
Dorking West,DKT,2.0,51.2362248191187,-0.339978560509645,53.40631168010053,-2.984510383414912,3.420939278409456
Dormans,DMS,2.0,51.1557900843982,-0.00430826569700688,53.40631168010053,-2.984510383414912,3.7344948942491345
Dorridge,DDG,2.0,52.3720695979365,-1.7529004491151,53.40631168010053,-2.984510383414912,1.6082660584570485
Dove Holes,DVH,1.0,53.3000293384446,-1.88975176117671,53.40631168010053,-2.984510383414912,1.0999056219116043
Dover Priory,DVP,2.0,51.1256965964877,1.30529347028767,53.40631168010053,-2.984510383414912,4.858355921795343
Dovercourt,DVC,2.0,51.9387345600673,1.28061089295205,53.40631168010053,-2.984510383414912,4.510547871973333
Dovey Junction,DVY,1.0,52.5643635350253,-3.92390297461625,53.40631168010053,-2.984510383414912,1.2614813194810228
Downham Market,DOW,1.0,52.6041065863828,0.365681057551921,53.40631168010053,-2.984510383414912,3.4448970526728515
Drayton Green,DRG,2.0,51.516615460614,-0.33019425245541,53.40631168010053,-2.984510383414912,3.2582734576786994
Drayton Park,DYP,2.0,51.5527683445258,-0.105509008966857,53.40631168010053,-2.984510383414912,3.424072401531147
Drem,DRM,2.0,56.0051254677484,-2.78604825861367,53.40631168010053,-2.984510383414912,2.606380693193014
Driffield,DRF,1.0,54.0015272627459,-0.434665009990613,53.40631168010053,-2.984510383414912,2.618395122627059
Drigg,DRI,2.0,54.3769633209494,-3.44341362306065,53.40631168010053,-2.984510383414912,1.0736651206218628
Droitwich Spa,DTW,1.0,52.2682048110456,-2.15836341611519,53.40631168010053,-2.984510383414912,1.4063449281625555
Dronfield,DRO,0.0,53.301369608262,-1.46877868224617,53.40631168010053,-2.984510383414912,1.5193602036283733
Drumchapel,DMC,2.0,55.9048173082117,-4.36287986166729,53.40631168010053,-2.984510383414912,2.853494838313347
Drumfrochar,DFR,2.0,55.941253590074,-4.7747672712099,53.40631168010053,-2.984510383414912,3.1033772267059856
Drumgelloch,DRU,2.0,55.8673580650901,-3.94888294626481,53.40631168010053,-2.984510383414912,2.6432487111597958
Drumry,DMY,2.0,55.9045972303031,-4.38547328830428,53.40631168010053,-2.984510383414912,2.864284858603802
Dublin Ferryport,DFP,2.0,nan,nan,53.40631168010053,-2.984510383414912,nan
Dublin Port - Stena,DPS,2.0,nan,nan,53.40631168010053,-2.984510383414912,nan
Duddeston,DUD,0.0,52.4883642047734,-1.87139067866748,53.40631168010053,-2.984510383414912,1.4427969519500885
Dudley Port,DDP,1.0,52.5246530129006,-2.04947980373852,53.40631168010053,-2.984510383414912,1.2851475364247968
Duffield,DFI,2.0,52.9884014400862,-1.48597186949023,53.40631168010053,-2.984510383414912,1.5557206196565079
Duirinish,DRN,2.0,57.319983293958,-5.69131781581449,53.40631168010053,-2.984510383414912,4.758532544514891
Duke Street,DST,2.0,55.8584414373244,-4.2130485563449,53.40631168010053,-2.984510383414912,2.7426713963960316
Dullingham,DUL,2.0,52.2016485756332,0.366663821056869,53.40631168010053,-2.984510383414912,3.5611208550092677
Dumbarton Central,DBC,2.0,55.9466604798905,-4.566921701259,53.40631168010053,-2.984510383414912,2.9928911780142275
Dumbarton East,DBE,2.0,55.9422524714118,-4.55413782204535,53.40631168010053,-2.984510383414912,2.9824027214878233
Dumbreck,DUM,2.0,55.8446540909046,-4.30124003607443,53.40631168010053,-2.984510383414912,2.7711533141489393
Dumfries,DMF,2.0,55.072560279693,-3.60430398071058,53.40631168010053,-2.984510383414912,1.777787529175682
Dumpton Park,DMP,2.0,51.3456955683759,1.42581850787212,53.40631168010053,-2.984510383414912,4.867970797901341
Dunbar,DUN,1.0,55.9982961094783,-2.51334649990357,53.40631168010053,-2.984510383414912,2.6344598473429577
Dunblane,DBL,1.0,56.1858943626205,-3.96548684337943,53.40631168010053,-2.984510383414912,2.947608302330797
Duncraig,DCG,2.0,57.3370088020812,-5.63713233286221,53.40631168010053,-2.984510383414912,4.742023098998645
Dundee,DEE,1.0,56.4564890772048,-2.97120503713119,53.40631168010053,-2.984510383414912,3.0502064169569763
Dunfermline Queen Margaret,DFL,2.0,56.0805782860466,-3.42146840922136,53.40631168010053,-2.984510383414912,2.709729542960883
Dunfermline Town,DFE,2.0,56.068193893139,-3.45252931740364,53.40631168010053,-2.984510383414912,2.7027131994835325
Dunkeld & Birnam,DKD,2.0,56.5570605801315,-3.57839962708896,53.40631168010053,-2.984510383414912,3.2062319106387323
Dunlop,DNL,2.0,55.7118854515322,-4.53238991249355,53.40631168010053,-2.984510383414912,2.776977034844608
Dunrobin Castle,DNO,-999.0,57.9855381206844,-3.94892170714185,53.40631168010053,-2.984510383414912,4.679679903099697
Dunston,DOT,1.0,54.9500563207881,-1.64204458851339,53.40631168010053,-2.984510383414912,2.0458157116739946
Dunton Green,DNG,2.0,51.2964882631909,0.170937116397448,53.40631168010053,-2.984510383414912,3.795813980506986
Durham,DHM,0.0,54.7793912284615,-1.58175210120156,53.40631168010053,-2.984510383414912,1.9629259396231225
Durrington-on-Sea,DUR,2.0,50.8175268119417,-0.411468707281776,53.40631168010053,-2.984510383414912,3.6499795288091907
Dyce,DYC,2.0,57.2056516865783,-2.19232258891137,53.40631168010053,-2.984510383414912,3.8810495985729028
Dyffryn Ardudwy,DYF,1.0,52.7888563835265,-4.10464455585967,53.40631168010053,-2.984510383414912,1.2790432391228312
Eaglescliffe,EAG,1.0,54.5294320938467,-1.34943715428009,53.40631168010053,-2.984510383414912,1.9836491444826492
Ealing Broadway,EAL,2.0,51.5148402459065,-0.301751768794788,53.40631168010053,-2.984510383414912,3.282507878237387
Earlestown,ERL,0.0,53.4511393445328,-2.63766364961555,53.40631168010053,-2.984510383414912,0.34973157742150984
Earley,EAR,2.0,51.4410997593376,-0.917988243278776,53.40631168010053,-2.984510383414912,2.851766408593378
Earlsfield,EAD,2.0,51.4423355716453,-0.187714934858848,53.40631168010053,-2.984510383414912,3.417494248078094
Earlswood (Surrey),ELD,2.0,51.2273270225923,-0.170823068766138,53.40631168010053,-2.984510383414912,3.5587652974411914
Earlswood (West Midlands),EWD,1.0,52.3665825052423,-1.8611697000963,53.40631168010053,-2.984510383414912,1.5306635972185736
East Croydon,ECR,1.0,51.375452247008,-0.0927797007945513,53.40631168010053,-2.984510383414912,3.5336236893292603
East Didsbury,EDY,0.0,53.4093102676041,-2.22199660364924,53.40631168010053,-2.984510383414912,0.7625196757196162
East Dulwich,EDW,2.0,51.4614929058056,-0.0805717011574361,53.40631168010053,-2.984510383414912,3.495022165188845
East Farleigh,EFL,2.0,51.2552351625774,0.48472893141574,53.40631168010053,-2.984510383414912,4.082003381650496
East Garforth,EGF,1.0,53.791978068865,-1.37053696173991,53.40631168010053,-2.984510383414912,1.6594121758309301
East Grinstead,EGR,2.0,51.1262718897162,-0.0179000957224751,53.40631168010053,-2.984510383414912,3.741571600915639
East Kilbride,EKL,2.0,55.7660084213155,-4.18022795719083,53.40631168010053,-2.984510383414912,2.645356162549215
East Malling,EML,2.0,51.2858073765709,0.439280267235468,53.40631168010053,-2.984510383414912,4.027267177723453
East Midlands Parkway,EMD,1.0,52.8625009507858,-1.26323198480542,53.40631168010053,-2.984510383414912,1.8051397272337324
East Tilbury,ETL,2.0,51.4848289691417,0.412927781783206,53.40631168010053,-2.984510383414912,3.903163062806682
East Worthing,EWR,2.0,50.8216440311297,-0.354893751833792,53.40631168010053,-2.984510383414912,3.687192764790638
Eastbourne,EBN,2.0,50.769375796356,0.281246925814933,53.40631168010053,-2.984510383414912,4.197451805294218
Eastbrook,EBK,2.0,51.4376389302109,-3.20613799233607,53.40631168010053,-2.984510383414912,1.9811085768311887
Easterhouse,EST,2.0,55.8597611434519,-4.10717729312099,53.40631168010053,-2.984510383414912,2.698109571416275
Eastham Rake,ERA,0.0,53.307541541813,-2.98113292052366,53.40631168010053,-2.984510383414912,0.098827867896252
Eastleigh,ESL,2.0,50.9692506626551,-1.35008459359062,53.40631168010053,-2.984510383414912,2.934384784787931
Eastrington,EGN,1.0,53.7551607566439,-0.787630411364113,53.40631168010053,-2.984510383414912,2.224404929369445
Ebbsfleet International,EBD,2.0,51.4429709652907,0.32092083234529,53.40631168010053,-2.984510383414912,3.8445522866195936
Ebbw Vale Parkway,EBV,2.0,51.7571470124788,-3.19610327359543,53.40631168010053,-2.984510383414912,1.6626832687276447
Ebbw Vale Town,EBB,2.0,51.7766914366017,-3.20257748551815,53.40631168010053,-2.984510383414912,1.6441457961631265
Eccles (Manchester),ECC,0.0,53.4853606544673,-2.33451459617625,53.40631168010053,-2.984510383414912,0.6547848988610276
Eccles Road,ECS,0.0,52.470880756208,0.9699171605498,53.40631168010053,-2.984510383414912,4.063561026223332
Eccleston Park,ECL,0.0,53.4307889509427,-2.78004194630839,53.40631168010053,-2.984510383414912,0.2059283335548186
Edale,EDL,0.0,53.3649724276593,-1.81662641323107,53.40631168010053,-2.984510383414912,1.1686153779600765
Eden Park,EDN,2.0,51.3900893651293,-0.0263551602667185,53.40631168010053,-2.984510383414912,3.57992105326736
Edenbridge,EBR,2.0,51.2084338014699,0.0606462610283875,53.40631168010053,-2.984510383414912,3.755482147284293
Edenbridge Town,EBT,2.0,51.2000809020151,0.0671730164326339,53.40631168010053,-2.984510383414912,3.765664060836615
Edge Hill,EDG,0.0,53.4026192646978,-2.94648344109004,53.40631168010053,-2.984510383414912,0.0382057884892524
Edinburgh,EDB,1.0,55.9523963079519,-3.18822824323027,53.40631168010053,-2.984510383414912,2.554221583690187
Edinburgh Gateway,EGY,2.0,55.9409436079933,-3.32025199802754,53.40631168010053,-2.984510383414912,2.556771683525165
Edinburgh Park,EDP,2.0,55.9275544602882,-3.30766474611863,53.40631168010053,-2.984510383414912,2.5418681906784424
Edmonton Green,EDR,2.0,51.6249271577681,-0.061112495341183,53.40631168010053,-2.984510383414912,3.4233880919930013
Effingham Junction,EFF,2.0,51.2914943131304,-0.419965418267021,53.40631168010053,-2.984510383414912,3.3240552603565225
Eggesford,EGG,2.0,50.8877413451847,-3.8747459315936,53.40631168010053,-2.984510383414912,2.671276073931528
Egham,EGH,2.0,51.4296459643391,-0.546512233572854,53.40631168010053,-2.984510383414912,3.1386370179585814
Egton,EGT,1.0,54.4374810712663,-0.761464966771902,53.40631168010053,-2.984510383414912,2.45055937241575
Elephant & Castle,EPH,1.0,51.4940272342536,-0.098725576447673,53.40631168010053,-2.984510383414912,3.4618760454341864
Elephant & Castle (Underground),ZEL,-999.0,nan,nan,53.40631168010053,-2.984510383414912,nan
Elgin,ELG,2.0,57.6429130327793,-3.3112465068439,53.40631168010053,-2.984510383414912,4.249181981966996
Ellesmere Port,ELP,0.0,53.2821939982944,-2.89642303912049,53.40631168010053,-2.984510383414912,0.152199143104588
Elmers End,ELE,2.0,51.3984907228231,-0.0495703490218307,53.40631168010053,-2.984510383414912,3.5560115300664763
Elmstead Woods,ESD,2.0,51.4171158227735,0.0442740591944571,53.40631168010053,-2.984510383414912,3.623594259654294
Elmswell,ESW,2.0,52.2380370806758,0.912589403049404,53.40631168010053,-2.984510383414912,4.068445929998483
Elsecar,ELR,1.0,53.4986597288227,-1.42742391502071,53.40631168010053,-2.984510383414912,1.5598225643191346
Elsenham (Essex),ESM,2.0,51.9205434621908,0.228070270071964,53.40631168010053,-2.984510383414912,3.539517149627731
Elstree & Borehamwood,ELS,2.0,51.653068116385,-0.280081540392811,53.40631168010053,-2.984510383414912,3.223010760248837
Eltham,ELW,2.0,51.4556417308034,0.0524723310748576,53.40631168010053,-2.984510383414912,3.609484348102997
Elton & Orston,ELO,1.0,52.9521360042829,-0.855512437952713,53.40631168010053,-2.984510383414912,2.176903258366496
Ely,ELY,0.0,52.3912277010784,0.266827583237292,53.40631168010053,-2.984510383414912,3.4061112808981284
Emerson Park,EMP,2.0,51.5686403621106,0.220113229215512,53.40631168010053,-2.984510383414912,3.6941370266398232
Emsworth,EMS,2.0,50.8516141341351,-0.938429764103964,53.40631168010053,-2.984510383414912,3.2730605634607
Energlyn & Churchill Park,ECP,2.0,51.5832164323409,-3.22879606589368,53.40631168010053,-2.984510383414912,1.839388968398982
Enfield Chase,ENC,2.0,51.6532525338014,-0.0906963712828411,53.40631168010053,-2.984510383414912,3.3833970957064654
Enfield Lock,ENL,2.0,51.6709204354558,-0.0285324658222715,53.40631168010053,-2.984510383414912,3.4277380619418563
Enfield Town,ENF,2.0,51.6520239893496,-0.0793276428368423,53.40631168010053,-2.984510383414912,3.393760754395178
Entwistle,ENT,1.0,53.6559786935683,-2.41454505509583,53.40631168010053,-2.984510383414912,0.6222492210519796
Epsom (Surrey),EPS,2.0,51.3343914612577,-0.268777680483958,53.40631168010053,-2.984510383414912,3.4158538474323477
Epsom Downs,EPD,2.0,51.3236861855796,-0.2389548499911,53.40631168010053,-2.984510383414912,3.4460708259614563
Erdington,ERD,1.0,52.5282854859969,-1.83950909009634,53.40631168010053,-2.984510383414912,1.4428991507493865
Eridge,ERI,2.0,51.0889635853662,0.201431713057724,53.40631168010053,-2.984510383414912,3.939584906337884
Erith,ERH,2.0,51.481668933412,0.175054448859463,53.40631168010053,-2.984510383414912,3.6996080375798943
Esher,ESH,2.0,51.3798899750361,-0.353337838372063,53.40631168010053,-2.984510383414912,3.321062162703898
Eskbank,EKB,2.0,55.8818057426337,-3.08307353739981,53.40631168010053,-2.984510383414912,2.4774554585219977
Essex Road,EXR,2.0,51.5407037990573,-0.0962760595924929,53.40631168010053,-2.984510383414912,3.4383702934844824
Etchingham,ETC,2.0,51.0105437070136,0.442356266553348,53.40631168010053,-2.984510383414912,4.181282006458512
Euxton Balshaw Lane,EBA,0.0,53.6604819715387,-2.67202385840804,53.40631168010053,-2.984510383414912,0.40280313474529406
Evesham,EVE,2.0,52.0983985539654,-1.94731370609441,53.40631168010053,-2.984510383414912,1.6692554307119234
Ewell East,EWE,2.0,51.3452982319215,-0.241529638967969,53.40631168010053,-2.984510383414912,3.4309939956201516
Ewell West,EWW,2.0,51.3500435722978,-0.256986619886036,53.40631168010053,-2.984510383414912,3.4157904519717457
Exeter Central,EXC,2.0,50.726488241429,-3.53327709081269,53.40631168010053,-2.984510383414912,2.7354338890935535
Exeter St David's,EXD,1.0,50.729278976491,-3.54328686333265,53.40631168010053,-2.984510383414912,2.7347276373899083
Exeter St Thomas,EXT,2.0,50.7171518711947,-3.53883698274128,53.40631168010053,-2.984510383414912,2.745698172879744
Exhibition Centre (Glasgow),EXG,2.0,55.8615560763509,-4.28358973053668,53.40631168010053,-2.984510383414912,2.7777386837924785
Exmouth,EXM,2.0,50.6216387262065,-3.41497227480739,53.40631168010053,-2.984510383414912,2.817747486928184
Exton,EXN,2.0,50.6683075102992,-3.44409684947275,53.40631168010053,-2.984510383414912,2.7763080797406103
Eynsford,EYN,2.0,51.3627183040984,0.204393120925889,53.40631168010053,-2.984510383414912,3.7875294647615374
Fairbourne,FRB,1.0,52.6960464630273,-4.04941426648684,53.40631168010053,-2.984510383414912,1.2800378739575446
Fairfield,FRF,1.0,53.471295546374,-2.14577519882972,53.40631168010053,-2.984510383414912,0.8412488411504678
Fairlie,FRL,2.0,55.7519484298977,-4.85326868616408,53.40631168010053,-2.984510383414912,2.999044740595411
Fairwater,FRW,2.0,51.4939101690858,-3.23383998994953,53.40631168010053,-2.984510383414912,1.9285862158654261
Falconwood,FCN,2.0,51.4591526356848,0.0793044770026859,53.40631168010053,-2.984510383414912,3.6302052067570054
Falkirk Grahamston,FKG,1.0,56.0026177290346,-3.78504688532692,53.40631168010053,-2.984510383414912,2.716921749080224
Falkirk High,FKK,2.0,55.9918195759738,-3.79224489222847,53.40631168010053,-2.984510383414912,2.7087425341570035
Falls of Cruachan,FOC,-999.0,56.393889401057,-5.11247911920548,53.40631168010053,-2.984510383414912,3.667951959780496
Falmer,FMR,2.0,50.8621274713423,-0.0873855066246158,53.40631168010053,-2.984510383414912,3.8556719051044706
Falmouth Docks,FAL,2.0,50.1507142799667,-5.05602948101336,53.40631168010053,-2.984510383414912,3.8587699858210316
Falmouth Town,FMT,2.0,50.1483473407862,-5.06493628645553,53.40631168010053,-2.984510383414912,3.865553462867408
Fareham,FRM,2.0,50.8530338308312,-1.19203724188042,53.40631168010053,-2.984510383414912,3.119645450799167
Farnborough (Main),FNB,2.0,51.296604884603,-0.755725724931643,53.40631168010053,-2.984510383414912,3.0689320319711935
Farnborough North,FNN,2.0,51.3020444491095,-0.743026929007782,53.40631168010053,-2.984510383414912,3.0744411940714635
Farncombe,FNC,2.0,51.1971531239671,-0.604548878459314,53.40631168010053,-2.984510383414912,3.24724472302413
Farnham,FNH,2.0,51.2119042298562,-0.792427196436538,53.40631168010053,-2.984510383414912,3.101717710611505
Farningham Road,FNR,2.0,51.4016634815392,0.235452055986937,53.40631168010053,-2.984510383414912,3.7929899170909853
Farnworth,FNW,1.0,53.5500060922431,-2.38784997242115,53.40631168010053,-2.984510383414912,0.6137195859089432
Farringdon,ZFD,2.0,51.5201655608346,-0.105204669877814,53.40631168010053,-2.984510383414912,3.4420849169114502
Fauldhouse,FLD,2.0,55.8224777300448,-3.71931936502271,53.40631168010053,-2.984510383414912,2.5254311751371885
Faversham,FAV,2.0,51.3117105445912,0.891044848807162,53.40631168010053,-2.984510383414912,4.40536970921634
Faygate,FGT,2.0,51.095889351236,-0.263018670595782,53.40631168010053,-2.984510383414912,3.5699535684178
Fazakerley,FAZ,0.0,53.4690878780859,-2.93672370069026,53.40631168010053,-2.984510383414912,0.07889498133167376
Fearn,FRN,2.0,57.7781470089061,-3.99393654949616,53.40631168010053,-2.984510383414912,4.486856954145299
Featherstone,FEA,1.0,53.6790669195959,-1.35844424440448,53.40631168010053,-2.984510383414912,1.6487833420763534
Felixstowe,FLX,2.0,51.9670684291527,1.35043499148186,53.40631168010053,-2.984510383414912,4.5676221974609295
Feltham,FEL,2.0,51.4478973442697,-0.409838240699482,53.40631168010053,-2.984510383414912,3.2348606389244314
Feniton,FNT,2.0,50.7866805768598,-3.28541829669429,53.40631168010053,-2.984510383414912,2.6368565924866645
Fenny Stratford,FEN,2.0,52.0000683454646,-0.715997362186537,53.40631168010053,-2.984510383414912,2.6690207274749054
Fernhill,FER,2.0,51.6864988102667,-3.39588328122109,53.40631168010053,-2.984510383414912,1.7683280149043417
Ferriby,FRY,1.0,53.7171537976793,-0.507830473428837,53.40631168010053,-2.984510383414912,2.4961102136302973
Ferryside,FYS,1.0,51.7683725332786,-4.36945917743674,53.40631168010053,-2.984510383414912,2.1449773450445253
Ffairfach,FFA,1.0,51.8724792728464,-3.9928602757854,53.40631168010053,-2.984510383414912,1.8355956414707946
Filey,FIL,1.0,54.2098572113142,-0.293849397915568,53.40631168010053,-2.984510383414912,2.808085105480559
Filton Abbey Wood,FIT,1.0,51.5049414768014,-2.56243092363725,53.40631168010053,-2.984510383414912,1.9476549284613998
Finchley Road & Frognal,FNY,2.0,51.5502644624917,-0.183140600658463,53.40631168010053,-2.984510383414912,3.360444008421269
Finsbury Park,FPK,1.0,51.5643002449157,-0.106284978884699,53.40631168010053,-2.984510383414912,3.417190016173345
Finstock,FIN,2.0,51.852782857678,-1.4693431033147,53.40631168010053,-2.984510383414912,2.1700653650947483
Fishbourne (Sussex),FSB,2.0,50.839050994238,-0.815084252072113,53.40631168010053,-2.984510383414912,3.361136291275366
Fishersgate,FSG,2.0,50.8342331969519,-0.219423238635621,53.40631168010053,-2.984510383414912,3.7764129331549334
Fishguard & Goodwick,FGW,1.0,52.0041205147366,-4.99483911549407,53.40631168010053,-2.984510383414912,2.451032777269136
Fishguard Harbour,FGH,1.0,52.0115490590944,-4.98564336378428,53.40631168010053,-2.984510383414912,2.4392408602017714
Fiskerton,FSK,1.0,53.060273739149,-0.912187610219373,53.40631168010053,-2.984510383414912,2.101014976834488
Fitzwilliam,FZW,1.0,53.6325012276325,-1.37427316573517,53.40631168010053,-2.984510383414912,1.6260460044579659
Five Ways,FWY,1.0,52.471096381369,-1.91295451976274,53.40631168010053,-2.984510383414912,1.4222726967458994
Fleet,FLE,2.0,51.290634463196,-0.830805697283605,53.40631168010053,-2.984510383414912,3.019028645308429
Flimby,FLM,2.0,54.6896909968798,-3.5207407041013,53.40631168010053,-2.984510383414912,1.3909009409588615
Flint,FLN,1.0,53.249527518706,-3.13299365746619,53.40631168010053,-2.984510383414912,0.215936462731915
Flitwick,FLT,2.0,52.0036411879386,-0.495257873996204,53.40631168010053,-2.984510383414912,2.8572473755748087
Flixton,FLI,0.0,53.443809978016,-2.38424675876937,53.40631168010053,-2.984510383414912,0.6014337381783311
Flowery Field,FLF,1.0,53.4618562073799,-2.08105317397333,53.40631168010053,-2.984510383414912,0.9051630371389786
Folkestone Central,FKC,2.0,51.0828838914415,1.16948226479176,53.40631168010053,-2.984510383414912,4.759618851385905
Folkestone West,FKW,2.0,51.084582896074,1.15390330754187,53.40631168010053,-2.984510383414912,4.7451967740100995
Ford,FOD,2.0,50.8293930308604,-0.578410029818067,53.40631168010053,-2.984510383414912,3.525596210058722
Forest Gate,FOG,2.0,51.5494301979489,0.0243528171904902,53.40631168010053,-2.984510383414912,3.535713025503486
Forest Hill,FOH,2.0,51.4392784872536,-0.0531571058976325,53.40631168010053,-2.984510383414912,3.5301631151227095
Formby,FBY,0.0,53.5534804308434,-3.07090821445518,53.40631168010053,-2.984510383414912,0.17065528530836668
Forres,FOR,2.0,57.6098000095499,-3.62595038813861,53.40631168010053,-2.984510383414912,4.252147623904537
Forsinard,FRS,2.0,58.3569037821129,-3.89688108603807,53.40631168010053,-2.984510383414912,5.033962898106457
