Name,Code,Changes,lat,lon,terminal lat,terminal lon,linear distance
Abbey Wood,ABW,2.0,51.4910605627019,0.121394025366647,53.40631168010053,-2.984510383414912
Aber,ABE,2.0,51.5749691125956,-3.22982905106563,53.40631168010053,-2.984510383414912
Abercynon,ACY,2.0,51.6447124034837,-3.32698855170195,53.40631168010053,-2.984510383414912
Aberdare,ABA,2.0,51.7150618291708,-3.44308409477462,53.40631168010053,-2.984510383414912
Aberdeen,ABD,1.0,57.1437058328662,-2.09868538622245,53.40631168010053,-2.984510383414912
Aberdour,AUR,2.0,56.0545955695197,-3.30056061487314,53.40631168010053,-2.984510383414912
Aberdovey,AVY,1.0,52.5439615025967,-4.05706796158074,53.40631168010053,-2.984510383414912
Abererch,ABH,1.0,52.8985884658899,-4.37417647351973,53.40631168010053,-2.984510383414912
Abergavenny,AGV,1.0,51.8166930409601,-3.00964730040687,53.40631168010053,-2.984510383414912
Abergele & Pensarn,AGL,1.0,53.2945771647609,-3.58262268840784,53.40631168010053,-2.984510383414912
Aberystwyth,AYW,1.0,52.4140498933205,-4.08189442746786,53.40631168010053,-2.984510383414912
Accrington,ACR,1.0,53.7529733751372,-2.36954810226505,53.40631168010053,-2.984510383414912
Achanalt,AAT,2.0,57.6096018732679,-4.91385256332031,53.40631168010053,-2.984510383414912
Achnasheen,ACN,2.0,57.5792959197415,-5.07233352893289,53.40631168010053,-2.984510383414912
Achnashellach,ACH,2.0,57.4820809030767,-5.33305678830677,53.40631168010053,-2.984510383414912
Acklington,ACK,1.0,55.3070993237817,-1.65183479633575,53.40631168010053,-2.984510383414912
Acle,ACL,1.0,52.6346777628319,1.54391497575916,53.40631168010053,-2.984510383414912
Acocks Green,ACG,1.0,52.4493240670217,-1.81897562150643,53.40631168010053,-2.984510383414912
Acton Bridge (Cheshire),ACB,0.0,53.2665097605329,-2.60312690733168,53.40631168010053,-2.984510383414912
Acton Central,ACC,2.0,51.5087150057177,-0.262970693276422,53.40631168010053,-2.984510383414912
Acton Main Line,AML,2.0,51.5171788796431,-0.266756440210259,53.40631168010053,-2.984510383414912
Adderley Park,ADD,0.0,52.4830872932844,-1.85594463679675,53.40631168010053,-2.984510383414912
Addiewell,ADW,2.0,55.8434130805542,-3.60652712168835,53.40631168010053,-2.984510383414912
Addlestone,ASN,2.0,51.3730447500684,-0.48445679693337,53.40631168010053,-2.984510383414912
Adisham,ADM,2.0,51.2411978022143,1.19908904695378,53.40631168010053,-2.984510383414912
Adlington (Cheshire),ADC,1.0,53.3195557900317,-2.13356274381038,53.40631168010053,-2.984510383414912
Adlington (Lancs),ADL,1.0,53.6132468473224,-2.6030711963325,53.40631168010053,-2.984510383414912
Adwick,AWK,1.0,53.5723210050351,-1.180356329611,53.40631168010053,-2.984510383414912
Aigburth,AIG,0.0,53.3645680055959,-2.92715540113816,53.40631168010053,-2.984510383414912
Ainsdale,ANS,0.0,53.6020355257546,-3.04265252059266,53.40631168010053,-2.984510383414912
Aintree,AIN,0.0,53.4739127558616,-2.95628079876913,53.40631168010053,-2.984510383414912
Airbles,AIR,2.0,55.7828378389089,-3.99419330717581,53.40631168010053,-2.984510383414912
Airdrie,ADR,2.0,55.8639835131324,-3.98291292517007,53.40631168010053,-2.984510383414912
Albany Park,AYP,2.0,51.4354507399114,0.12573706592842,53.40631168010053,-2.984510383414912
Albrighton,ALB,1.0,52.6379442676754,-2.26890024505565,53.40631168010053,-2.984510383414912
Alderley Edge,ALD,0.0,53.3037821045932,-2.23679936267512,53.40631168010053,-2.984510383414912
Aldermaston,AMT,2.0,51.4019618556841,-1.1374239270022,53.40631168010053,-2.984510383414912
Aldershot,AHT,2.0,51.2464179114788,-0.759859888333875,53.40631168010053,-2.984510383414912
Aldrington,AGT,2.0,50.8363824121951,-0.183821512855377,53.40631168010053,-2.984510383414912
Alexandra Palace,AAP,2.0,51.5979224924556,-0.120235220128854,53.40631168010053,-2.984510383414912
Alexandra Parade,AXP,2.0,55.8631759802332,-4.21064896878422,53.40631168010053,-2.984510383414912
Alexandria,ALX,2.0,55.9850887680667,-4.57748537031666,53.40631168010053,-2.984510383414912
Alfreton,ALF,0.0,53.1004322999438,-1.36969621564025,53.40631168010053,-2.984510383414912
Allens West,ALW,1.0,54.5246233650745,-1.36111683481751,53.40631168010053,-2.984510383414912
Alloa,ALO,2.0,56.1177936041036,-3.79005640302655,53.40631168010053,-2.984510383414912
Alness,ASS,2.0,57.6943991747966,-4.24971726526612,53.40631168010053,-2.984510383414912
Alnmouth,ALM,1.0,55.3927786386397,-1.63663783937358,53.40631168010053,-2.984510383414912
Alresford (Essex),ALR,2.0,51.8539974379073,0.997436403040026,53.40631168010053,-2.984510383414912
Alsager,ASG,1.0,53.0930054110113,-2.29905784069112,53.40631168010053,-2.984510383414912
Althorne (Essex),ALN,2.0,51.6478675266105,0.75248341471277,53.40631168010053,-2.984510383414912
Althorpe,ALP,1.0,53.5855003548442,-0.733182290833722,53.40631168010053,-2.984510383414912
Altnabreac,ABC,2.0,58.3881525009701,-3.7062809681672,53.40631168010053,-2.984510383414912
Alton,AON,2.0,51.1519686627366,-0.966913302570746,53.40631168010053,-2.984510383414912
Altrincham,ALT,1.0,53.3877187203289,-2.34688910433965,53.40631168010053,-2.984510383414912
Alvechurch,ALV,1.0,52.3460721156993,-1.96766073187852,53.40631168010053,-2.984510383414912
Ambergate,AMB,2.0,53.0605170840145,-1.48069758186533,53.40631168010053,-2.984510383414912
Amberley,AMY,2.0,50.8966791881016,-0.541992407726222,53.40631168010053,-2.984510383414912
Amersham,AMR,2.0,51.6742050968552,-0.607596139216709,53.40631168010053,-2.984510383414912
Ammanford,AMF,1.0,51.7959795450084,-3.99673575596767,53.40631168010053,-2.984510383414912
Ancaster,ANC,1.0,52.9876865844111,-0.535623734022494,53.40631168010053,-2.984510383414912
Anderston,AND,2.0,55.8599021238713,-4.27098003165416,53.40631168010053,-2.984510383414912
Andover,ADV,2.0,51.2115476149434,-1.49223307188506,53.40631168010053,-2.984510383414912
Anerley,ANZ,2.0,51.4121513855632,-0.0658859220340606,53.40631168010053,-2.984510383414912
Angel Road,AGR,2.0,51.61240330726,-0.0487914234374522,53.40631168010053,-2.984510383414912
Angmering,ANG,2.0,50.8165743892467,-0.489394019247872,53.40631168010053,-2.984510383414912
Annan,ANN,2.0,54.9838388790739,-3.2625810423293,53.40631168010053,-2.984510383414912
Anniesland,ANL,2.0,55.8893555064876,-4.32195784208586,53.40631168010053,-2.984510383414912
Ansdell & Fairhaven,AFV,1.0,53.7414654744213,-2.99303444657805,53.40631168010053,-2.984510383414912
Apperley Bridge,APY,1.0,53.8417501065548,-1.70582867126391,53.40631168010053,-2.984510383414912
Appleby,APP,1.0,54.5803488158896,-2.48669258391647,53.40631168010053,-2.984510383414912
Appledore (Kent),APD,2.0,51.0332342031393,0.816341504124954,53.40631168010053,-2.984510383414912
Appleford,APF,2.0,51.6396415502262,-1.24214153179695,53.40631168010053,-2.984510383414912
Appley Bridge,APB,2.0,53.5786734960166,-2.71925251339081,53.40631168010053,-2.984510383414912
Apsley,APS,1.0,51.7325208234117,-0.462934812195194,53.40631168010053,-2.984510383414912
Arbroath,ARB,1.0,56.5595762979872,-2.58893177406225,53.40631168010053,-2.984510383414912
Ardgay,ARD,2.0,57.8814576101148,-4.36209023833324,53.40631168010053,-2.984510383414912
Ardlui,AUI,2.0,56.3019723653141,-4.72165858161935,53.40631168010053,-2.984510383414912
Ardrossan Harbour,ADS,2.0,55.6398782290401,-4.82111163323781,53.40631168010053,-2.984510383414912
Ardrossan South Beach,ASB,2.0,55.641422142645,-4.80121264089138,53.40631168010053,-2.984510383414912
Ardrossan Town,ADN,2.0,55.6397124556587,-4.81267645169651,53.40631168010053,-2.984510383414912
Ardwick,ADK,1.0,53.471345820655,-2.21388417456067,53.40631168010053,-2.984510383414912
Argyle Street,AGS,2.0,55.8573090626122,-4.25069486323156,53.40631168010053,-2.984510383414912
Arisaig,ARG,2.0,56.9125537431151,-5.83907949880085,53.40631168010053,-2.984510383414912
Arlesey,ARL,2.0,52.0260300130868,-0.266319838272065,53.40631168010053,-2.984510383414912
Armadale (West Lothian),ARM,2.0,55.8857140292087,-3.69541334262219,53.40631168010053,-2.984510383414912
Armathwaite,AWT,1.0,54.8094679848183,-2.77207147292765,53.40631168010053,-2.984510383414912
Arnside,ARN,1.0,54.2027315043991,-2.82824189170434,53.40631168010053,-2.984510383414912
Arram,ARR,1.0,53.8843427696163,-0.426570132093475,53.40631168010053,-2.984510383414912
Arrochar & Tarbet,ART,2.0,56.2039766194239,-4.72277124702392,53.40631168010053,-2.984510383414912
Arundel,ARU,2.0,50.84821399905,-0.546174298416944,53.40631168010053,-2.984510383414912
Ascot (Berks),ACT,2.0,51.406243053303,-0.675833255037063,53.40631168010053,-2.984510383414912
Ascott-under-Wychwood,AUW,2.0,51.8673416456497,-1.56405280921503,53.40631168010053,-2.984510383414912
Ash,ASH,2.0,51.2495967734882,-0.712805474371656,53.40631168010053,-2.984510383414912
Ash Vale,AHV,2.0,51.2722464128127,-0.72164859629209,53.40631168010053,-2.984510383414912
Ashburys,ABY,1.0,53.471639721401,-2.19443661452133,53.40631168010053,-2.984510383414912
Ashchurch for Tewkesbury,ASC,1.0,51.9989057939667,-2.10876020926952,53.40631168010053,-2.984510383414912
Ashfield,ASF,2.0,55.8889269328418,-4.24921509407071,53.40631168010053,-2.984510383414912
Ashford (Surrey),AFS,2.0,51.4365062586203,-0.468070995385795,53.40631168010053,-2.984510383414912
Ashford International,AFK,2.0,51.1437026741936,0.876197214386404,53.40631168010053,-2.984510383414912
Ashford International (Eurostar),ASI,-999.0,nan,nan,53.40631168010053,-2.984510383414912
Ashley,ASY,1.0,53.3557258053839,-2.34146074338483,53.40631168010053,-2.984510383414912
Ashtead,AHD,2.0,51.317872587997,-0.307571763628547,53.40631168010053,-2.984510383414912
Ashton-under-Lyne,AHN,1.0,53.4912746360398,-2.09431253377749,53.40631168010053,-2.984510383414912
Ashurst (Kent),AHS,2.0,51.1286608253579,0.152652111896866,53.40631168010053,-2.984510383414912
Ashurst New Forest,ANF,2.0,50.8898511647037,-1.52663085660955,53.40631168010053,-2.984510383414912
Ashwell & Morden,AWM,2.0,52.0307706434447,-0.109788918120069,53.40631168010053,-2.984510383414912
Askam,ASK,2.0,54.1889331625586,-3.20451175494515,53.40631168010053,-2.984510383414912
Aslockton,ALK,0.0,52.9515495737311,-0.898097621841918,53.40631168010053,-2.984510383414912
Aspatria,ASP,2.0,54.7589599137074,-3.33187421074512,53.40631168010053,-2.984510383414912
Aspley Guise,APG,2.0,52.0212361960308,-0.632334507265971,53.40631168010053,-2.984510383414912
Aston,AST,0.0,52.5042320347358,-1.8719337575538,53.40631168010053,-2.984510383414912
Atherstone,ATH,1.0,52.5789720633612,-1.55281147568713,53.40631168010053,-2.984510383414912
Atherton,ATN,1.0,53.5291462480773,-2.47897234425216,53.40631168010053,-2.984510383414912
Attadale,ATT,2.0,57.3950433711996,-5.4555786528295,53.40631168010053,-2.984510383414912
Attenborough,ATB,1.0,52.9062133028873,-1.23141560765685,53.40631168010053,-2.984510383414912
Attleborough,ATL,0.0,52.5145445883409,1.02234755537498,53.40631168010053,-2.984510383414912
Auchinleck,AUK,2.0,55.4702784722357,-4.29535018687193,53.40631168010053,-2.984510383414912
Audley End,AUD,1.0,52.0044405435161,0.207160027997398,53.40631168010053,-2.984510383414912
Aughton Park,AUG,0.0,53.5542504500956,-2.89522128047861,53.40631168010053,-2.984510383414912
Aviemore,AVM,2.0,57.1885162452285,-3.82886797624022,53.40631168010053,-2.984510383414912
Avoncliff,AVF,2.0,51.3396528744674,-2.28132558221387,53.40631168010053,-2.984510383414912
Avonmouth,AVN,2.0,51.5003648679963,-2.69946651797304,53.40631168010053,-2.984510383414912
Axminster,AXM,2.0,50.7792744117621,-3.00472359764506,53.40631168010053,-2.984510383414912
Aylesbury,AYS,2.0,51.8138902206829,-0.815095998270687,53.40631168010053,-2.984510383414912
Aylesbury Vale Parkway,AVP,2.0,51.8311587338339,-0.860182437861177,53.40631168010053,-2.984510383414912
Aylesford,AYL,2.0,51.3013153585378,0.466170568242092,53.40631168010053,-2.984510383414912
Aylesham,AYH,2.0,51.2272505439136,1.2094526827124,53.40631168010053,-2.984510383414912
Ayr,AYR,2.0,55.4581477383334,-4.62587677242484,53.40631168010053,-2.984510383414912
Bache,BAC,0.0,53.2087886904783,-2.89167051075084,53.40631168010053,-2.984510383414912
Baglan,BAJ,1.0,51.615545271975,-3.81113654529303,53.40631168010053,-2.984510383414912
Bagshot,BAG,2.0,51.3643669407293,-0.688661997063008,53.40631168010053,-2.984510383414912
Baildon,BLD,2.0,53.8502255005868,-1.75363638811678,53.40631168010053,-2.984510383414912
Baillieston,BIO,2.0,55.844505909339,-4.11369931815988,53.40631168010053,-2.984510383414912
Balcombe,BAB,2.0,51.0555201604538,-0.136933757536862,53.40631168010053,-2.984510383414912
Baldock,BDK,2.0,51.9928698318742,-0.187563753520231,53.40631168010053,-2.984510383414912
Balham,BAL,1.0,51.4432234163815,-0.152424495700288,53.40631168010053,-2.984510383414912
Balloch,BHC,2.0,56.0029392993731,-4.58348654319574,53.40631168010053,-2.984510383414912
Balmossie,BSI,2.0,56.4745685552318,-2.83895622541232,53.40631168010053,-2.984510383414912
Bamber Bridge,BMB,1.0,53.7268691714662,-2.6607753764786,53.40631168010053,-2.984510383414912
Bamford,BAM,0.0,53.3390008432273,-1.68908191470249,53.40631168010053,-2.984510383414912
Banavie,BNV,2.0,56.8433146084024,-5.09542698683765,53.40631168010053,-2.984510383414912
Banbury,BAN,1.0,52.0603086671337,-1.32813289497966,53.40631168010053,-2.984510383414912
Bangor (Gwynedd),BNG,1.0,53.2222875881889,-4.1358808597691,53.40631168010053,-2.984510383414912
Bank Hall,BAH,0.0,53.4374965462522,-2.98751189569183,53.40631168010053,-2.984510383414912
Banstead,BAD,2.0,51.3293474848423,-0.213158931277083,53.40631168010053,-2.984510383414912
Barassie,BSS,2.0,55.5610644543682,-4.65113966824502,53.40631168010053,-2.984510383414912
Barbican,ZBB,1.0,nan,nan,53.40631168010053,-2.984510383414912
Bardon Mill,BLL,1.0,54.9744957852522,-2.34650475516335,53.40631168010053,-2.984510383414912
Bare Lane,BAR,2.0,54.0745443408907,-2.83533086719705,53.40631168010053,-2.984510383414912
Bargeddie,BGI,2.0,55.8512961462984,-4.07380825280165,53.40631168010053,-2.984510383414912
Bargoed,BGD,2.0,51.6923127611933,-3.22968013064506,53.40631168010053,-2.984510383414912
Barking,BKG,2.0,51.5394928787692,0.0809024258638578,53.40631168010053,-2.984510383414912
Barlaston,BRT,2.0,nan,nan,53.40631168010053,-2.984510383414912
Barming,BMG,2.0,51.2848926922128,0.478958086821072,53.40631168010053,-2.984510383414912
Barmouth,BRM,1.0,52.7228954666472,-4.05659664341287,53.40631168010053,-2.984510383414912
Barnehurst,BNH,2.0,51.4649571594916,0.159646215915891,53.40631168010053,-2.984510383414912
Barnes,BNS,2.0,51.4670847781107,-0.242164290131055,53.40631168010053,-2.984510383414912
Barnes Bridge,BNI,2.0,51.4720072305495,-0.252630234454485,53.40631168010053,-2.984510383414912
Barnetby,BTB,1.0,53.575120046432,-0.409679706265516,53.40631168010053,-2.984510383414912
Barnham,BAA,2.0,50.8309058508596,-0.639679954401345,53.40631168010053,-2.984510383414912
Barnhill,BNL,2.0,55.8774948886876,-4.22300584363342,53.40631168010053,-2.984510383414912
Barnsley,BNY,1.0,53.5543015489003,-1.47716484028851,53.40631168010053,-2.984510383414912
Barnstaple,BNP,2.0,51.0739744679973,-4.06311775092404,53.40631168010053,-2.984510383414912
Barnt Green,BTG,1.0,52.3610898378667,-1.99246673824797,53.40631168010053,-2.984510383414912
Barrhead,BRR,2.0,55.8037583421428,-4.39728431394783,53.40631168010053,-2.984510383414912
Barrhill,BRL,2.0,55.0970106102442,-4.78178229089313,53.40631168010053,-2.984510383414912
Barrow Haven,BAV,2.0,53.697419946542,-0.392955239385703,53.40631168010053,-2.984510383414912
Barrow-in-Furness,BIF,1.0,54.1190037011827,-3.22612090695349,53.40631168010053,-2.984510383414912
Barrow-Upon-Soar,BWS,1.0,52.7493358553102,-1.14484305880024,53.40631168010053,-2.984510383414912
Barry,BRY,2.0,51.3967862682376,-3.28498495899336,53.40631168010053,-2.984510383414912
Barry Docks,BYD,2.0,51.4024452836283,-3.26070393235989,53.40631168010053,-2.984510383414912
Barry Island,BYI,2.0,51.3924170726249,-3.27336400852697,53.40631168010053,-2.984510383414912
Barry Links,BYL,2.0,56.4931516826701,-2.74544214683501,53.40631168010053,-2.984510383414912
Barton-on-Humber,BAU,2.0,53.6889177395454,-0.44343673614012,53.40631168010053,-2.984510383414912
Basildon,BSO,2.0,51.5681040297501,0.456788850539816,53.40631168010053,-2.984510383414912
Basingstoke,BSK,1.0,51.2683569850094,-1.08726383162934,53.40631168010053,-2.984510383414912
Bat & Ball,BBL,2.0,51.2897587469008,0.194227480292899,53.40631168010053,-2.984510383414912
Bath Spa,BTH,1.0,51.3776883852266,-2.3570184714201,53.40631168010053,-2.984510383414912
Bathgate,BHG,2.0,55.8971563834902,-3.63609679157923,53.40631168010053,-2.984510383414912
Batley,BTL,1.0,53.7099423400798,-1.6229526318262,53.40631168010053,-2.984510383414912
Battersby,BTT,2.0,54.457680170473,-1.09297186288525,53.40631168010053,-2.984510383414912
Battersea Park,BAK,2.0,51.4769582891996,-0.147533519657093,53.40631168010053,-2.984510383414912
Battle,BAT,2.0,50.9129130238687,0.494702777064857,53.40631168010053,-2.984510383414912
Battlesbridge,BLB,2.0,51.624822766888,0.56528550890708,53.40631168010053,-2.984510383414912
Bayford,BAY,2.0,51.7577148923117,-0.0956100209046352,53.40631168010053,-2.984510383414912
Beaconsfield,BCF,2.0,51.6112905925788,-0.643822282354315,53.40631168010053,-2.984510383414912
Bearley,BER,2.0,52.2444115945748,-1.75025547969474,53.40631168010053,-2.984510383414912
Bearsden,BRN,2.0,55.9171345827093,-4.3320211452141,53.40631168010053,-2.984510383414912
Bearsted,BSD,2.0,51.2758187894535,0.577580355704965,53.40631168010053,-2.984510383414912
Beasdale,BSL,2.0,56.8995610683265,-5.76380325043513,53.40631168010053,-2.984510383414912
Beaulieu Road,BEU,2.0,50.8550493435382,-1.50474962699015,53.40631168010053,-2.984510383414912
Beauly,BEL,2.0,57.4782879378611,-4.46986686037102,53.40631168010053,-2.984510383414912
Bebington,BEB,0.0,53.3576570664328,-3.00363517233964,53.40631168010053,-2.984510383414912
Beccles,BCC,2.0,52.4585181871493,1.5694932615698,53.40631168010053,-2.984510383414912
Beckenham Hill,BEC,2.0,51.4245808668055,-0.0159511139458484,53.40631168010053,-2.984510383414912
Beckenham Junction,BKJ,2.0,51.4111718661491,-0.0260225635677561,53.40631168010053,-2.984510383414912
Bedford,BDM,1.0,52.1361864656103,-0.479442379912954,53.40631168010053,-2.984510383414912
Bedford St Johns,BSJ,2.0,52.1294772366621,-0.467501028060375,53.40631168010053,-2.984510383414912
Bedhampton,BDH,2.0,50.8539566355958,-0.99582843515536,53.40631168010053,-2.984510383414912
Bedminster,BMT,2.0,51.4400904239394,-2.59414932604792,53.40631168010053,-2.984510383414912
Bedworth,BEH,1.0,52.4792974206142,-1.46739223305473,53.40631168010053,-2.984510383414912
Bedwyn,BDW,2.0,51.3796409426581,-1.59878627020561,53.40631168010053,-2.984510383414912
Beeston,BEE,1.0,52.9207551214346,-1.20765801407939,53.40631168010053,-2.984510383414912
Bekesbourne,BKS,2.0,51.2613539349877,1.13670763163281,53.40631168010053,-2.984510383414912
Belle Vue,BLV,1.0,53.4623764935822,-2.18050724055323,53.40631168010053,-2.984510383414912
Bellgrove,BLG,2.0,55.8567093051092,-4.22437490020632,53.40631168010053,-2.984510383414912
Bellingham,BGM,2.0,51.4329113825773,-0.0193308081217253,53.40631168010053,-2.984510383414912
Bellshill,BLH,2.0,55.8170682424416,-4.02449996284266,53.40631168010053,-2.984510383414912
Belmont,BLM,2.0,51.3438134158344,-0.198855124360003,53.40631168010053,-2.984510383414912
Belper,BLP,2.0,53.0237591485711,-1.48251049959613,53.40631168010053,-2.984510383414912
Beltring,BEG,2.0,51.2047063375307,0.403495486821792,53.40631168010053,-2.984510383414912
Belvedere,BVD,2.0,51.4921162437256,0.152286098901381,53.40631168010053,-2.984510383414912
Bempton,BEM,1.0,54.1276580609781,-0.18045684367924,53.40631168010053,-2.984510383414912
Ben Rhydding,BEY,1.0,53.9257153348267,-1.79743026313235,53.40631168010053,-2.984510383414912
Benfleet,BEF,2.0,51.5439424321207,0.561713345502072,53.40631168010053,-2.984510383414912
Bentham,BEN,1.0,54.1155197017626,-2.51067651046258,53.40631168010053,-2.984510383414912
Bentley (Hants),BTY,2.0,51.1812327932647,-0.868126900052275,53.40631168010053,-2.984510383414912
Bentley (South Yorks),BYK,1.0,53.543936635355,-1.15094859528964,53.40631168010053,-2.984510383414912
Bere Alston,BAS,2.0,50.4855988011236,-4.20035543651004,53.40631168010053,-2.984510383414912
Bere Ferrers,BFE,2.0,50.4512820780774,-4.18143518031599,53.40631168010053,-2.984510383414912
Berkhamsted,BKM,1.0,51.7631330812332,-0.562012981628892,53.40631168010053,-2.984510383414912
Berkswell,BKW,1.0,52.3958819317755,-1.64284047482006,53.40631168010053,-2.984510383414912
Bermuda Park,BEP,1.0,52.5014343619449,-1.47217775464212,53.40631168010053,-2.984510383414912
Berney Arms,BYA,-999.0,52.5897827472666,1.63037533346209,53.40631168010053,-2.984510383414912
Berry Brow,BBW,1.0,53.6210419716152,-1.79343228301033,53.40631168010053,-2.984510383414912
Berrylands,BRS,2.0,51.3990439366779,-0.280713667843256,53.40631168010053,-2.984510383414912
Berwick (Sussex),BRK,2.0,50.8403762860459,0.166017608785235,53.40631168010053,-2.984510383414912
Berwick-upon-Tweed,BWK,1.0,55.7743389009866,-2.01097357377303,53.40631168010053,-2.984510383414912
Bescar Lane,BES,2.0,53.623855333027,-2.9146110021991,53.40631168010053,-2.984510383414912
Bescot Stadium,BSC,0.0,52.5630947071172,-1.9911057185482,53.40631168010053,-2.984510383414912
Betchworth,BTO,2.0,51.2481879331766,-0.266973015200458,53.40631168010053,-2.984510383414912
Bethnal Green,BET,2.0,51.5239156627757,-0.0595680464428894,53.40631168010053,-2.984510383414912
Betws-y-Coed,BYC,2.0,53.0920709395504,-3.80086212197837,53.40631168010053,-2.984510383414912
Beverley,BEV,1.0,53.8422725915824,-0.422980126740875,53.40631168010053,-2.984510383414912
Bexhill,BEX,2.0,50.84103990242,0.477016592346932,53.40631168010053,-2.984510383414912
Bexley,BXY,2.0,51.4402175270263,0.147902494716889,53.40631168010053,-2.984510383414912
Bexleyheath,BXH,2.0,51.4634982236074,0.133734871030645,53.40631168010053,-2.984510383414912
Bicester North,BCS,2.0,51.9034829537461,-1.15038352192815,53.40631168010053,-2.984510383414912
Bicester Village,BIT,2.0,51.8930236127002,-1.14876425178293,53.40631168010053,-2.984510383414912
Bickley,BKL,2.0,51.4001024308637,0.0452405405139698,53.40631168010053,-2.984510383414912
Bidston,BID,0.0,53.4091398593576,-3.07856110228132,53.40631168010053,-2.984510383414912
Biggleswade,BIW,2.0,52.0846785950736,-0.261187193156868,53.40631168010053,-2.984510383414912
Bilbrook,BBK,1.0,52.6237197237583,-2.18608801838282,53.40631168010053,-2.984510383414912
Billericay,BIC,2.0,51.6288812691945,0.418629610467223,53.40631168010053,-2.984510383414912
Billingham (Cleveland),BIL,2.0,54.605606575355,-1.27971968622732,53.40631168010053,-2.984510383414912
Billingshurst,BIG,2.0,51.0152034952011,-0.450302232654151,53.40631168010053,-2.984510383414912
Bingham,BIN,0.0,52.9541905628363,-0.95154335353279,53.40631168010053,-2.984510383414912
Bingley,BIY,1.0,53.8486154371384,-1.8373224993653,53.40631168010053,-2.984510383414912
Birchgrove,BCG,2.0,51.5215597229164,-3.20185379786194,53.40631168010053,-2.984510383414912
Birchington-on-sea,BCH,2.0,51.3774886896266,1.3014083545974,53.40631168010053,-2.984510383414912
Birchwood,BWD,0.0,53.4127205850305,-2.5253082468513,53.40631168010053,-2.984510383414912
Birkbeck,BIK,2.0,51.4038899816034,-0.0557387405611835,53.40631168010053,-2.984510383414912
Birkdale,BDL,0.0,53.6340528065899,-3.01445011129132,53.40631168010053,-2.984510383414912
Birkenhead Central,BKC,0.0,53.3883166263867,-3.02082115838918,53.40631168010053,-2.984510383414912
Birkenhead Hamilton Square,BKQ,0.0,53.3946967251861,-3.01368016573114,53.40631168010053,-2.984510383414912
Birkenhead North,BKN,0.0,53.4044379353974,-3.05753365912751,53.40631168010053,-2.984510383414912
Birkenhead Park,BKP,0.0,53.3974085855031,-3.03910128885113,53.40631168010053,-2.984510383414912
Birmingham International,BHI,0.0,52.4508081112451,-1.72585685988124,53.40631168010053,-2.984510383414912
Birmingham Moor Street,BMO,1.0,52.479080623723,-1.89247273057604,53.40631168010053,-2.984510383414912
Birmingham New Street,BHM,0.0,52.4778198092097,-1.9002055706822,53.40631168010053,-2.984510383414912
Birmingham Snow Hill,BSW,1.0,52.4833566780576,-1.89908868312646,53.40631168010053,-2.984510383414912
Bishop Auckland,BIA,1.0,54.6571963763698,-1.67771509725951,53.40631168010053,-2.984510383414912
Bishopbriggs,BBG,2.0,55.9038831792009,-4.22491571705821,53.40631168010053,-2.984510383414912
Bishops Stortford,BIS,2.0,51.8666894209812,0.16489410333554,53.40631168010053,-2.984510383414912
Bishopstone (Sussex),BIP,2.0,50.7801416620368,0.082756921439231,53.40631168010053,-2.984510383414912
Bishopton (Strathclyde),BPT,2.0,55.9022694882255,-4.5004875625329,53.40631168010053,-2.984510383414912
Bitterne,BTE,2.0,50.9182213632939,-1.37699961416727,53.40631168010053,-2.984510383414912
Blackburn,BBN,1.0,53.7465184457461,-2.47912240276289,53.40631168010053,-2.984510383414912
Blackheath,BKH,2.0,51.4657945200002,0.00887187089452019,53.40631168010053,-2.984510383414912
Blackhorse Road,BHO,1.0,51.58660384873,-0.0412357433706351,53.40631168010053,-2.984510383414912
Blackpool North,BPN,0.0,53.8219180942013,-3.04927516714828,53.40631168010053,-2.984510383414912
Blackpool Pleasure Beach,BPB,1.0,53.7879555202556,-3.05387646984086,53.40631168010053,-2.984510383414912
Blackpool South,BPS,1.0,53.7987040263195,-3.04893832565541,53.40631168010053,-2.984510383414912
Blackridge,BKR,2.0,55.8842557507999,-3.75079743413867,53.40631168010053,-2.984510383414912
Blackrod,BLK,1.0,53.5915244932358,-2.56952431744104,53.40631168010053,-2.984510383414912
Blackwater,BAW,2.0,51.3315811457068,-0.776741026218888,53.40631168010053,-2.984510383414912
Blaenau Ffestiniog,BFF,2.0,52.9945530771849,-3.93859577234881,53.40631168010053,-2.984510383414912
Blair Atholl,BLA,2.0,56.7655504660718,-3.85022876626298,53.40631168010053,-2.984510383414912
Blairhill,BAI,2.0,55.8664556230225,-4.0432911996593,53.40631168010053,-2.984510383414912
Blake Street,BKT,1.0,52.6048860712992,-1.84491459685048,53.40631168010053,-2.984510383414912
Blakedown,BKD,1.0,52.4064026596129,-2.17686566095142,53.40631168010053,-2.984510383414912
Blantyre,BLT,2.0,55.7973304780703,-4.08697164977011,53.40631168010053,-2.984510383414912
Blaydon,BLO,1.0,54.9657896857216,-1.71258088882198,53.40631168010053,-2.984510383414912
Bleasby,BSB,1.0,53.0413649497003,-0.943687538181265,53.40631168010053,-2.984510383414912
Bletchley,BLY,1.0,51.9953339717924,-0.736320506839459,53.40631168010053,-2.984510383414912
Bloxwich,BLX,1.0,52.6182018754768,-2.01147807238452,53.40631168010053,-2.984510383414912
Bloxwich North,BWN,1.0,52.6254378492086,-2.01768461058018,53.40631168010053,-2.984510383414912
Blundellsands & Crosby,BLN,0.0,53.4876867000616,-3.03986028592851,53.40631168010053,-2.984510383414912
Blythe Bridge,BYB,1.0,52.9681439666743,-2.06696136521393,53.40631168010053,-2.984510383414912
Bodmin Parkway,BOD,1.0,50.4458686645733,-4.66292953056928,53.40631168010053,-2.984510383414912
Bodorgan,BOR,1.0,53.2043074000119,-4.41800424551237,53.40631168010053,-2.984510383414912
Bognor Regis,BOG,2.0,50.7865584395345,-0.676178286011514,53.40631168010053,-2.984510383414912
Bogston,BGS,2.0,55.9370473872407,-4.71140217696609,53.40631168010053,-2.984510383414912
Bolton,BON,1.0,53.5741455351566,-2.42582497565139,53.40631168010053,-2.984510383414912
Bolton-Upon-Dearne,BTD,1.0,53.5189470302023,-1.31154616002462,53.40631168010053,-2.984510383414912
Bookham,BKA,2.0,51.2887375770933,-0.384020684769355,53.40631168010053,-2.984510383414912
Bootle (Cumbria),BOC,2.0,54.2913058315169,-3.39386227213438,53.40631168010053,-2.984510383414912
Bootle New Strand,BNW,0.0,53.4533917659639,-2.99474773972908,53.40631168010053,-2.984510383414912
Bootle Oriel Road,BOT,0.0,53.4466239167649,-2.9957338918952,53.40631168010053,-2.984510383414912
Bordesley,BBS,1.0,52.4718743800827,-1.87776885469942,53.40631168010053,-2.984510383414912
Borough Green & Wrotham,BRG,2.0,51.2932170234776,0.306244959659036,53.40631168010053,-2.984510383414912
Borth,BRH,1.0,52.4910318901744,-4.05017708151719,53.40631168010053,-2.984510383414912
Bosham,BOH,2.0,50.8427472866996,-0.847431235664145,53.40631168010053,-2.984510383414912
Boston,BSN,1.0,52.9780883520384,-0.03100323679323,53.40631168010053,-2.984510383414912
Botley,BOE,2.0,50.9164546156522,-1.25923650546392,53.40631168010053,-2.984510383414912
Bottesford,BTF,0.0,52.9446141670485,-0.794842711685305,53.40631168010053,-2.984510383414912
Bourne End,BNE,2.0,51.5771173647136,-0.710473547391366,53.40631168010053,-2.984510383414912
Bournemouth,BMH,1.0,50.7272746595869,-1.86450316465566,53.40631168010053,-2.984510383414912
Bournville,BRV,1.0,52.4269645832552,-1.92642405915734,53.40631168010053,-2.984510383414912
Bow Brickhill,BWB,2.0,52.0043001848605,-0.696077833880482,53.40631168010053,-2.984510383414912
Bowes Park,BOP,2.0,51.6070103763875,-0.120581954633459,53.40631168010053,-2.984510383414912
Bowling,BWG,2.0,55.9310849001239,-4.49384261915191,53.40631168010053,-2.984510383414912
Box Hill & Westhumble,BXW,2.0,51.2540106794359,-0.328489952956063,53.40631168010053,-2.984510383414912
Bracknell,BCE,2.0,51.4130914141393,-0.751703650172948,53.40631168010053,-2.984510383414912
Bradford Forster Square,BDQ,1.0,53.7969256219995,-1.75296173787813,53.40631168010053,-2.984510383414912
Bradford Interchange,BDI,1.0,53.7910764525054,-1.74959589964649,53.40631168010053,-2.984510383414912
Bradford-on-Avon,BOA,2.0,51.3449161602034,-2.25232693866303,53.40631168010053,-2.984510383414912
Brading,BDN,2.0,50.6783720718463,-1.13872244962043,53.40631168010053,-2.984510383414912
Braintree,BTR,2.0,51.8753890748181,0.556686982906197,53.40631168010053,-2.984510383414912
Braintree Freeport,BTP,2.0,51.8694135093739,0.568434688069829,53.40631168010053,-2.984510383414912
Bramhall,BML,1.0,53.360614520234,-2.16359288123925,53.40631168010053,-2.984510383414912
Bramley (Hants),BMY,2.0,51.3302932744388,-1.06100278415591,53.40631168010053,-2.984510383414912
Bramley (W Yorks),BLE,1.0,53.8053497570895,-1.63720635437646,53.40631168010053,-2.984510383414912
Brampton (Cumbria),BMP,2.0,54.9323930102284,-2.70294760254176,53.40631168010053,-2.984510383414912
Brampton (Suffolk),BRP,2.0,52.3954307722651,1.54381046672808,53.40631168010053,-2.984510383414912
Branchton,BCN,2.0,55.9406016000061,-4.80354935893801,53.40631168010053,-2.984510383414912
Brandon,BND,1.0,52.4540047306678,0.624731734521936,53.40631168010053,-2.984510383414912
Branksome,BSM,2.0,50.7269660330633,-1.91975842787338,53.40631168010053,-2.984510383414912
Braystones (Cumbria),BYS,2.0,54.4393640536404,-3.54182643942065,53.40631168010053,-2.984510383414912
Bredbury,BDY,1.0,53.4231550957567,-2.11048830300964,53.40631168010053,-2.984510383414912
Breich,BRC,2.0,55.8273164832767,-3.66812586892786,53.40631168010053,-2.984510383414912
Brentford,BFD,2.0,51.4875457097478,-0.3096509962364,53.40631168010053,-2.984510383414912
Brentwood,BRE,2.0,51.6136030493508,0.2995857793073,53.40631168010053,-2.984510383414912
Bricket Wood,BWO,2.0,51.7054267834401,-0.359115040469,53.40631168010053,-2.984510383414912
Bridge of Allan,BEA,2.0,56.1566398048563,-3.95722936202684,53.40631168010053,-2.984510383414912
Bridge of Orchy,BRO,2.0,56.5158728605762,-4.76299400728156,53.40631168010053,-2.984510383414912
Bridgend,BGN,1.0,51.5069776497295,-3.57527638119945,53.40631168010053,-2.984510383414912
Bridgeton,BDG,2.0,55.8489676845822,-4.22605724682491,53.40631168010053,-2.984510383414912
Bridgwater,BWT,2.0,51.1278595271724,-2.99040597303838,53.40631168010053,-2.984510383414912
Bridlington,BDT,1.0,54.0841300013586,-0.198720390714093,53.40631168010053,-2.984510383414912
Brierfield,BRF,1.0,53.8239823807197,-2.23649020577414,53.40631168010053,-2.984510383414912
Brigg,BGG,1.0,53.5491442686681,-0.486124757673641,53.40631168010053,-2.984510383414912
Brighouse,BGH,1.0,53.6981985445311,-1.77943904000537,53.40631168010053,-2.984510383414912
Brighton (East Sussex),BTN,2.0,50.8290032740444,-0.141280362604851,53.40631168010053,-2.984510383414912
Brimsdown,BMD,2.0,51.6555817179022,-0.0308174334464399,53.40631168010053,-2.984510383414912
Brinnington,BNT,1.0,53.4321182782686,-2.13512015019042,53.40631168010053,-2.984510383414912
Bristol Parkway,BPW,1.0,51.5138036668802,-2.54216343130652,53.40631168010053,-2.984510383414912
Bristol Temple Meads,BRI,1.0,51.449146420501,-2.58131562733598,53.40631168010053,-2.984510383414912
Brithdir,BHD,2.0,51.7103060616454,-3.22872077880337,53.40631168010053,-2.984510383414912
Briton Ferry,BNF,1.0,51.6379005035521,-3.81925304025098,53.40631168010053,-2.984510383414912
Brixton,BRX,2.0,51.4632974069132,-0.114183479348404,53.40631168010053,-2.984510383414912
Broad Green,BGE,0.0,53.4065063198581,-2.8934843782564,53.40631168010053,-2.984510383414912
Broadbottom,BDB,1.0,53.4409753914717,-2.01652101691897,53.40631168010053,-2.984510383414912
Broadstairs,BSR,2.0,51.3606706129939,1.43356042841681,53.40631168010053,-2.984510383414912
Brockenhurst,BCU,1.0,50.8168418133325,-1.57353117285741,53.40631168010053,-2.984510383414912
Brockholes,BHS,1.0,53.5969730380642,-1.76969142002127,53.40631168010053,-2.984510383414912
Brockley,BCY,2.0,51.4646472014469,-0.0375366925196268,53.40631168010053,-2.984510383414912
Bromborough,BOM,0.0,53.3218495381578,-2.98689585549247,53.40631168010053,-2.984510383414912
Bromborough Rake,BMR,0.0,53.3299093778849,-2.98946942122466,53.40631168010053,-2.984510383414912
Bromley Cross (Lancs),BMC,1.0,53.6140430093272,-2.41089911446368,53.40631168010053,-2.984510383414912
Bromley North,BMN,2.0,51.4083259856208,0.0169926357417391,53.40631168010053,-2.984510383414912
Bromley South,BMS,2.0,51.3999745779484,0.0173440284479178,53.40631168010053,-2.984510383414912
Bromsgrove,BMV,1.0,52.3222879772082,-2.04734524157192,53.40631168010053,-2.984510383414912
Brondesbury,BSY,2.0,51.5451643215911,-0.202308734122339,53.40631168010053,-2.984510383414912
Brondesbury Park,BSP,2.0,51.5406977630272,-0.210127665126915,53.40631168010053,-2.984510383414912
Brookmans Park,BPK,2.0,51.7210604040222,-0.204548729285783,53.40631168010053,-2.984510383414912
Brookwood,BKO,2.0,51.3037572593507,-0.635747900032551,53.40631168010053,-2.984510383414912
Broome,BME,1.0,52.4227745962921,-2.88520796216339,53.40631168010053,-2.984510383414912
Broomfleet,BMF,1.0,53.7402076992399,-0.671828400321333,53.40631168010053,-2.984510383414912
Brora,BRA,2.0,58.012954677959,-3.85228367382381,53.40631168010053,-2.984510383414912
Brough,BUH,1.0,53.726959736948,-0.578724236728498,53.40631168010053,-2.984510383414912
Broughty Ferry,BYF,2.0,56.4671632427311,-2.87315275743822,53.40631168010053,-2.984510383414912
Broxbourne,BXB,2.0,51.7469087203036,-0.0110867237416249,53.40631168010053,-2.984510383414912
Bruce Grove,BCV,2.0,51.5939575362971,-0.0698670703254643,53.40631168010053,-2.984510383414912
Brundall,BDA,1.0,52.6194794445227,1.43929868679443,53.40631168010053,-2.984510383414912
Brundall Gardens,BGA,1.0,52.623439277351,1.41841612253682,53.40631168010053,-2.984510383414912
Brunstane,BSU,2.0,55.9425140850115,-3.10098653970798,53.40631168010053,-2.984510383414912
Brunswick,BRW,0.0,53.3832435421687,-2.97607735757102,53.40631168010053,-2.984510383414912
Bruton,BRU,2.0,51.1116412233567,-2.44707381432238,53.40631168010053,-2.984510383414912
Bryn,BYN,0.0,53.4998691660173,-2.6472139954436,53.40631168010053,-2.984510383414912
Buckenham (Norfolk),BUC,-999.0,52.5977342869752,1.47032522512213,53.40631168010053,-2.984510383414912
Buckley,BCK,1.0,53.163039091322,-3.05592619131988,53.40631168010053,-2.984510383414912
Bucknell,BUK,1.0,52.3573820377697,-2.94737831871819,53.40631168010053,-2.984510383414912
Buckshaw Parkway,BSV,1.0,53.6733436562841,-2.6608302706882,53.40631168010053,-2.984510383414912
Bugle,BGL,2.0,50.4003548175137,-4.79210144517706,53.40631168010053,-2.984510383414912
Builth Road,BHR,1.0,52.1693260878635,-3.42703322967269,53.40631168010053,-2.984510383414912
Bulwell,BLW,1.0,52.9996957837852,-1.19623056375416,53.40631168010053,-2.984510383414912
Bures,BUE,2.0,51.9711590332091,0.769143780923498,53.40631168010053,-2.984510383414912
Burgess Hill,BUG,2.0,50.9536546008005,-0.127412852764647,53.40631168010053,-2.984510383414912
Burley Park,BUY,1.0,53.8120311080587,-1.57776768947798,53.40631168010053,-2.984510383414912
Burley-in-Wharfedale,BUW,1.0,53.9081516997075,-1.75337211508043,53.40631168010053,-2.984510383414912
Burnage,BNA,0.0,53.4211687602571,-2.21567840315285,53.40631168010053,-2.984510383414912
Burneside (Cumbria),BUD,1.0,54.3549826054845,-2.76667730640148,53.40631168010053,-2.984510383414912
Burnham (Bucks),BNM,2.0,51.5235048795581,-0.646373823188634,53.40631168010053,-2.984510383414912
Burnham-on-Crouch,BUU,2.0,51.6336547723703,0.814027782561537,53.40631168010053,-2.984510383414912
Burnley Barracks,BUB,1.0,53.7908801067712,-2.25808600820696,53.40631168010053,-2.984510383414912
Burnley Central,BNC,1.0,53.7935141377532,-2.24497131410056,53.40631168010053,-2.984510383414912
Burnley Manchester Road,BYM,1.0,53.784967519749,-2.24886752625716,53.40631168010053,-2.984510383414912
Burnside (Strathclyde),BUI,2.0,55.8169313339993,-4.20239033426663,53.40631168010053,-2.984510383414912
Burntisland,BTS,2.0,56.0570842114504,-3.23319831966981,53.40631168010053,-2.984510383414912
Burscough Bridge,BCB,2.0,53.6052595050232,-2.84088028461687,53.40631168010053,-2.984510383414912
Burscough Junction,BCJ,1.0,53.5975223038556,-2.84060569626726,53.40631168010053,-2.984510383414912
Bursledon,BUO,2.0,50.8836886125224,-1.30503236047306,53.40631168010053,-2.984510383414912
Burton Joyce,BUJ,1.0,52.9834418843688,-1.04087761567102,53.40631168010053,-2.984510383414912
Burton-on-Trent,BUT,1.0,52.8058165084357,-1.64245997205794,53.40631168010053,-2.984510383414912
Bury St Edmunds,BSE,1.0,52.2537604920335,0.713306656862091,53.40631168010053,-2.984510383414912
Busby,BUS,2.0,55.7803445376612,-4.26220173231044,53.40631168010053,-2.984510383414912
Bush Hill Park,BHK,2.0,51.6415169536941,-0.0692211146516689,53.40631168010053,-2.984510383414912
Bushey,BSH,1.0,51.6457502336329,-0.385321269560704,53.40631168010053,-2.984510383414912
Butlers Lane,BUL,1.0,52.5924709448511,-1.83802031828625,53.40631168010053,-2.984510383414912
Buxted,BXD,2.0,50.9900108378352,0.131438921683175,53.40631168010053,-2.984510383414912
Buxton,BUX,1.0,53.2607227045765,-1.91286358993768,53.40631168010053,-2.984510383414912
Byfleet & New Haw,BFN,2.0,51.3497957278428,-0.481389767596653,53.40631168010053,-2.984510383414912
Bynea,BYE,1.0,51.6720366859549,-4.09888164715589,53.40631168010053,-2.984510383414912
Cadoxton,CAD,2.0,51.4122831697514,-3.24889594393883,53.40631168010053,-2.984510383414912
Caergwrle,CGW,1.0,53.1078664074892,-3.03291327418616,53.40631168010053,-2.984510383414912
Caerphilly,CPH,2.0,51.57158067131,-3.21848255919666,53.40631168010053,-2.984510383414912
Caersws,CWS,1.0,52.5161279090032,-3.43249879239218,53.40631168010053,-2.984510383414912
Caldercruix,CAC,2.0,55.8879475461776,-3.88771190821316,53.40631168010053,-2.984510383414912
Caldicot,CDT,1.0,51.5847930591881,-2.76057390572724,53.40631168010053,-2.984510383414912
Caledonian Rd & Barnsbury,CIR,2.0,51.5430392840645,-0.116729249835755,53.40631168010053,-2.984510383414912
Calstock,CSK,2.0,50.4978023671618,-4.20898850028348,53.40631168010053,-2.984510383414912
Cam & Dursley,CDU,2.0,51.71762106741,-2.35908298700462,53.40631168010053,-2.984510383414912
Camberley,CAM,2.0,51.3363271281171,-0.744271720142327,53.40631168010053,-2.984510383414912
Camborne,CBN,1.0,50.2104431448962,-5.2974123155278,53.40631168010053,-2.984510383414912
Cambridge,CBG,1.0,52.1940653655991,0.137456461171047,53.40631168010053,-2.984510383414912
Cambridge Heath,CBH,2.0,51.5319710950389,-0.0572790666047599,53.40631168010053,-2.984510383414912
Cambuslang,CBL,2.0,55.8196110785266,-4.17300936139383,53.40631168010053,-2.984510383414912
Camden Road,CMD,2.0,51.541789311709,-0.138700901327927,53.40631168010053,-2.984510383414912
Camelon,CMO,2.0,56.0060960246981,-3.81760595611437,53.40631168010053,-2.984510383414912
Canada Water,ZCW,2.0,51.4979884652777,-0.0497198367270248,53.40631168010053,-2.984510383414912
Canley,CNL,1.0,52.3992417616656,-1.54757487164278,53.40631168010053,-2.984510383414912
Cannock,CAO,1.0,52.6861624456421,-2.02214749992606,53.40631168010053,-2.984510383414912
Canonbury,CNN,2.0,51.5487306960064,-0.0921909296515918,53.40631168010053,-2.984510383414912
Canterbury East,CBE,2.0,51.2742643010057,1.07596836838028,53.40631168010053,-2.984510383414912
Canterbury West,CBW,2.0,51.2842658182293,1.07530307014886,53.40631168010053,-2.984510383414912
Cantley,CNY,1.0,52.5787439208642,1.51341203393271,53.40631168010053,-2.984510383414912
Capenhurst,CPU,0.0,53.2601766897761,-2.94228526259152,53.40631168010053,-2.984510383414912
Carbis Bay,CBB,2.0,50.1970567010486,-5.46326466277764,53.40631168010053,-2.984510383414912
Cardenden,CDD,2.0,56.1412590120684,-3.26164246018956,53.40631168010053,-2.984510383414912
Cardiff Bay,CDB,2.0,51.4671120338694,-3.16640344566505,53.40631168010053,-2.984510383414912
Cardiff Central,CDF,1.0,51.4760288851757,-3.17930229689385,53.40631168010053,-2.984510383414912
Cardiff Queen Street,CDQ,2.0,51.4819650131963,-3.17018110795731,53.40631168010053,-2.984510383414912
Cardonald,CDO,2.0,55.8525736689993,-4.34069348123436,53.40631168010053,-2.984510383414912
Cardross,CDR,2.0,55.9603843832927,-4.65307437435214,53.40631168010053,-2.984510383414912
Carfin,CRF,2.0,55.8073437453988,-3.9562545230792,53.40631168010053,-2.984510383414912
Cark & Cartmel,CAK,1.0,54.1779579416092,-2.97406410040301,53.40631168010053,-2.984510383414912
Carlisle,CAR,1.0,54.8906549298,-2.93319211047497,53.40631168010053,-2.984510383414912
Carlton,CTO,1.0,52.965087366641,-1.07865502808069,53.40631168010053,-2.984510383414912
Carluke,CLU,2.0,55.7312694028257,-3.84892564535903,53.40631168010053,-2.984510383414912
Carmarthen,CMN,1.0,51.8533578808521,-4.30596190317658,53.40631168010053,-2.984510383414912
Carmyle,CML,2.0,55.8343417681725,-4.15818113045633,53.40631168010053,-2.984510383414912
Carnforth,CNF,1.0,54.1296807999724,-2.77123283370784,53.40631168010053,-2.984510383414912
Carnoustie,CAN,2.0,56.5005661034066,-2.70660077824166,53.40631168010053,-2.984510383414912
Carntyne,CAY,2.0,55.8548777008205,-4.17857314789674,53.40631168010053,-2.984510383414912
Carpenders Park,CPK,1.0,51.6283500844943,-0.385939110192136,53.40631168010053,-2.984510383414912
Carrbridge,CAG,2.0,57.2795057695212,-3.82820361192189,53.40631168010053,-2.984510383414912
Carshalton,CSH,2.0,51.3684528774191,-0.166368536051504,53.40631168010053,-2.984510383414912
Carshalton Beeches,CSB,2.0,51.3574095253256,-0.169797044692897,53.40631168010053,-2.984510383414912
Carstairs,CRS,2.0,55.6910505751263,-3.66847398361363,53.40631168010053,-2.984510383414912
Cartsdyke,CDY,2.0,55.9422189788465,-4.73159192667259,53.40631168010053,-2.984510383414912
Castle Bar Park,CBP,2.0,51.5229293420363,-0.331548940592461,53.40631168010053,-2.984510383414912
Castle Cary,CLC,2.0,51.0998172088069,-2.52279469643867,53.40631168010053,-2.984510383414912
Castleford,CFD,1.0,53.7240777865092,-1.354652736609,53.40631168010053,-2.984510383414912
Castleton (Manchester),CAS,1.0,53.5918484863424,-2.17823419505367,53.40631168010053,-2.984510383414912
Castleton Moor,CSM,1.0,54.4671435348016,-0.946648402304519,53.40631168010053,-2.984510383414912
Caterham,CAT,2.0,51.2821399092314,-0.0783071221606942,53.40631168010053,-2.984510383414912
Catford,CTF,2.0,51.4444050592825,-0.0263165980978829,53.40631168010053,-2.984510383414912
Catford Bridge,CFB,2.0,51.4447390713824,-0.0247911767036132,53.40631168010053,-2.984510383414912
Cathays,CYS,2.0,51.4889025348744,-3.17868388381823,53.40631168010053,-2.984510383414912
Cathcart,CCT,2.0,55.8176734833053,-4.26053705302787,53.40631168010053,-2.984510383414912
Cattal,CTL,1.0,53.9974405714928,-1.32053513613482,53.40631168010053,-2.984510383414912
Causeland,CAU,2.0,50.4056959147701,-4.46644892679679,53.40631168010053,-2.984510383414912
Cefn-y-Bedd,CYB,1.0,53.0988032278231,-3.03105323734973,53.40631168010053,-2.984510383414912
Chadwell Heath,CTH,2.0,51.5680368465285,0.128958362519305,53.40631168010053,-2.984510383414912
Chafford Hundred Lakeside,CFH,2.0,51.4855550575053,0.28744692045023,53.40631168010053,-2.984510383414912
Chalfont & Latimer,CFO,2.0,51.6681076576697,-0.560526398177912,53.40631168010053,-2.984510383414912
Chalkwell,CHW,2.0,51.5387163080302,0.670592556917399,53.40631168010053,-2.984510383414912
Chandlers Ford,CFR,2.0,50.9836845147777,-1.38517039014294,53.40631168010053,-2.984510383414912
Chapel-en-le-Frith,CEF,1.0,53.3122322961308,-1.91876260821786,53.40631168010053,-2.984510383414912
Chapelton (Devon),CPN,2.0,51.0165400933197,-4.02472276399646,53.40631168010053,-2.984510383414912
Chapeltown (South Yorks),CLN,1.0,53.4623369950109,-1.46627538451147,53.40631168010053,-2.984510383414912
Chappel & Wakes Colne,CWC,2.0,51.9259030310448,0.758501135970095,53.40631168010053,-2.984510383414912
Charing (Kent),CHG,2.0,51.2080962778901,0.790331124900325,53.40631168010053,-2.984510383414912
Charing Cross (Glasgow),CHC,2.0,55.8646868840175,-4.2698209416277,53.40631168010053,-2.984510383414912
Charlbury,CBY,2.0,51.8724282813146,-1.48969393048958,53.40631168010053,-2.984510383414912
Charlton,CTN,2.0,51.4868115310585,0.0312574909275387,53.40631168010053,-2.984510383414912
Chartham,CRT,2.0,51.2572624478548,1.01803921286391,53.40631168010053,-2.984510383414912
Chassen Road,CSR,0.0,53.4461614853374,-2.36823319572701,53.40631168010053,-2.984510383414912
Chatelherault,CTE,2.0,55.7652234915406,-4.00467524821846,53.40631168010053,-2.984510383414912
Chatham,CTM,2.0,51.3803760158194,0.521150706594487,53.40631168010053,-2.984510383414912
Chathill,CHT,1.0,55.5367340174025,-1.70637532341525,53.40631168010053,-2.984510383414912
Cheadle Hulme,CHU,1.0,53.3759306424827,-2.1883029825707,53.40631168010053,-2.984510383414912
Cheam,CHE,2.0,51.3554775610295,-0.214167523240628,53.40631168010053,-2.984510383414912
Cheddington,CED,1.0,51.8579176369762,-0.662151871991779,53.40631168010053,-2.984510383414912
Chelford (Cheshire),CEL,0.0,53.2703118842523,-2.28057730967718,53.40631168010053,-2.984510383414912
Chelmsford,CHM,2.0,51.736370182895,0.468572080657349,53.40631168010053,-2.984510383414912
Chelsfield,CLD,2.0,51.3562540463622,0.109069814712519,53.40631168010053,-2.984510383414912
Cheltenham Spa,CNM,1.0,51.897399026527,-2.09962021886949,53.40631168010053,-2.984510383414912
Chepstow,CPW,1.0,51.6401819017246,-2.67190561030381,53.40631168010053,-2.984510383414912
Cherry Tree,CYT,1.0,53.7328728448942,-2.51837919025585,53.40631168010053,-2.984510383414912
Chertsey,CHY,2.0,51.387067986648,-0.509316626293664,53.40631168010053,-2.984510383414912
Cheshunt,CHN,2.0,51.7028745312854,-0.0239597248580568,53.40631168010053,-2.984510383414912
Chessington North,CSN,2.0,51.3640398492818,-0.300699137972596,53.40631168010053,-2.984510383414912
Chessington South,CSS,2.0,51.3565491107847,-0.308157574149904,53.40631168010053,-2.984510383414912
Chester,CTR,0.0,53.1966981459934,-2.879593999182,53.40631168010053,-2.984510383414912
Chester Road,CRD,1.0,52.5356474587434,-1.83247949958833,53.40631168010053,-2.984510383414912
Chesterfield,CHD,0.0,53.2382208069527,-1.42011597140436,53.40631168010053,-2.984510383414912
Chester-le-Street,CLS,0.0,54.854595364494,-1.57801542177952,53.40631168010053,-2.984510383414912
Chestfield & Swalecliffe,CSW,2.0,51.360237745381,1.06693052184082,53.40631168010053,-2.984510383414912
Chetnole,CNO,2.0,50.8663655335093,-2.57292595204148,53.40631168010053,-2.984510383414912
Chichester,CCH,2.0,50.8320529892616,-0.781748952807999,53.40631168010053,-2.984510383414912
Chilham,CIL,2.0,51.2446076985827,0.975895539359203,53.40631168010053,-2.984510383414912
Chilworth,CHL,2.0,51.2152123162868,-0.524824137256049,53.40631168010053,-2.984510383414912
Chingford,CHI,2.0,51.6330849559396,0.00989703968061354,53.40631168010053,-2.984510383414912
Chinley,CLY,0.0,53.3402914179345,-1.94394095141586,53.40631168010053,-2.984510383414912
Chippenham,CPM,2.0,51.4624897217942,-2.11539415452921,53.40631168010053,-2.984510383414912
Chipstead,CHP,2.0,51.3092758788923,-0.169503225609274,53.40631168010053,-2.984510383414912
Chirk,CRK,1.0,52.9330904882563,-3.06564362624753,53.40631168010053,-2.984510383414912
Chislehurst,CIT,2.0,51.4055547408408,0.0574179687488035,53.40631168010053,-2.984510383414912
Chiswick,CHK,2.0,51.4811353508269,-0.267835206320324,53.40631168010053,-2.984510383414912
Cholsey,CHO,2.0,51.5702025135637,-1.15802300516055,53.40631168010053,-2.984510383414912
Chorley,CRL,1.0,53.6525386748143,-2.62684103630161,53.40631168010053,-2.984510383414912
Chorleywood,CLW,2.0,51.6542477676637,-0.518320062534133,53.40631168010053,-2.984510383414912
Christchurch,CHR,2.0,50.7382153631909,-1.78454614689707,53.40631168010053,-2.984510383414912
Christs Hospital,CHH,2.0,51.0506848896206,-0.363556339669494,53.40631168010053,-2.984510383414912
Church & Oswaldtwistle,CTW,1.0,53.7505227746877,-2.39121218921604,53.40631168010053,-2.984510383414912
Church Fenton,CHF,1.0,53.8266010051519,-1.22758889955301,53.40631168010053,-2.984510383414912
Church Stretton,CTT,1.0,52.5374242388884,-2.80369477152189,53.40631168010053,-2.984510383414912
Cilmeri,CIM,1.0,52.1505334866855,-3.45654171112508,53.40631168010053,-2.984510383414912
City Thameslink,CTK,2.0,51.5139346019675,-0.103589643870664,53.40631168010053,-2.984510383414912
Clacton-on-Sea,CLT,2.0,51.7939991870545,1.15409160775521,53.40631168010053,-2.984510383414912
Clandon,CLA,2.0,51.2640043702166,-0.502766109156909,53.40631168010053,-2.984510383414912
Clapham (North Yorkshire),CPY,1.0,54.1053880706421,-2.4103762733162,53.40631168010053,-2.984510383414912
Clapham High Street,CLP,2.0,51.465479417202,-0.132521686185382,53.40631168010053,-2.984510383414912
Clapham Junction,CLJ,1.0,51.4641865965587,-0.170293416365599,53.40631168010053,-2.984510383414912
Clapton,CPT,2.0,51.5616423238882,-0.0570246574503497,53.40631168010053,-2.984510383414912
Clarbeston Road,CLR,1.0,51.8516714049905,-4.8835490247474,53.40631168010053,-2.984510383414912
Clarkston,CKS,2.0,55.7893535486702,-4.27564475472092,53.40631168010053,-2.984510383414912
Claverdon,CLV,2.0,52.277091521558,-1.69656001384624,53.40631168010053,-2.984510383414912
Claygate,CLG,2.0,51.3612128745663,-0.34824779526903,53.40631168010053,-2.984510383414912
Cleethorpes,CLE,1.0,53.5619045675724,-0.0292209300100191,53.40631168010053,-2.984510383414912
Cleland,CEA,2.0,55.804652232152,-3.91024482718574,53.40631168010053,-2.984510383414912
Clifton (Manchester),CLI,1.0,53.522491666707,-2.31474664635258,53.40631168010053,-2.984510383414912
Clifton Down,CFN,2.0,51.4645471476911,-2.61174122454121,53.40631168010053,-2.984510383414912
Clitheroe,CLH,1.0,53.8734683464237,-2.39433664531423,53.40631168010053,-2.984510383414912
Clock House,CLK,2.0,51.4085847718765,-0.0406570648343016,53.40631168010053,-2.984510383414912
Clunderwen,CUW,1.0,51.840545791914,-4.73184301881061,53.40631168010053,-2.984510383414912
Clydebank,CYK,2.0,55.9006964941048,-4.40441492241242,53.40631168010053,-2.984510383414912
Coatbridge Central,CBC,2.0,55.8625102963699,-4.0318976496868,53.40631168010053,-2.984510383414912
Coatbridge Sunnyside,CBS,2.0,55.8668386609231,-4.02828798060081,53.40631168010053,-2.984510383414912
Coatdyke,COA,2.0,55.8643447692187,-4.00498525207608,53.40631168010053,-2.984510383414912
Cobham & Stoke d'Abernon,CSD,2.0,51.3180996661306,-0.389346373427882,53.40631168010053,-2.984510383414912
Codsall,CSL,1.0,52.6272899571536,-2.20176310096144,53.40631168010053,-2.984510383414912
Cogan,CGN,2.0,51.4459958120536,-3.18909039001181,53.40631168010053,-2.984510383414912
Colchester,COL,2.0,51.90071062168,0.89259805805851,53.40631168010053,-2.984510383414912
Colchester Town,CET,2.0,51.8864527052257,0.9047624659822,53.40631168010053,-2.984510383414912
Coleshill Parkway,CEH,1.0,52.5165275432713,-1.70817740730361,53.40631168010053,-2.984510383414912
Collingham,CLM,1.0,53.1440857576614,-0.750393934928215,53.40631168010053,-2.984510383414912
Collington,CLL,2.0,50.8392865411482,0.457861387933257,53.40631168010053,-2.984510383414912
Colne,CNE,1.0,53.8547444008362,-2.18185934114806,53.40631168010053,-2.984510383414912
Colwall,CWL,1.0,52.0798705537891,-2.35695037506955,53.40631168010053,-2.984510383414912
Colwyn Bay,CWB,1.0,53.2963632033856,-3.72541732837559,53.40631168010053,-2.984510383414912
Combe (Oxon),CME,2.0,51.8325940324182,-1.39407333584626,53.40631168010053,-2.984510383414912
Commondale,COM,1.0,54.4812740872027,-0.975148019682156,53.40631168010053,-2.984510383414912
Congleton,CNG,1.0,53.1578561862417,-2.19258027037562,53.40631168010053,-2.984510383414912
Conisbrough,CNS,1.0,53.4893094105923,-1.23433150755602,53.40631168010053,-2.984510383414912
Connel Ferry,CON,2.0,56.4523594657108,-5.38544247761732,53.40631168010053,-2.984510383414912
Conon Bridge,CBD,2.0,57.5617567994351,-4.44040638557,53.40631168010053,-2.984510383414912
Cononley,CEY,1.0,53.9175717411782,-2.01206789209741,53.40631168010053,-2.984510383414912
Conway Park,CNP,0.0,53.3933615887328,-3.02267129068915,53.40631168010053,-2.984510383414912
Conwy,CNW,1.0,53.280106240192,-3.83052500023981,53.40631168010053,-2.984510383414912
Cooden Beach,COB,2.0,50.8333700419813,0.426858738350685,53.40631168010053,-2.984510383414912
Cookham,COO,2.0,51.557462203665,-0.722079072881563,53.40631168010053,-2.984510383414912
Cooksbridge,CBR,2.0,50.9037547738731,-0.0092027514388362,53.40631168010053,-2.984510383414912
Coombe Junction Halt,COE,2.0,50.4459252926848,-4.48185232237372,53.40631168010053,-2.984510383414912
Copplestone,COP,2.0,50.8144709700958,-3.75157247453534,53.40631168010053,-2.984510383414912
Corbridge,CRB,1.0,54.9662625268169,-2.01840032187859,53.40631168010053,-2.984510383414912
Corby,COR,2.0,52.4888508478421,-0.6883354035657,53.40631168010053,-2.984510383414912
Corkerhill,CKH,2.0,55.8375061471062,-4.33429351905428,53.40631168010053,-2.984510383414912
Corkickle,CKL,2.0,54.5416834476749,-3.58216474823985,53.40631168010053,-2.984510383414912
Corpach,CPA,2.0,56.8428332781627,-5.12195790866533,53.40631168010053,-2.984510383414912
Corrour,CRR,2.0,56.7602193492772,-4.69060138585505,53.40631168010053,-2.984510383414912
Coryton,COY,2.0,51.5204395971461,-3.23181845626842,53.40631168010053,-2.984510383414912
Coseley,CSY,0.0,52.5450842204875,-2.08577774384501,53.40631168010053,-2.984510383414912
Cosford,COS,1.0,52.6448359469502,-2.30027497544232,53.40631168010053,-2.984510383414912
Cosham,CSA,2.0,50.8419241447189,-1.06732879438891,53.40631168010053,-2.984510383414912
Cottingham,CGM,1.0,53.7816479755855,-0.406433983012819,53.40631168010053,-2.984510383414912
Cottingley,COT,1.0,53.7678175756796,-1.58770821538294,53.40631168010053,-2.984510383414912
Coulsdon South,CDS,2.0,51.3158366640872,-0.137887293899879,53.40631168010053,-2.984510383414912
Coulsdon Town,CDN,2.0,51.3220411523246,-0.134464231082376,53.40631168010053,-2.984510383414912
Coventry,COV,1.0,52.4008144382941,-1.51345977599177,53.40631168010053,-2.984510383414912
Coventry Arena,CAA,1.0,52.4477337100526,-1.49412470531811,53.40631168010053,-2.984510383414912
Cowden (Kent),CWN,2.0,51.1556353416943,0.110032723034128,53.40631168010053,-2.984510383414912
Cowdenbeath,COW,2.0,56.1120953327991,-3.34318635187069,53.40631168010053,-2.984510383414912
Cradley Heath,CRA,1.0,52.4696552938033,-2.09048839521938,53.40631168010053,-2.984510383414912
Craigendoran,CGD,2.0,55.9948018624344,-4.71124492675969,53.40631168010053,-2.984510383414912
Cramlington,CRM,1.0,55.0877690033603,-1.59859511992401,53.40631168010053,-2.984510383414912
Cranbrook (Devon),CBK,2.0,50.7500952464281,-3.42041599201744,53.40631168010053,-2.984510383414912
Craven Arms,CRV,1.0,52.4425417003323,-2.83742232035607,53.40631168010053,-2.984510383414912
Crawley,CRW,2.0,51.1122123903253,-0.186672935434113,53.40631168010053,-2.984510383414912
Crayford,CRY,2.0,51.4482779041524,0.178936075571555,53.40631168010053,-2.984510383414912
Crediton,CDI,2.0,50.7833069483759,-3.64677829535681,53.40631168010053,-2.984510383414912
Cressing (Essex),CES,2.0,51.8523340604127,0.577961040362359,53.40631168010053,-2.984510383414912
Cressington,CSG,0.0,53.3587520488864,-2.91200333610422,53.40631168010053,-2.984510383414912
Creswell,CWD,2.0,53.264112781138,-1.21639486472377,53.40631168010053,-2.984510383414912
Crewe,CRE,0.0,53.0896271575516,-2.4329691730368,53.40631168010053,-2.984510383414912
Crewkerne,CKN,2.0,50.8735384311373,-2.77849644743115,53.40631168010053,-2.984510383414912
Crews Hill,CWH,2.0,51.684484296328,-0.106887096068869,53.40631168010053,-2.984510383414912
Crianlarich,CNR,2.0,56.3904817962502,-4.61843468589525,53.40631168010053,-2.984510383414912
Criccieth,CCC,1.0,52.9184156772103,-4.23751289496718,53.40631168010053,-2.984510383414912
Cricklewood,CRI,2.0,51.5584516063089,-0.21267663535896,53.40631168010053,-2.984510383414912
Croftfoot,CFF,2.0,55.8182615046635,-4.2283256121718,53.40631168010053,-2.984510383414912
Crofton Park,CFT,2.0,51.4551875557246,-0.0365030454664447,53.40631168010053,-2.984510383414912
Cromer,CMR,1.0,52.930080690008,1.29282430287158,53.40631168010053,-2.984510383414912
Cromford,CMF,2.0,53.1129329746475,-1.5491620139343,53.40631168010053,-2.984510383414912
Crookston,CKT,2.0,55.842318324364,-4.3646760010174,53.40631168010053,-2.984510383414912
Cross Gates,CRG,0.0,53.8049143949973,-1.45158048553366,53.40631168010053,-2.984510383414912
Crossflatts,CFL,1.0,53.85846717734,-1.84488619236594,53.40631168010053,-2.984510383414912
Crosshill,COI,2.0,55.833290292641,-4.25681226287329,53.40631168010053,-2.984510383414912
Crosskeys,CKY,2.0,51.6209052713811,-3.12617046220163,53.40631168010053,-2.984510383414912
Crossmyloof,CMY,2.0,55.8339508036377,-4.28431839013047,53.40631168010053,-2.984510383414912
Croston,CSO,1.0,53.6675629248262,-2.7777501372441,53.40631168010053,-2.984510383414912
Crouch Hill,CRH,2.0,51.5713003694514,-0.117148819750171,53.40631168010053,-2.984510383414912
Crowborough,COH,2.0,51.0463795309772,0.188012411090755,53.40631168010053,-2.984510383414912
Crowhurst,CWU,2.0,50.8885767869689,0.501336510177375,53.40631168010053,-2.984510383414912
Crowle,CWE,1.0,53.5897328427991,-0.81735865187716,53.40631168010053,-2.984510383414912
Crowthorne,CRN,2.0,51.366727169526,-0.819273411974494,53.40631168010053,-2.984510383414912
Croy,CRO,2.0,55.9556821274184,-4.0359768431357,53.40631168010053,-2.984510383414912
Crystal Palace,CYP,2.0,51.4181074460731,-0.072609878955063,53.40631168010053,-2.984510383414912
Cuddington,CUD,1.0,53.2399218257185,-2.59930662534034,53.40631168010053,-2.984510383414912
Cuffley,CUF,2.0,51.7087202077633,-0.10978341309134,53.40631168010053,-2.984510383414912
Culham,CUM,2.0,51.6537935596445,-1.23651383491957,53.40631168010053,-2.984510383414912
Culrain,CUA,2.0,57.9195183107936,-4.40427167605383,53.40631168010053,-2.984510383414912
Cumbernauld,CUB,2.0,55.9420305501203,-3.98033519205288,53.40631168010053,-2.984510383414912
Cupar,CUP,1.0,56.3169904139478,-3.00875666756718,53.40631168010053,-2.984510383414912
Curriehill,CUH,2.0,55.9005690535793,-3.3187519699346,53.40631168010053,-2.984510383414912
Cuxton,CUX,2.0,51.3739241251142,0.46170858180193,53.40631168010053,-2.984510383414912
Cwmbach,CMH,2.0,51.7019311514616,-3.41372372042933,53.40631168010053,-2.984510383414912
Cwmbran,CWM,1.0,51.656589162343,-3.01620383997003,53.40631168010053,-2.984510383414912
Cynghordy,CYN,1.0,52.0515022362178,-3.7482113284355,53.40631168010053,-2.984510383414912
Dagenham Dock,DDK,2.0,51.5260877297843,0.146102888033722,53.40631168010053,-2.984510383414912
Daisy Hill,DSY,1.0,53.5394553429484,-2.51586138257427,53.40631168010053,-2.984510383414912
Dalgety Bay,DAG,2.0,56.0420983541516,-3.36772120470528,53.40631168010053,-2.984510383414912
Dalmally,DAL,2.0,56.4011953995722,-4.98355341151622,53.40631168010053,-2.984510383414912
Dalmarnock,DAK,2.0,55.8420903351636,-4.2177095618254,53.40631168010053,-2.984510383414912
Dalmeny,DAM,2.0,55.9863224095627,-3.38162023146767,53.40631168010053,-2.984510383414912
Dalmuir,DMR,2.0,55.9119346513924,-4.42668195442919,53.40631168010053,-2.984510383414912
Dalreoch,DLR,2.0,55.9474206110829,-4.57786407515961,53.40631168010053,-2.984510383414912
Dalry,DLY,2.0,55.7062259599313,-4.71108082709015,53.40631168010053,-2.984510383414912
Dalston (Cumbria),DLS,2.0,54.8461793005894,-2.98885243258072,53.40631168010053,-2.984510383414912
Dalston Junction,DLJ,2.0,51.5461140533343,-0.075137571913028,53.40631168010053,-2.984510383414912
Dalston Kingsland,DLK,2.0,51.548146614991,-0.0757008270787684,53.40631168010053,-2.984510383414912
Dalton (Cumbria),DLT,1.0,54.1542402484565,-3.17900332996882,53.40631168010053,-2.984510383414912
Dalwhinnie,DLW,2.0,56.9351747606959,-4.24619941232607,53.40631168010053,-2.984510383414912
Danby,DNY,2.0,54.4661531404483,-0.910955849347219,53.40631168010053,-2.984510383414912
Danescourt,DCT,2.0,51.5005094348701,-3.2339173943314,53.40631168010053,-2.984510383414912
Danzey,DZY,1.0,52.3248139247282,-1.82087736085094,53.40631168010053,-2.984510383414912
Darlington,DAR,0.0,54.5204487638895,-1.5473239913848,53.40631168010053,-2.984510383414912
Darnall,DAN,1.0,53.3845848539264,-1.4125672166063,53.40631168010053,-2.984510383414912
Darsham,DSM,2.0,52.2729949292624,1.52346982245693,53.40631168010053,-2.984510383414912
Dartford,DFD,2.0,51.4473686091583,0.219247795125754,53.40631168010053,-2.984510383414912
Darton,DRT,1.0,53.5883685698073,-1.53165757467506,53.40631168010053,-2.984510383414912
Darwen,DWN,1.0,53.6980382551398,-2.46494001713562,53.40631168010053,-2.984510383414912
Datchet,DAT,2.0,51.4830761133821,-0.579421910690656,53.40631168010053,-2.984510383414912
Davenport,DVN,1.0,53.3909022414929,-2.15295802817964,53.40631168010053,-2.984510383414912
Dawlish,DWL,1.0,50.5808243984253,-3.46462586729764,53.40631168010053,-2.984510383414912
Dawlish Warren,DWW,2.0,50.5987145190544,-3.44356213176095,53.40631168010053,-2.984510383414912
Deal,DEA,2.0,51.2230404404227,1.39884675211659,53.40631168010053,-2.984510383414912
Dean (Wilts),DEN,2.0,51.0424618999667,-1.63486720856804,53.40631168010053,-2.984510383414912
Deansgate,DGT,0.0,53.4741857640751,-2.25105124318295,53.40631168010053,-2.984510383414912
Deganwy,DGY,1.0,53.2947519812566,-3.83338710286836,53.40631168010053,-2.984510383414912
Deighton,DHN,1.0,53.6684837829464,-1.75189659292689,53.40631168010053,-2.984510383414912
Delamere,DLM,1.0,53.2287779256449,-2.66656070710605,53.40631168010053,-2.984510383414912
Denby Dale,DBD,1.0,53.5726320929315,-1.66321052492305,53.40631168010053,-2.984510383414912
Denham,DNM,2.0,51.578836362709,-0.497436854492594,53.40631168010053,-2.984510383414912
Denham Golf Club,DGC,2.0,51.580596815156,-0.51778668246761,53.40631168010053,-2.984510383414912
Denmark Hill,DMK,2.0,51.4682011118168,-0.0893608845630425,53.40631168010053,-2.984510383414912
Dent,DNT,1.0,54.2824108456213,-2.36359889232972,53.40631168010053,-2.984510383414912
Denton,DTN,1.0,53.4568674739172,-2.13165979003999,53.40631168010053,-2.984510383414912
Deptford,DEP,2.0,51.4788463642079,-0.026270214115525,53.40631168010053,-2.984510383414912
Derby,DBY,1.0,52.9165485818253,-1.46335478012848,53.40631168010053,-2.984510383414912
Derby Road (Ipswich),DBR,2.0,52.050551175491,1.18264326424955,53.40631168010053,-2.984510383414912
Devonport (Devon),DPT,2.0,50.3785384996853,-4.17071080992923,53.40631168010053,-2.984510383414912
Devonport Dockyard,DOC,2.0,50.3821742019037,-4.1758986568326,53.40631168010053,-2.984510383414912
Dewsbury,DEW,1.0,53.6921323675954,-1.63310655566078,53.40631168010053,-2.984510383414912
Didcot Parkway,DID,2.0,51.6109546860743,-1.24289356096081,53.40631168010053,-2.984510383414912
Digby & Sowton,DIG,2.0,50.713993328666,-3.47356109719659,53.40631168010053,-2.984510383414912
Dilton Marsh,DMH,2.0,51.2489890910928,-2.20791557793657,53.40631168010053,-2.984510383414912
Dinas (Rhondda),DMG,2.0,51.6178378851192,-3.43754173872447,53.40631168010053,-2.984510383414912
Dinas Powys,DNS,2.0,51.4316678020878,-3.21835212130232,53.40631168010053,-2.984510383414912
Dingle Road,DGL,2.0,51.4400570944876,-3.18059109298652,53.40631168010053,-2.984510383414912
Dingwall,DIN,2.0,57.59424066943,-4.42219986587001,53.40631168010053,-2.984510383414912
Dinsdale,DND,1.0,54.5147295901116,-1.46706513570219,53.40631168010053,-2.984510383414912
Dinting,DTG,1.0,53.4493321635491,-1.97029878612479,53.40631168010053,-2.984510383414912
Disley,DSL,1.0,53.3581843467523,-2.04248177088045,53.40631168010053,-2.984510383414912
Diss,DIS,1.0,52.3736543722193,1.12369734579394,53.40631168010053,-2.984510383414912
Dodworth,DOD,1.0,53.5443255754093,-1.53169088048623,53.40631168010053,-2.984510383414912
Dolau,DOL,1.0,52.29535399865,-3.26362091602153,53.40631168010053,-2.984510383414912
Doleham,DLH,2.0,50.9185854757412,0.609974730800684,53.40631168010053,-2.984510383414912
Dolgarrog,DLG,2.0,53.1863525124092,-3.82263691779208,53.40631168010053,-2.984510383414912
Dolwyddelan,DWD,2.0,53.0520169904365,-3.88513298649778,53.40631168010053,-2.984510383414912
Doncaster,DON,1.0,53.5221497040669,-1.13984532561563,53.40631168010053,-2.984510383414912
Dorchester South,DCH,2.0,50.7092941817416,-2.43724302167314,53.40631168010053,-2.984510383414912
Dorchester West,DCW,2.0,50.7109558301461,-2.44254130185048,53.40631168010053,-2.984510383414912
Dore & Totley,DOR,0.0,53.3276351284421,-1.51529775653157,53.40631168010053,-2.984510383414912
Dorking (Main),DKG,2.0,51.2409286574082,-0.324250782074152,53.40631168010053,-2.984510383414912
Dorking Deepdene,DPD,2.0,51.2388030074627,-0.324643185528021,53.40631168010053,-2.984510383414912
Dorking West,DKT,2.0,51.2362248191187,-0.339978560509645,53.40631168010053,-2.984510383414912
Dormans,DMS,2.0,51.1557900843982,-0.00430826569700688,53.40631168010053,-2.984510383414912
Dorridge,DDG,2.0,52.3720695979365,-1.7529004491151,53.40631168010053,-2.984510383414912
Dove Holes,DVH,1.0,53.3000293384446,-1.88975176117671,53.40631168010053,-2.984510383414912
Dover Priory,DVP,2.0,51.1256965964877,1.30529347028767,53.40631168010053,-2.984510383414912
Dovercourt,DVC,2.0,51.9387345600673,1.28061089295205,53.40631168010053,-2.984510383414912
Dovey Junction,DVY,1.0,52.5643635350253,-3.92390297461625,53.40631168010053,-2.984510383414912
Downham Market,DOW,1.0,52.6041065863828,0.365681057551921,53.40631168010053,-2.984510383414912
Drayton Green,DRG,2.0,51.516615460614,-0.33019425245541,53.40631168010053,-2.984510383414912
Drayton Park,DYP,2.0,51.5527683445258,-0.105509008966857,53.40631168010053,-2.984510383414912
Drem,DRM,2.0,56.0051254677484,-2.78604825861367,53.40631168010053,-2.984510383414912
Driffield,DRF,1.0,54.0015272627459,-0.434665009990613,53.40631168010053,-2.984510383414912
Drigg,DRI,2.0,54.3769633209494,-3.44341362306065,53.40631168010053,-2.984510383414912
Droitwich Spa,DTW,1.0,52.2682048110456,-2.15836341611519,53.40631168010053,-2.984510383414912
Dronfield,DRO,0.0,53.301369608262,-1.46877868224617,53.40631168010053,-2.984510383414912
Drumchapel,DMC,2.0,55.9048173082117,-4.36287986166729,53.40631168010053,-2.984510383414912
Drumfrochar,DFR,2.0,55.941253590074,-4.7747672712099,53.40631168010053,-2.984510383414912
Drumgelloch,DRU,2.0,55.8673580650901,-3.94888294626481,53.40631168010053,-2.984510383414912
Drumry,DMY,2.0,55.9045972303031,-4.38547328830428,53.40631168010053,-2.984510383414912
Dublin Ferryport,DFP,2.0,nan,nan,53.40631168010053,-2.984510383414912
Dublin Port - Stena,DPS,2.0,nan,nan,53.40631168010053,-2.984510383414912
Duddeston,DUD,0.0,52.4883642047734,-1.87139067866748,53.40631168010053,-2.984510383414912
Dudley Port,DDP,1.0,52.5246530129006,-2.04947980373852,53.40631168010053,-2.984510383414912
Duffield,DFI,2.0,52.9884014400862,-1.48597186949023,53.40631168010053,-2.984510383414912
Duirinish,DRN,2.0,57.319983293958,-5.69131781581449,53.40631168010053,-2.984510383414912
Duke Street,DST,2.0,55.8584414373244,-4.2130485563449,53.40631168010053,-2.984510383414912
Dullingham,DUL,2.0,52.2016485756332,0.366663821056869,53.40631168010053,-2.984510383414912
Dumbarton Central,DBC,2.0,55.9466604798905,-4.566921701259,53.40631168010053,-2.984510383414912
Dumbarton East,DBE,2.0,55.9422524714118,-4.55413782204535,53.40631168010053,-2.984510383414912
Dumbreck,DUM,2.0,55.8446540909046,-4.30124003607443,53.40631168010053,-2.984510383414912
Dumfries,DMF,2.0,55.072560279693,-3.60430398071058,53.40631168010053,-2.984510383414912
Dumpton Park,DMP,2.0,51.3456955683759,1.42581850787212,53.40631168010053,-2.984510383414912
Dunbar,DUN,1.0,55.9982961094783,-2.51334649990357,53.40631168010053,-2.984510383414912
Dunblane,DBL,1.0,56.1858943626205,-3.96548684337943,53.40631168010053,-2.984510383414912
Duncraig,DCG,2.0,57.3370088020812,-5.63713233286221,53.40631168010053,-2.984510383414912
Dundee,DEE,1.0,56.4564890772048,-2.97120503713119,53.40631168010053,-2.984510383414912
Dunfermline Queen Margaret,DFL,2.0,56.0805782860466,-3.42146840922136,53.40631168010053,-2.984510383414912
Dunfermline Town,DFE,2.0,56.068193893139,-3.45252931740364,53.40631168010053,-2.984510383414912
Dunkeld & Birnam,DKD,2.0,56.5570605801315,-3.57839962708896,53.40631168010053,-2.984510383414912
Dunlop,DNL,2.0,55.7118854515322,-4.53238991249355,53.40631168010053,-2.984510383414912
Dunrobin Castle,DNO,-999.0,57.9855381206844,-3.94892170714185,53.40631168010053,-2.984510383414912
Dunston,DOT,1.0,54.9500563207881,-1.64204458851339,53.40631168010053,-2.984510383414912
Dunton Green,DNG,2.0,51.2964882631909,0.170937116397448,53.40631168010053,-2.984510383414912
Durham,DHM,0.0,54.7793912284615,-1.58175210120156,53.40631168010053,-2.984510383414912
Durrington-on-Sea,DUR,2.0,50.8175268119417,-0.411468707281776,53.40631168010053,-2.984510383414912
Dyce,DYC,2.0,57.2056516865783,-2.19232258891137,53.40631168010053,-2.984510383414912
Dyffryn Ardudwy,DYF,1.0,52.7888563835265,-4.10464455585967,53.40631168010053,-2.984510383414912
Eaglescliffe,EAG,1.0,54.5294320938467,-1.34943715428009,53.40631168010053,-2.984510383414912
Ealing Broadway,EAL,2.0,51.5148402459065,-0.301751768794788,53.40631168010053,-2.984510383414912
Earlestown,ERL,0.0,53.4511393445328,-2.63766364961555,53.40631168010053,-2.984510383414912
Earley,EAR,2.0,51.4410997593376,-0.917988243278776,53.40631168010053,-2.984510383414912
Earlsfield,EAD,2.0,51.4423355716453,-0.187714934858848,53.40631168010053,-2.984510383414912
Earlswood (Surrey),ELD,2.0,51.2273270225923,-0.170823068766138,53.40631168010053,-2.984510383414912
Earlswood (West Midlands),EWD,1.0,52.3665825052423,-1.8611697000963,53.40631168010053,-2.984510383414912
East Croydon,ECR,1.0,51.375452247008,-0.0927797007945513,53.40631168010053,-2.984510383414912
East Didsbury,EDY,0.0,53.4093102676041,-2.22199660364924,53.40631168010053,-2.984510383414912
East Dulwich,EDW,2.0,51.4614929058056,-0.0805717011574361,53.40631168010053,-2.984510383414912
East Farleigh,EFL,2.0,51.2552351625774,0.48472893141574,53.40631168010053,-2.984510383414912
East Garforth,EGF,1.0,53.791978068865,-1.37053696173991,53.40631168010053,-2.984510383414912
East Grinstead,EGR,2.0,51.1262718897162,-0.0179000957224751,53.40631168010053,-2.984510383414912
East Kilbride,EKL,2.0,55.7660084213155,-4.18022795719083,53.40631168010053,-2.984510383414912
East Malling,EML,2.0,51.2858073765709,0.439280267235468,53.40631168010053,-2.984510383414912
East Midlands Parkway,EMD,1.0,52.8625009507858,-1.26323198480542,53.40631168010053,-2.984510383414912
East Tilbury,ETL,2.0,51.4848289691417,0.412927781783206,53.40631168010053,-2.984510383414912
East Worthing,EWR,2.0,50.8216440311297,-0.354893751833792,53.40631168010053,-2.984510383414912
Eastbourne,EBN,2.0,50.769375796356,0.281246925814933,53.40631168010053,-2.984510383414912
Eastbrook,EBK,2.0,51.4376389302109,-3.20613799233607,53.40631168010053,-2.984510383414912
Easterhouse,EST,2.0,55.8597611434519,-4.10717729312099,53.40631168010053,-2.984510383414912
Eastham Rake,ERA,0.0,53.307541541813,-2.98113292052366,53.40631168010053,-2.984510383414912
Eastleigh,ESL,2.0,50.9692506626551,-1.35008459359062,53.40631168010053,-2.984510383414912
Eastrington,EGN,1.0,53.7551607566439,-0.787630411364113,53.40631168010053,-2.984510383414912
Ebbsfleet International,EBD,2.0,51.4429709652907,0.32092083234529,53.40631168010053,-2.984510383414912
Ebbw Vale Parkway,EBV,2.0,51.7571470124788,-3.19610327359543,53.40631168010053,-2.984510383414912
Ebbw Vale Town,EBB,2.0,51.7766914366017,-3.20257748551815,53.40631168010053,-2.984510383414912
Eccles (Manchester),ECC,0.0,53.4853606544673,-2.33451459617625,53.40631168010053,-2.984510383414912
Eccles Road,ECS,0.0,52.470880756208,0.9699171605498,53.40631168010053,-2.984510383414912
Eccleston Park,ECL,0.0,53.4307889509427,-2.78004194630839,53.40631168010053,-2.984510383414912
Edale,EDL,0.0,53.3649724276593,-1.81662641323107,53.40631168010053,-2.984510383414912
Eden Park,EDN,2.0,51.3900893651293,-0.0263551602667185,53.40631168010053,-2.984510383414912
Edenbridge,EBR,2.0,51.2084338014699,0.0606462610283875,53.40631168010053,-2.984510383414912
Edenbridge Town,EBT,2.0,51.2000809020151,0.0671730164326339,53.40631168010053,-2.984510383414912
Edge Hill,EDG,0.0,53.4026192646978,-2.94648344109004,53.40631168010053,-2.984510383414912
Edinburgh,EDB,1.0,55.9523963079519,-3.18822824323027,53.40631168010053,-2.984510383414912
Edinburgh Gateway,EGY,2.0,55.9409436079933,-3.32025199802754,53.40631168010053,-2.984510383414912
Edinburgh Park,EDP,2.0,55.9275544602882,-3.30766474611863,53.40631168010053,-2.984510383414912
Edmonton Green,EDR,2.0,51.6249271577681,-0.061112495341183,53.40631168010053,-2.984510383414912
Effingham Junction,EFF,2.0,51.2914943131304,-0.419965418267021,53.40631168010053,-2.984510383414912
Eggesford,EGG,2.0,50.8877413451847,-3.8747459315936,53.40631168010053,-2.984510383414912
Egham,EGH,2.0,51.4296459643391,-0.546512233572854,53.40631168010053,-2.984510383414912
Egton,EGT,1.0,54.4374810712663,-0.761464966771902,53.40631168010053,-2.984510383414912
Elephant & Castle,EPH,1.0,51.4940272342536,-0.098725576447673,53.40631168010053,-2.984510383414912
Elephant & Castle (Underground),ZEL,-999.0,nan,nan,53.40631168010053,-2.984510383414912
Elgin,ELG,2.0,57.6429130327793,-3.3112465068439,53.40631168010053,-2.984510383414912
Ellesmere Port,ELP,0.0,53.2821939982944,-2.89642303912049,53.40631168010053,-2.984510383414912
Elmers End,ELE,2.0,51.3984907228231,-0.0495703490218307,53.40631168010053,-2.984510383414912
Elmstead Woods,ESD,2.0,51.4171158227735,0.0442740591944571,53.40631168010053,-2.984510383414912
Elmswell,ESW,2.0,52.2380370806758,0.912589403049404,53.40631168010053,-2.984510383414912
Elsecar,ELR,1.0,53.4986597288227,-1.42742391502071,53.40631168010053,-2.984510383414912
Elsenham (Essex),ESM,2.0,51.9205434621908,0.228070270071964,53.40631168010053,-2.984510383414912
Elstree & Borehamwood,ELS,2.0,51.653068116385,-0.280081540392811,53.40631168010053,-2.984510383414912
Eltham,ELW,2.0,51.4556417308034,0.0524723310748576,53.40631168010053,-2.984510383414912
Elton & Orston,ELO,1.0,52.9521360042829,-0.855512437952713,53.40631168010053,-2.984510383414912
Ely,ELY,0.0,52.3912277010784,0.266827583237292,53.40631168010053,-2.984510383414912
Emerson Park,EMP,2.0,51.5686403621106,0.220113229215512,53.40631168010053,-2.984510383414912
Emsworth,EMS,2.0,50.8516141341351,-0.938429764103964,53.40631168010053,-2.984510383414912
Energlyn & Churchill Park,ECP,2.0,51.5832164323409,-3.22879606589368,53.40631168010053,-2.984510383414912
Enfield Chase,ENC,2.0,51.6532525338014,-0.0906963712828411,53.40631168010053,-2.984510383414912
Enfield Lock,ENL,2.0,51.6709204354558,-0.0285324658222715,53.40631168010053,-2.984510383414912
Enfield Town,ENF,2.0,51.6520239893496,-0.0793276428368423,53.40631168010053,-2.984510383414912
Entwistle,ENT,1.0,53.6559786935683,-2.41454505509583,53.40631168010053,-2.984510383414912
Epsom (Surrey),EPS,2.0,51.3343914612577,-0.268777680483958,53.40631168010053,-2.984510383414912
Epsom Downs,EPD,2.0,51.3236861855796,-0.2389548499911,53.40631168010053,-2.984510383414912
Erdington,ERD,1.0,52.5282854859969,-1.83950909009634,53.40631168010053,-2.984510383414912
Eridge,ERI,2.0,51.0889635853662,0.201431713057724,53.40631168010053,-2.984510383414912
Erith,ERH,2.0,51.481668933412,0.175054448859463,53.40631168010053,-2.984510383414912
Esher,ESH,2.0,51.3798899750361,-0.353337838372063,53.40631168010053,-2.984510383414912
Eskbank,EKB,2.0,55.8818057426337,-3.08307353739981,53.40631168010053,-2.984510383414912
Essex Road,EXR,2.0,51.5407037990573,-0.0962760595924929,53.40631168010053,-2.984510383414912
Etchingham,ETC,2.0,51.0105437070136,0.442356266553348,53.40631168010053,-2.984510383414912
Euxton Balshaw Lane,EBA,0.0,53.6604819715387,-2.67202385840804,53.40631168010053,-2.984510383414912
Evesham,EVE,2.0,52.0983985539654,-1.94731370609441,53.40631168010053,-2.984510383414912
Ewell East,EWE,2.0,51.3452982319215,-0.241529638967969,53.40631168010053,-2.984510383414912
Ewell West,EWW,2.0,51.3500435722978,-0.256986619886036,53.40631168010053,-2.984510383414912
Exeter Central,EXC,2.0,50.726488241429,-3.53327709081269,53.40631168010053,-2.984510383414912
Exeter St David's,EXD,1.0,50.729278976491,-3.54328686333265,53.40631168010053,-2.984510383414912
Exeter St Thomas,EXT,2.0,50.7171518711947,-3.53883698274128,53.40631168010053,-2.984510383414912
Exhibition Centre (Glasgow),EXG,2.0,55.8615560763509,-4.28358973053668,53.40631168010053,-2.984510383414912
Exmouth,EXM,2.0,50.6216387262065,-3.41497227480739,53.40631168010053,-2.984510383414912
Exton,EXN,2.0,50.6683075102992,-3.44409684947275,53.40631168010053,-2.984510383414912
Eynsford,EYN,2.0,51.3627183040984,0.204393120925889,53.40631168010053,-2.984510383414912
Fairbourne,FRB,1.0,52.6960464630273,-4.04941426648684,53.40631168010053,-2.984510383414912
Fairfield,FRF,1.0,53.471295546374,-2.14577519882972,53.40631168010053,-2.984510383414912
Fairlie,FRL,2.0,55.7519484298977,-4.85326868616408,53.40631168010053,-2.984510383414912
Fairwater,FRW,2.0,51.4939101690858,-3.23383998994953,53.40631168010053,-2.984510383414912
Falconwood,FCN,2.0,51.4591526356848,0.0793044770026859,53.40631168010053,-2.984510383414912
Falkirk Grahamston,FKG,1.0,56.0026177290346,-3.78504688532692,53.40631168010053,-2.984510383414912
Falkirk High,FKK,2.0,55.9918195759738,-3.79224489222847,53.40631168010053,-2.984510383414912
Falls of Cruachan,FOC,-999.0,56.393889401057,-5.11247911920548,53.40631168010053,-2.984510383414912
Falmer,FMR,2.0,50.8621274713423,-0.0873855066246158,53.40631168010053,-2.984510383414912
Falmouth Docks,FAL,2.0,50.1507142799667,-5.05602948101336,53.40631168010053,-2.984510383414912
Falmouth Town,FMT,2.0,50.1483473407862,-5.06493628645553,53.40631168010053,-2.984510383414912
Fareham,FRM,2.0,50.8530338308312,-1.19203724188042,53.40631168010053,-2.984510383414912
Farnborough (Main),FNB,2.0,51.296604884603,-0.755725724931643,53.40631168010053,-2.984510383414912
Farnborough North,FNN,2.0,51.3020444491095,-0.743026929007782,53.40631168010053,-2.984510383414912
Farncombe,FNC,2.0,51.1971531239671,-0.604548878459314,53.40631168010053,-2.984510383414912
Farnham,FNH,2.0,51.2119042298562,-0.792427196436538,53.40631168010053,-2.984510383414912
Farningham Road,FNR,2.0,51.4016634815392,0.235452055986937,53.40631168010053,-2.984510383414912
Farnworth,FNW,1.0,53.5500060922431,-2.38784997242115,53.40631168010053,-2.984510383414912
Farringdon,ZFD,2.0,51.5201655608346,-0.105204669877814,53.40631168010053,-2.984510383414912
Fauldhouse,FLD,2.0,55.8224777300448,-3.71931936502271,53.40631168010053,-2.984510383414912
Faversham,FAV,2.0,51.3117105445912,0.891044848807162,53.40631168010053,-2.984510383414912
Faygate,FGT,2.0,51.095889351236,-0.263018670595782,53.40631168010053,-2.984510383414912
Fazakerley,FAZ,0.0,53.4690878780859,-2.93672370069026,53.40631168010053,-2.984510383414912
Fearn,FRN,2.0,57.7781470089061,-3.99393654949616,53.40631168010053,-2.984510383414912
Featherstone,FEA,1.0,53.6790669195959,-1.35844424440448,53.40631168010053,-2.984510383414912
Felixstowe,FLX,2.0,51.9670684291527,1.35043499148186,53.40631168010053,-2.984510383414912
Feltham,FEL,2.0,51.4478973442697,-0.409838240699482,53.40631168010053,-2.984510383414912
Feniton,FNT,2.0,50.7866805768598,-3.28541829669429,53.40631168010053,-2.984510383414912
Fenny Stratford,FEN,2.0,52.0000683454646,-0.715997362186537,53.40631168010053,-2.984510383414912
Fernhill,FER,2.0,51.6864988102667,-3.39588328122109,53.40631168010053,-2.984510383414912
Ferriby,FRY,1.0,53.7171537976793,-0.507830473428837,53.40631168010053,-2.984510383414912
Ferryside,FYS,1.0,51.7683725332786,-4.36945917743674,53.40631168010053,-2.984510383414912
Ffairfach,FFA,1.0,51.8724792728464,-3.9928602757854,53.40631168010053,-2.984510383414912
Filey,FIL,1.0,54.2098572113142,-0.293849397915568,53.40631168010053,-2.984510383414912
Filton Abbey Wood,FIT,1.0,51.5049414768014,-2.56243092363725,53.40631168010053,-2.984510383414912
Finchley Road & Frognal,FNY,2.0,51.5502644624917,-0.183140600658463,53.40631168010053,-2.984510383414912
Finsbury Park,FPK,1.0,51.5643002449157,-0.106284978884699,53.40631168010053,-2.984510383414912
Finstock,FIN,2.0,51.852782857678,-1.4693431033147,53.40631168010053,-2.984510383414912
Fishbourne (Sussex),FSB,2.0,50.839050994238,-0.815084252072113,53.40631168010053,-2.984510383414912
Fishersgate,FSG,2.0,50.8342331969519,-0.219423238635621,53.40631168010053,-2.984510383414912
Fishguard & Goodwick,FGW,1.0,52.0041205147366,-4.99483911549407,53.40631168010053,-2.984510383414912
Fishguard Harbour,FGH,1.0,52.0115490590944,-4.98564336378428,53.40631168010053,-2.984510383414912
Fiskerton,FSK,1.0,53.060273739149,-0.912187610219373,53.40631168010053,-2.984510383414912
Fitzwilliam,FZW,1.0,53.6325012276325,-1.37427316573517,53.40631168010053,-2.984510383414912
Five Ways,FWY,1.0,52.471096381369,-1.91295451976274,53.40631168010053,-2.984510383414912
Fleet,FLE,2.0,51.290634463196,-0.830805697283605,53.40631168010053,-2.984510383414912
Flimby,FLM,2.0,54.6896909968798,-3.5207407041013,53.40631168010053,-2.984510383414912
Flint,FLN,1.0,53.249527518706,-3.13299365746619,53.40631168010053,-2.984510383414912
Flitwick,FLT,2.0,52.0036411879386,-0.495257873996204,53.40631168010053,-2.984510383414912
Flixton,FLI,0.0,53.443809978016,-2.38424675876937,53.40631168010053,-2.984510383414912
Flowery Field,FLF,1.0,53.4618562073799,-2.08105317397333,53.40631168010053,-2.984510383414912
Folkestone Central,FKC,2.0,51.0828838914415,1.16948226479176,53.40631168010053,-2.984510383414912
Folkestone West,FKW,2.0,51.084582896074,1.15390330754187,53.40631168010053,-2.984510383414912
Ford,FOD,2.0,50.8293930308604,-0.578410029818067,53.40631168010053,-2.984510383414912
Forest Gate,FOG,2.0,51.5494301979489,0.0243528171904902,53.40631168010053,-2.984510383414912
Forest Hill,FOH,2.0,51.4392784872536,-0.0531571058976325,53.40631168010053,-2.984510383414912
Formby,FBY,0.0,53.5534804308434,-3.07090821445518,53.40631168010053,-2.984510383414912
Forres,FOR,2.0,57.6098000095499,-3.62595038813861,53.40631168010053,-2.984510383414912
Forsinard,FRS,2.0,58.3569037821129,-3.89688108603807,53.40631168010053,-2.984510383414912
Fort Matilda,FTM,2.0,55.9590370104671,-4.79526871008857,53.40631168010053,-2.984510383414912
Fort William,FTW,2.0,56.8204504611118,-5.10614472047831,53.40631168010053,-2.984510383414912
Four Oaks,FOK,1.0,52.5797812436274,-1.82803190041241,53.40631168010053,-2.984510383414912
Foxfield,FOX,2.0,54.2586714739313,-3.216062079698,53.40631168010053,-2.984510383414912
Foxton,FXN,2.0,52.1192118267723,0.0563080918097999,53.40631168010053,-2.984510383414912
Frant,FRT,2.0,51.1040264976395,0.294543047861973,53.40631168010053,-2.984510383414912
Fratton,FTN,2.0,50.7963389126627,-1.07398277385311,53.40631168010053,-2.984510383414912
Freshfield,FRE,0.0,53.5660564604323,-3.07182995042112,53.40631168010053,-2.984510383414912
Freshford,FFD,2.0,51.3420317090826,-2.30100872969826,53.40631168010053,-2.984510383414912
Frimley,FML,2.0,51.3118614892824,-0.746991364293745,53.40631168010053,-2.984510383414912
Frinton-on-Sea,FRI,2.0,51.8376787265319,1.24317054105804,53.40631168010053,-2.984510383414912
Frizinghall,FZH,1.0,53.820371215731,-1.76900125757173,53.40631168010053,-2.984510383414912
Frodsham,FRD,1.0,53.2958177869804,-2.72356723663145,53.40631168010053,-2.984510383414912
Frome,FRO,2.0,51.2272725800456,-2.30999705913937,53.40631168010053,-2.984510383414912
Fulwell,FLW,2.0,51.4339339825483,-0.349467607470903,53.40631168010053,-2.984510383414912
Furness Vale,FNV,1.0,53.3487533587757,-1.98884482439185,53.40631168010053,-2.984510383414912
Furze Platt,FZP,2.0,51.5330197603371,-0.728472828364334,53.40631168010053,-2.984510383414912
Gainsborough Central,GNB,2.0,53.3995839522027,-0.769694112366499,53.40631168010053,-2.984510383414912
Gainsborough Lea Road,GBL,1.0,53.3860887154294,-0.768579598023266,53.40631168010053,-2.984510383414912
Galashiels,GAL,2.0,55.6183541299903,-2.80690093870811,53.40631168010053,-2.984510383414912
Garelochhead,GCH,2.0,56.0798700489652,-4.82571771685403,53.40631168010053,-2.984510383414912
Garforth,GRF,0.0,53.796578277864,-1.38230970941118,53.40631168010053,-2.984510383414912
Gargrave,GGV,1.0,53.9784181355008,-2.10517064216562,53.40631168010053,-2.984510383414912
Garrowhill,GAR,2.0,55.855243344443,-4.12946139753487,53.40631168010053,-2.984510383414912
Garscadden,GRS,2.0,55.887699912531,-4.36500554078304,53.40631168010053,-2.984510383414912
Garsdale,GSD,1.0,54.3214321652742,-2.32635383688291,53.40631168010053,-2.984510383414912
Garston (Hertfordshire),GSN,2.0,51.6866146882955,-0.381741213587884,53.40631168010053,-2.984510383414912
Garswood,GSW,0.0,53.4885228462082,-2.67213496487047,53.40631168010053,-2.984510383414912
Gartcosh,GRH,2.0,55.8856655213683,-4.0794950329411,53.40631168010053,-2.984510383414912
Garth (Mid Glamorgan),GMG,2.0,51.5964598445663,-3.64145068487318,53.40631168010053,-2.984510383414912
Garth (Powys),GTH,1.0,52.1332403844721,-3.52990778325094,53.40631168010053,-2.984510383414912
Garve,GVE,2.0,57.6130466094469,-4.6883963248569,53.40631168010053,-2.984510383414912
Gathurst,GST,2.0,53.5594052283238,-2.69439359809359,53.40631168010053,-2.984510383414912
Gatley,GTY,0.0,53.3929065592229,-2.23123425803736,53.40631168010053,-2.984510383414912
Gatwick Airport,GTW,2.0,51.1564892793918,-0.161041534688098,53.40631168010053,-2.984510383414912
Georgemas Junction,GGJ,2.0,58.5136271736984,-3.45212085822396,53.40631168010053,-2.984510383414912
Gerrards Cross,GER,2.0,51.5890222051815,-0.555275422196685,53.40631168010053,-2.984510383414912
Gidea Park,GDP,2.0,51.5819019565528,0.205964300058707,53.40631168010053,-2.984510383414912
Giffnock,GFN,2.0,55.8039950697486,-4.29301520024745,53.40631168010053,-2.984510383414912
Giggleswick,GIG,1.0,54.0618024962135,-2.30284801630944,53.40631168010053,-2.984510383414912
Gilberdyke,GBD,1.0,53.7479630906218,-0.73224344785332,53.40631168010053,-2.984510383414912
Gilfach Fargoed,GFF,2.0,51.6842528100711,-3.22656863026563,53.40631168010053,-2.984510383414912
Gillingham (Dorset),GIL,2.0,51.0340364196905,-2.27262400569309,53.40631168010053,-2.984510383414912
Gillingham (Kent),GLM,2.0,51.3865628367939,0.549849975746005,53.40631168010053,-2.984510383414912
Gilshochill,GSC,2.0,55.897343092772,-4.28268544801919,53.40631168010053,-2.984510383414912
Gipsy Hill,GIP,2.0,51.4244515495985,-0.0838359193392377,53.40631168010053,-2.984510383414912
Girvan,GIR,2.0,55.246318566381,-4.84838258218449,53.40631168010053,-2.984510383414912
Glaisdale,GLS,1.0,54.4393809349983,-0.793787833434208,53.40631168010053,-2.984510383414912
Glan Conwy,GCW,2.0,53.2674259523784,-3.79772818382623,53.40631168010053,-2.984510383414912
Glasgow Central,GLC,1.0,55.8597611220755,-4.25764427147523,53.40631168010053,-2.984510383414912
Glasgow Queen Street,GLQ,2.0,55.8621932785207,-4.25145684628951,53.40631168010053,-2.984510383414912
Glasshoughton,GLH,1.0,53.709043569431,-1.34200520311902,53.40631168010053,-2.984510383414912
Glazebrook,GLZ,0.0,53.4283618664117,-2.45965774285801,53.40631168010053,-2.984510383414912
Gleneagles,GLE,2.0,56.2748538679223,-3.73116869415328,53.40631168010053,-2.984510383414912
Glenfinnan,GLF,2.0,56.872409157321,-5.44962144461022,53.40631168010053,-2.984510383414912
Glengarnock,GLG,2.0,55.7388933086603,-4.67450285410692,53.40631168010053,-2.984510383414912
Glenrothes with Thornton,GLT,2.0,56.1623603600939,-3.1430158601085,53.40631168010053,-2.984510383414912
Glossop,GLO,1.0,53.4444712318736,-1.94907395313458,53.40631168010053,-2.984510383414912
Gloucester,GCR,1.0,51.8655605144798,-2.23848790484313,53.40631168010053,-2.984510383414912
Glynde,GLY,2.0,50.8591702144894,0.0700772878696409,53.40631168010053,-2.984510383414912
Gobowen,GOB,1.0,52.8935180650251,-3.03717308499659,53.40631168010053,-2.984510383414912
Godalming,GOD,2.0,51.186585921505,-0.618862331615451,53.40631168010053,-2.984510383414912
Godley,GDL,1.0,53.4517051977502,-2.05477260308077,53.40631168010053,-2.984510383414912
Godstone,GDN,2.0,51.2181558172133,-0.0500850012889198,53.40631168010053,-2.984510383414912
Goldthorpe,GOE,1.0,53.5341898861407,-1.31280778570287,53.40631168010053,-2.984510383414912
Golf Street,GOF,2.0,56.4977965346615,-2.71954392312506,53.40631168010053,-2.984510383414912
Golspie,GOL,2.0,57.9714691985912,-3.98721576849113,53.40631168010053,-2.984510383414912
Gomshall,GOM,2.0,51.2193975424127,-0.441852194682862,53.40631168010053,-2.984510383414912
Goodmayes,GMY,2.0,51.5655770865087,0.110807067219603,53.40631168010053,-2.984510383414912
Goole,GOO,1.0,53.7049141368498,-0.874213506853866,53.40631168010053,-2.984510383414912
Goostrey,GTR,1.0,53.2225542420521,-2.32647062196789,53.40631168010053,-2.984510383414912
Gordon Hill,GDH,2.0,51.6633336093912,-0.0946105124636726,53.40631168010053,-2.984510383414912
Gorebridge,GBG,2.0,55.8402767826394,-3.04651587768389,53.40631168010053,-2.984510383414912
Goring & Streatley,GOR,2.0,51.5214929030435,-1.13304945602141,53.40631168010053,-2.984510383414912
Goring-by-Sea,GBS,2.0,50.8177202058478,-0.433083115794079,53.40631168010053,-2.984510383414912
Gorton,GTO,1.0,53.4690756762697,-2.16620966709274,53.40631168010053,-2.984510383414912
Gospel Oak,GPO,2.0,51.5553339798316,-0.150770187040439,53.40631168010053,-2.984510383414912
Gourock,GRK,2.0,55.9623249558487,-4.81665893944356,53.40631168010053,-2.984510383414912
Gowerton,GWN,1.0,51.6487303539145,-4.03593543599281,53.40631168010053,-2.984510383414912
Goxhill,GOX,2.0,53.6767016367335,-0.337120493015181,53.40631168010053,-2.984510383414912
Grange Park,GPK,2.0,51.6426058069193,-0.097358506166751,53.40631168010053,-2.984510383414912
Grange-Over-Sands,GOS,1.0,54.1957250961186,-2.90274777085942,53.40631168010053,-2.984510383414912
Grangetown (Cardiff),GTN,2.0,51.4676150468125,-3.18972442860954,53.40631168010053,-2.984510383414912
Grantham,GRA,0.0,52.9064717738698,-0.642450315227216,53.40631168010053,-2.984510383414912
Grateley,GRT,2.0,51.1700600828741,-1.62077382846579,53.40631168010053,-2.984510383414912
Gravelly Hill,GVH,1.0,52.5149974472898,-1.85259861926897,53.40631168010053,-2.984510383414912
Gravesend,GRV,2.0,51.441346011536,0.366642983401035,53.40631168010053,-2.984510383414912
Grays,GRY,2.0,51.4762456345275,0.321832149858223,53.40631168010053,-2.984510383414912
Great Ayton,GTA,2.0,54.4895711302537,-1.11534529939959,53.40631168010053,-2.984510383414912
Great Bentley,GRB,2.0,51.8517564056418,1.06515337310583,53.40631168010053,-2.984510383414912
Great Chesterford,GRC,2.0,52.0598088541971,0.193521006507941,53.40631168010053,-2.984510383414912
Great Coates,GCT,2.0,53.5757525817776,-0.130230465339355,53.40631168010053,-2.984510383414912
Great Malvern,GMV,1.0,52.1092007461802,-2.31827112619549,53.40631168010053,-2.984510383414912
Great Missenden,GMN,2.0,51.7035179982242,-0.709141096280644,53.40631168010053,-2.984510383414912
Great Yarmouth,GYM,1.0,52.6121553184077,1.72088599357988,53.40631168010053,-2.984510383414912
Green Lane,GNL,0.0,53.3832574656958,-3.01641526158589,53.40631168010053,-2.984510383414912
Green Road,GNR,2.0,54.244528737063,-3.24557141101891,53.40631168010053,-2.984510383414912
Greenbank,GBK,1.0,53.2514672060584,-2.53427100429322,53.40631168010053,-2.984510383414912
Greenfaulds,GRL,2.0,55.9352373330107,-3.99310087977674,53.40631168010053,-2.984510383414912
Greenfield,GNF,1.0,53.5388596318608,-2.01384369909123,53.40631168010053,-2.984510383414912
Greenford,GFD,2.0,51.5423301826924,-0.345837203687885,53.40631168010053,-2.984510383414912
Greenhithe,GNH,2.0,51.4503695823852,0.280290118678753,53.40631168010053,-2.984510383414912
Greenock Central,GKC,2.0,55.9453458030869,-4.75263519677792,53.40631168010053,-2.984510383414912
Greenock West,GKW,2.0,55.9473421500839,-4.76783441808454,53.40631168010053,-2.984510383414912
Greenwich,GNW,2.0,51.478133366978,-0.013339927226544,53.40631168010053,-2.984510383414912
Gretna Green,GEA,2.0,55.0010499904167,-3.06519852950793,53.40631168010053,-2.984510383414912
Grimsby Docks,GMD,2.0,53.5743199678321,-0.0756172875545137,53.40631168010053,-2.984510383414912
Grimsby Town,GMB,1.0,53.5634269192435,-0.0869839520639892,53.40631168010053,-2.984510383414912
Grindleford,GRN,0.0,53.3055624866971,-1.62629684321943,53.40631168010053,-2.984510383414912
Grosmont,GMT,1.0,54.4361127385958,-0.724965652276441,53.40631168010053,-2.984510383414912
Grove Park,GRP,2.0,51.4308613774598,0.0217254815980876,53.40631168010053,-2.984510383414912
Guide Bridge,GUI,1.0,53.4746291381174,-2.11371083446596,53.40631168010053,-2.984510383414912
Guildford,GLD,1.0,51.2369694290095,-0.580425041311442,53.40631168010053,-2.984510383414912
Guiseley,GSY,1.0,53.8759354199738,-1.71508009314658,53.40631168010053,-2.984510383414912
Gunnersbury,GUN,2.0,51.491676370171,-0.275286434982196,53.40631168010053,-2.984510383414912
Gunnislake,GSL,2.0,50.5160873764122,-4.21940651718442,53.40631168010053,-2.984510383414912
Gunton,GNT,1.0,52.8663427403447,1.34911622990825,53.40631168010053,-2.984510383414912
Gwersyllt,GWE,1.0,53.0725775216154,-3.01788857383521,53.40631168010053,-2.984510383414912
Gypsy Lane,GYP,2.0,54.5328916495178,-1.17939215630242,53.40631168010053,-2.984510383414912
Habrough,HAB,1.0,53.6060750257549,-0.269461323075939,53.40631168010053,-2.984510383414912
Hackbridge,HCB,2.0,51.3778703391452,-0.153907557296679,53.40631168010053,-2.984510383414912
Hackney Central,HKC,2.0,51.5471033371116,-0.05605761519121,53.40631168010053,-2.984510383414912
Hackney Downs,HAC,2.0,51.5487558416146,-0.0608190190969979,53.40631168010053,-2.984510383414912
Hackney Wick,HKW,2.0,51.5434088064448,-0.0249198567732405,53.40631168010053,-2.984510383414912
Haddenham & Thame Parkway,HDM,2.0,51.7708550752323,-0.942137163541627,53.40631168010053,-2.984510383414912
Haddiscoe,HAD,1.0,52.5287829223008,1.62300695115001,53.40631168010053,-2.984510383414912
Hadfield,HDF,1.0,53.4607461868179,-1.96532069137142,53.40631168010053,-2.984510383414912
Hadley Wood,HDW,2.0,51.6684954399645,-0.176172558385927,53.40631168010053,-2.984510383414912
Hag Fold,HGF,1.0,53.5338545721892,-2.49482190837221,53.40631168010053,-2.984510383414912
Haggerston,HGG,2.0,51.5387038848962,-0.0756665511018363,53.40631168010053,-2.984510383414912
Hagley,HAG,1.0,52.4224915714766,-2.14641735922659,53.40631168010053,-2.984510383414912
Hairmyres,HMY,2.0,55.7619706251142,-4.22001179037031,53.40631168010053,-2.984510383414912
Hale (Manchester),HAL,1.0,53.37871974134,-2.34735707887452,53.40631168010053,-2.984510383414912
Halesworth,HAS,2.0,52.3468123386401,1.50566724409269,53.40631168010053,-2.984510383414912
Halewood,HED,0.0,53.3644822484192,-2.83013437129598,53.40631168010053,-2.984510383414912
Halifax,HFX,1.0,53.7209620544181,-1.85357493347212,53.40631168010053,-2.984510383414912
Hall Green,HLG,1.0,52.4369106872099,-1.84565106858289,53.40631168010053,-2.984510383414912
Hall Road,HLR,0.0,53.4974890539194,-3.04962755982687,53.40631168010053,-2.984510383414912
Halling,HAI,2.0,51.3524753935197,0.444931769399534,53.40631168010053,-2.984510383414912
Hall-i'-th'-Wood,HID,1.0,53.5974249930564,-2.41310999594702,53.40631168010053,-2.984510383414912
Haltwhistle,HWH,1.0,54.9678514502275,-2.46356531907909,53.40631168010053,-2.984510383414912
Ham Street,HMT,2.0,51.0683754548441,0.854506282072355,53.40631168010053,-2.984510383414912
Hamble,HME,2.0,50.8713750749217,-1.32916216397532,53.40631168010053,-2.984510383414912
Hamilton Central,HNC,2.0,55.7731983159363,-4.0388857141295,53.40631168010053,-2.984510383414912
Hamilton West,HNW,2.0,55.7788645846798,-4.05480903727555,53.40631168010053,-2.984510383414912
Hammerton,HMM,1.0,53.9963302971634,-1.28409568774822,53.40631168010053,-2.984510383414912
Hampden Park (Sussex),HMD,2.0,50.7964037646054,0.279355781887921,53.40631168010053,-2.984510383414912
Hampstead Heath,HDH,2.0,51.5552087499737,-0.165705423537251,53.40631168010053,-2.984510383414912
Hampton (London),HMP,2.0,51.4159332805517,-0.372118964249262,53.40631168010053,-2.984510383414912
Hampton Court,HMC,2.0,51.4025545250828,-0.342747730939869,53.40631168010053,-2.984510383414912
Hampton Wick,HMW,2.0,51.4145232919642,-0.312489539027649,53.40631168010053,-2.984510383414912
Hampton-in-Arden,HIA,1.0,52.4290342253656,-1.69993074934828,53.40631168010053,-2.984510383414912
Hamstead (Birmingham),HSD,0.0,52.531069889457,-1.9289779395104,53.40631168010053,-2.984510383414912
Hamworthy,HAM,2.0,50.7251934395072,-2.01935721018784,53.40631168010053,-2.984510383414912
Hanborough,HND,2.0,51.8251586675452,-1.37352555785945,53.40631168010053,-2.984510383414912
Handforth,HTH,1.0,53.3464951553287,-2.21363358276894,53.40631168010053,-2.984510383414912
Hanwell,HAN,2.0,51.5118337981012,-0.338583504755238,53.40631168010053,-2.984510383414912
Hapton,HPN,1.0,53.7816162126783,-2.31691170077186,53.40631168010053,-2.984510383414912
Harlech,HRL,1.0,52.8613335573465,-4.10919139634257,53.40631168010053,-2.984510383414912
Harlesden,HDN,1.0,51.5362878581776,-0.257667575799678,53.40631168010053,-2.984510383414912
Harling Road,HRD,0.0,52.4536867289203,0.909142231833124,53.40631168010053,-2.984510383414912
Harlington (Beds),HLN,2.0,51.9620611815389,-0.495689942455639,53.40631168010053,-2.984510383414912
Harlow Mill,HWM,2.0,51.7903635492669,0.132307549909169,53.40631168010053,-2.984510383414912
Harlow Town,HWN,2.0,51.7810684903414,0.0951317934868605,53.40631168010053,-2.984510383414912
Harold Wood,HRO,2.0,51.5927640548293,0.233128597584999,53.40631168010053,-2.984510383414912
Harpenden,HPD,2.0,51.8146437751381,-0.351480529620267,53.40631168010053,-2.984510383414912
Harrietsham,HRM,2.0,51.2448300347931,0.672399308718271,53.40631168010053,-2.984510383414912
Harringay,HGY,2.0,51.5773567448582,-0.105136139047123,53.40631168010053,-2.984510383414912
Harringay Green Lanes,HRY,2.0,51.5771806696452,-0.098143778306645,53.40631168010053,-2.984510383414912
Harrington,HRR,2.0,54.6134885880049,-3.565515350674,53.40631168010053,-2.984510383414912
Harrogate,HGT,1.0,53.9931776989233,-1.5376079204885,53.40631168010053,-2.984510383414912
Harrow & Wealdstone,HRW,1.0,51.5921675321223,-0.33457147846876,53.40631168010053,-2.984510383414912
Harrow-on-the-Hill,HOH,2.0,51.579184471159,-0.337225439219032,53.40631168010053,-2.984510383414912
Hartford (Cheshire),HTF,0.0,53.2417607399611,-2.55362979154538,53.40631168010053,-2.984510383414912
Hartlebury,HBY,1.0,52.3344969155012,-2.22111919263343,53.40631168010053,-2.984510383414912
Hartlepool,HPL,1.0,54.6867558547517,-1.20731631414055,53.40631168010053,-2.984510383414912
Hartwood,HTW,2.0,55.8114851855931,-3.83932267619151,53.40631168010053,-2.984510383414912
Harwich International,HPQ,2.0,51.9472857114404,1.25512425866301,53.40631168010053,-2.984510383414912
