Name,Code,Changes,lat,lon,terminal lat,terminal lon,linear distance
Abbey Wood,ABW,0.0,51.4910605627019,0.121394025366647,51.51349214773037,-0.11436054290620458
Aber,ABE,1.0,51.5749691125956,-3.22982905106563,51.51349214773037,-0.11436054290620458
Abercynon,ACY,1.0,51.6447124034837,-3.32698855170195,51.51349214773037,-0.11436054290620458
Aberdare,ABA,1.0,51.7150618291708,-3.44308409477462,51.51349214773037,-0.11436054290620458
Aberdeen,ABD,0.0,57.1437058328662,-2.09868538622245,51.51349214773037,-0.11436054290620458
Aberdour,AUR,1.0,56.0545955695197,-3.30056061487314,51.51349214773037,-0.11436054290620458
Aberdovey,AVY,1.0,52.5439615025967,-4.05706796158074,51.51349214773037,-0.11436054290620458
Abererch,ABH,1.0,52.8985884658899,-4.37417647351973,51.51349214773037,-0.11436054290620458
Abergavenny,AGV,1.0,51.8166930409601,-3.00964730040687,51.51349214773037,-0.11436054290620458
Abergele & Pensarn,AGL,1.0,53.2945771647609,-3.58262268840784,51.51349214773037,-0.11436054290620458
Aberystwyth,AYW,1.0,52.4140498933205,-4.08189442746786,51.51349214773037,-0.11436054290620458
Accrington,ACR,1.0,53.7529733751372,-2.36954810226505,51.51349214773037,-0.11436054290620458
Achanalt,AAT,2.0,57.6096018732679,-4.91385256332031,51.51349214773037,-0.11436054290620458
Achnasheen,ACN,2.0,57.5792959197415,-5.07233352893289,51.51349214773037,-0.11436054290620458
Achnashellach,ACH,2.0,57.4820809030767,-5.33305678830677,51.51349214773037,-0.11436054290620458
Acklington,ACK,1.0,55.3070993237817,-1.65183479633575,51.51349214773037,-0.11436054290620458
Acle,ACL,1.0,52.6346777628319,1.54391497575916,51.51349214773037,-0.11436054290620458
Acocks Green,ACG,1.0,52.4493240670217,-1.81897562150643,51.51349214773037,-0.11436054290620458
Acton Bridge (Cheshire),ACB,1.0,53.2665097605329,-2.60312690733168,51.51349214773037,-0.11436054290620458
Acton Central,ACC,1.0,51.5087150057177,-0.262970693276422,51.51349214773037,-0.11436054290620458
Acton Main Line,AML,0.0,51.5171788796431,-0.266756440210259,51.51349214773037,-0.11436054290620458
Adderley Park,ADD,1.0,52.4830872932844,-1.85594463679675,51.51349214773037,-0.11436054290620458
Addiewell,ADW,1.0,55.8434130805542,-3.60652712168835,51.51349214773037,-0.11436054290620458
Addlestone,ASN,0.0,51.3730447500684,-0.48445679693337,51.51349214773037,-0.11436054290620458
Adisham,ADM,0.0,51.2411978022143,1.19908904695378,51.51349214773037,-0.11436054290620458
Adlington (Cheshire),ADC,1.0,53.3195557900317,-2.13356274381038,51.51349214773037,-0.11436054290620458
Adlington (Lancs),ADL,1.0,53.6132468473224,-2.6030711963325,51.51349214773037,-0.11436054290620458
Adwick,AWK,1.0,53.5723210050351,-1.180356329611,51.51349214773037,-0.11436054290620458
Aigburth,AIG,2.0,53.3645680055959,-2.92715540113816,51.51349214773037,-0.11436054290620458
Ainsdale,ANS,2.0,53.6020355257546,-3.04265252059266,51.51349214773037,-0.11436054290620458
Aintree,AIN,2.0,53.4739127558616,-2.95628079876913,51.51349214773037,-0.11436054290620458
Airbles,AIR,1.0,55.7828378389089,-3.99419330717581,51.51349214773037,-0.11436054290620458
Airdrie,ADR,1.0,55.8639835131324,-3.98291292517007,51.51349214773037,-0.11436054290620458
Albany Park,AYP,0.0,51.4354507399114,0.12573706592842,51.51349214773037,-0.11436054290620458
Albrighton,ALB,1.0,52.6379442676754,-2.26890024505565,51.51349214773037,-0.11436054290620458
Alderley Edge,ALD,1.0,53.3037821045932,-2.23679936267512,51.51349214773037,-0.11436054290620458
Aldermaston,AMT,0.0,51.4019618556841,-1.1374239270022,51.51349214773037,-0.11436054290620458
Aldershot,AHT,0.0,51.2464179114788,-0.759859888333875,51.51349214773037,-0.11436054290620458
Aldrington,AGT,1.0,50.8363824121951,-0.183821512855377,51.51349214773037,-0.11436054290620458
Alexandra Palace,AAP,0.0,51.5979224924556,-0.120235220128854,51.51349214773037,-0.11436054290620458
Alexandra Parade,AXP,2.0,55.8631759802332,-4.21064896878422,51.51349214773037,-0.11436054290620458
Alexandria,ALX,2.0,55.9850887680667,-4.57748537031666,51.51349214773037,-0.11436054290620458
Alfreton,ALF,0.0,53.1004322999438,-1.36969621564025,51.51349214773037,-0.11436054290620458
Allens West,ALW,1.0,54.5246233650745,-1.36111683481751,51.51349214773037,-0.11436054290620458
Alloa,ALO,1.0,56.1177936041036,-3.79005640302655,51.51349214773037,-0.11436054290620458
Alness,ASS,1.0,57.6943991747966,-4.24971726526612,51.51349214773037,-0.11436054290620458
Alnmouth,ALM,0.0,55.3927786386397,-1.63663783937358,51.51349214773037,-0.11436054290620458
Alresford (Essex),ALR,0.0,51.8539974379073,0.997436403040026,51.51349214773037,-0.11436054290620458
Alsager,ASG,0.0,53.0930054110113,-2.29905784069112,51.51349214773037,-0.11436054290620458
Althorne (Essex),ALN,0.0,51.6478675266105,0.75248341471277,51.51349214773037,-0.11436054290620458
Althorpe,ALP,1.0,53.5855003548442,-0.733182290833722,51.51349214773037,-0.11436054290620458
Altnabreac,ABC,2.0,58.3881525009701,-3.7062809681672,51.51349214773037,-0.11436054290620458
Alton,AON,0.0,51.1519686627366,-0.966913302570746,51.51349214773037,-0.11436054290620458
Altrincham,ALT,1.0,53.3877187203289,-2.34688910433965,51.51349214773037,-0.11436054290620458
Alvechurch,ALV,1.0,52.3460721156993,-1.96766073187852,51.51349214773037,-0.11436054290620458
Ambergate,AMB,1.0,53.0605170840145,-1.48069758186533,51.51349214773037,-0.11436054290620458
Amberley,AMY,0.0,50.8966791881016,-0.541992407726222,51.51349214773037,-0.11436054290620458
Amersham,AMR,0.0,51.6742050968552,-0.607596139216709,51.51349214773037,-0.11436054290620458
Ammanford,AMF,1.0,51.7959795450084,-3.99673575596767,51.51349214773037,-0.11436054290620458
Ancaster,ANC,1.0,52.9876865844111,-0.535623734022494,51.51349214773037,-0.11436054290620458
Anderston,AND,1.0,55.8599021238713,-4.27098003165416,51.51349214773037,-0.11436054290620458
Andover,ADV,0.0,51.2115476149434,-1.49223307188506,51.51349214773037,-0.11436054290620458
Anerley,ANZ,0.0,51.4121513855632,-0.0658859220340606,51.51349214773037,-0.11436054290620458
Angel Road,AGR,0.0,51.61240330726,-0.0487914234374522,51.51349214773037,-0.11436054290620458
Angmering,ANG,0.0,50.8165743892467,-0.489394019247872,51.51349214773037,-0.11436054290620458
Annan,ANN,1.0,54.9838388790739,-3.2625810423293,51.51349214773037,-0.11436054290620458
Anniesland,ANL,1.0,55.8893555064876,-4.32195784208586,51.51349214773037,-0.11436054290620458
Ansdell & Fairhaven,AFV,1.0,53.7414654744213,-2.99303444657805,51.51349214773037,-0.11436054290620458
Apperley Bridge,APY,1.0,53.8417501065548,-1.70582867126391,51.51349214773037,-0.11436054290620458
Appleby,APP,1.0,54.5803488158896,-2.48669258391647,51.51349214773037,-0.11436054290620458
Appledore (Kent),APD,1.0,51.0332342031393,0.816341504124954,51.51349214773037,-0.11436054290620458
Appleford,APF,0.0,51.6396415502262,-1.24214153179695,51.51349214773037,-0.11436054290620458
Appley Bridge,APB,2.0,53.5786734960166,-2.71925251339081,51.51349214773037,-0.11436054290620458
Apsley,APS,0.0,51.7325208234117,-0.462934812195194,51.51349214773037,-0.11436054290620458
Arbroath,ARB,0.0,56.5595762979872,-2.58893177406225,51.51349214773037,-0.11436054290620458
Ardgay,ARD,1.0,57.8814576101148,-4.36209023833324,51.51349214773037,-0.11436054290620458
Ardlui,AUI,2.0,56.3019723653141,-4.72165858161935,51.51349214773037,-0.11436054290620458
Ardrossan Harbour,ADS,1.0,55.6398782290401,-4.82111163323781,51.51349214773037,-0.11436054290620458
Ardrossan South Beach,ASB,1.0,55.641422142645,-4.80121264089138,51.51349214773037,-0.11436054290620458
Ardrossan Town,ADN,1.0,55.6397124556587,-4.81267645169651,51.51349214773037,-0.11436054290620458
Ardwick,ADK,1.0,53.471345820655,-2.21388417456067,51.51349214773037,-0.11436054290620458
Argyle Street,AGS,1.0,55.8573090626122,-4.25069486323156,51.51349214773037,-0.11436054290620458
Arisaig,ARG,2.0,56.9125537431151,-5.83907949880085,51.51349214773037,-0.11436054290620458
Arlesey,ARL,0.0,52.0260300130868,-0.266319838272065,51.51349214773037,-0.11436054290620458
Armadale (West Lothian),ARM,1.0,55.8857140292087,-3.69541334262219,51.51349214773037,-0.11436054290620458
Armathwaite,AWT,1.0,54.8094679848183,-2.77207147292765,51.51349214773037,-0.11436054290620458
Arnside,ARN,1.0,54.2027315043991,-2.82824189170434,51.51349214773037,-0.11436054290620458
Arram,ARR,1.0,53.8843427696163,-0.426570132093475,51.51349214773037,-0.11436054290620458
Arrochar & Tarbet,ART,2.0,56.2039766194239,-4.72277124702392,51.51349214773037,-0.11436054290620458
Arundel,ARU,0.0,50.84821399905,-0.546174298416944,51.51349214773037,-0.11436054290620458
Ascot (Berks),ACT,0.0,51.406243053303,-0.675833255037063,51.51349214773037,-0.11436054290620458
Ascott-under-Wychwood,AUW,1.0,51.8673416456497,-1.56405280921503,51.51349214773037,-0.11436054290620458
Ash,ASH,1.0,51.2495967734882,-0.712805474371656,51.51349214773037,-0.11436054290620458
Ash Vale,AHV,0.0,51.2722464128127,-0.72164859629209,51.51349214773037,-0.11436054290620458
Ashburys,ABY,1.0,53.471639721401,-2.19443661452133,51.51349214773037,-0.11436054290620458
Ashchurch for Tewkesbury,ASC,0.0,51.9989057939667,-2.10876020926952,51.51349214773037,-0.11436054290620458
Ashfield,ASF,2.0,55.8889269328418,-4.24921509407071,51.51349214773037,-0.11436054290620458
Ashford (Surrey),AFS,0.0,51.4365062586203,-0.468070995385795,51.51349214773037,-0.11436054290620458
Ashford International,AFK,0.0,51.1437026741936,0.876197214386404,51.51349214773037,-0.11436054290620458
Ashford International (Eurostar),ASI,-999.0,nan,nan,51.51349214773037,-0.11436054290620458
Ashley,ASY,1.0,53.3557258053839,-2.34146074338483,51.51349214773037,-0.11436054290620458
Ashtead,AHD,0.0,51.317872587997,-0.307571763628547,51.51349214773037,-0.11436054290620458
Ashton-under-Lyne,AHN,2.0,53.4912746360398,-2.09431253377749,51.51349214773037,-0.11436054290620458
Ashurst (Kent),AHS,0.0,51.1286608253579,0.152652111896866,51.51349214773037,-0.11436054290620458
Ashurst New Forest,ANF,0.0,50.8898511647037,-1.52663085660955,51.51349214773037,-0.11436054290620458
Ashwell & Morden,AWM,0.0,52.0307706434447,-0.109788918120069,51.51349214773037,-0.11436054290620458
Askam,ASK,1.0,54.1889331625586,-3.20451175494515,51.51349214773037,-0.11436054290620458
Aslockton,ALK,1.0,52.9515495737311,-0.898097621841918,51.51349214773037,-0.11436054290620458
Aspatria,ASP,1.0,54.7589599137074,-3.33187421074512,51.51349214773037,-0.11436054290620458
Aspley Guise,APG,1.0,52.0212361960308,-0.632334507265971,51.51349214773037,-0.11436054290620458
Aston,AST,1.0,52.5042320347358,-1.8719337575538,51.51349214773037,-0.11436054290620458
Atherstone,ATH,0.0,52.5789720633612,-1.55281147568713,51.51349214773037,-0.11436054290620458
Atherton,ATN,1.0,53.5291462480773,-2.47897234425216,51.51349214773037,-0.11436054290620458
Attadale,ATT,2.0,57.3950433711996,-5.4555786528295,51.51349214773037,-0.11436054290620458
Attenborough,ATB,1.0,52.9062133028873,-1.23141560765685,51.51349214773037,-0.11436054290620458
Attleborough,ATL,1.0,52.5145445883409,1.02234755537498,51.51349214773037,-0.11436054290620458
Auchinleck,AUK,1.0,55.4702784722357,-4.29535018687193,51.51349214773037,-0.11436054290620458
Audley End,AUD,0.0,52.0044405435161,0.207160027997398,51.51349214773037,-0.11436054290620458
Aughton Park,AUG,2.0,53.5542504500956,-2.89522128047861,51.51349214773037,-0.11436054290620458
Aviemore,AVM,0.0,57.1885162452285,-3.82886797624022,51.51349214773037,-0.11436054290620458
Avoncliff,AVF,1.0,51.3396528744674,-2.28132558221387,51.51349214773037,-0.11436054290620458
Avonmouth,AVN,1.0,51.5003648679963,-2.69946651797304,51.51349214773037,-0.11436054290620458
Axminster,AXM,0.0,50.7792744117621,-3.00472359764506,51.51349214773037,-0.11436054290620458
Aylesbury,AYS,0.0,51.8138902206829,-0.815095998270687,51.51349214773037,-0.11436054290620458
Aylesbury Vale Parkway,AVP,0.0,51.8311587338339,-0.860182437861177,51.51349214773037,-0.11436054290620458
Aylesford,AYL,1.0,51.3013153585378,0.466170568242092,51.51349214773037,-0.11436054290620458
Aylesham,AYH,0.0,51.2272505439136,1.2094526827124,51.51349214773037,-0.11436054290620458
Ayr,AYR,1.0,55.4581477383334,-4.62587677242484,51.51349214773037,-0.11436054290620458
Bache,BAC,1.0,53.2087886904783,-2.89167051075084,51.51349214773037,-0.11436054290620458
Baglan,BAJ,1.0,51.615545271975,-3.81113654529303,51.51349214773037,-0.11436054290620458
Bagshot,BAG,0.0,51.3643669407293,-0.688661997063008,51.51349214773037,-0.11436054290620458
Baildon,BLD,1.0,53.8502255005868,-1.75363638811678,51.51349214773037,-0.11436054290620458
Baillieston,BIO,1.0,55.844505909339,-4.11369931815988,51.51349214773037,-0.11436054290620458
Balcombe,BAB,0.0,51.0555201604538,-0.136933757536862,51.51349214773037,-0.11436054290620458
Baldock,BDK,0.0,51.9928698318742,-0.187563753520231,51.51349214773037,-0.11436054290620458
Balham,BAL,0.0,51.4432234163815,-0.152424495700288,51.51349214773037,-0.11436054290620458
Balloch,BHC,2.0,56.0029392993731,-4.58348654319574,51.51349214773037,-0.11436054290620458
Balmossie,BSI,1.0,56.4745685552318,-2.83895622541232,51.51349214773037,-0.11436054290620458
Bamber Bridge,BMB,1.0,53.7268691714662,-2.6607753764786,51.51349214773037,-0.11436054290620458
Bamford,BAM,1.0,53.3390008432273,-1.68908191470249,51.51349214773037,-0.11436054290620458
Banavie,BNV,2.0,56.8433146084024,-5.09542698683765,51.51349214773037,-0.11436054290620458
Banbury,BAN,0.0,52.0603086671337,-1.32813289497966,51.51349214773037,-0.11436054290620458
Bangor (Gwynedd),BNG,0.0,53.2222875881889,-4.1358808597691,51.51349214773037,-0.11436054290620458
Bank Hall,BAH,2.0,53.4374965462522,-2.98751189569183,51.51349214773037,-0.11436054290620458
Banstead,BAD,0.0,51.3293474848423,-0.213158931277083,51.51349214773037,-0.11436054290620458
Barassie,BSS,1.0,55.5610644543682,-4.65113966824502,51.51349214773037,-0.11436054290620458
Barbican,ZBB,0.0,nan,nan,51.51349214773037,-0.11436054290620458
Bardon Mill,BLL,1.0,54.9744957852522,-2.34650475516335,51.51349214773037,-0.11436054290620458
Bare Lane,BAR,1.0,54.0745443408907,-2.83533086719705,51.51349214773037,-0.11436054290620458
Bargeddie,BGI,1.0,55.8512961462984,-4.07380825280165,51.51349214773037,-0.11436054290620458
Bargoed,BGD,1.0,51.6923127611933,-3.22968013064506,51.51349214773037,-0.11436054290620458
Barking,BKG,0.0,51.5394928787692,0.0809024258638578,51.51349214773037,-0.11436054290620458
Barlaston,BRT,2.0,nan,nan,51.51349214773037,-0.11436054290620458
Barming,BMG,0.0,51.2848926922128,0.478958086821072,51.51349214773037,-0.11436054290620458
Barmouth,BRM,1.0,52.7228954666472,-4.05659664341287,51.51349214773037,-0.11436054290620458
Barnehurst,BNH,0.0,51.4649571594916,0.159646215915891,51.51349214773037,-0.11436054290620458
Barnes,BNS,0.0,51.4670847781107,-0.242164290131055,51.51349214773037,-0.11436054290620458
Barnes Bridge,BNI,0.0,51.4720072305495,-0.252630234454485,51.51349214773037,-0.11436054290620458
Barnetby,BTB,1.0,53.575120046432,-0.409679706265516,51.51349214773037,-0.11436054290620458
Barnham,BAA,0.0,50.8309058508596,-0.639679954401345,51.51349214773037,-0.11436054290620458
Barnhill,BNL,2.0,55.8774948886876,-4.22300584363342,51.51349214773037,-0.11436054290620458
Barnsley,BNY,1.0,53.5543015489003,-1.47716484028851,51.51349214773037,-0.11436054290620458
Barnstaple,BNP,1.0,51.0739744679973,-4.06311775092404,51.51349214773037,-0.11436054290620458
Barnt Green,BTG,1.0,52.3610898378667,-1.99246673824797,51.51349214773037,-0.11436054290620458
Barrhead,BRR,1.0,55.8037583421428,-4.39728431394783,51.51349214773037,-0.11436054290620458
Barrhill,BRL,1.0,55.0970106102442,-4.78178229089313,51.51349214773037,-0.11436054290620458
Barrow Haven,BAV,2.0,53.697419946542,-0.392955239385703,51.51349214773037,-0.11436054290620458
Barrow-in-Furness,BIF,1.0,54.1190037011827,-3.22612090695349,51.51349214773037,-0.11436054290620458
Barrow-Upon-Soar,BWS,1.0,52.7493358553102,-1.14484305880024,51.51349214773037,-0.11436054290620458
Barry,BRY,1.0,51.3967862682376,-3.28498495899336,51.51349214773037,-0.11436054290620458
Barry Docks,BYD,1.0,51.4024452836283,-3.26070393235989,51.51349214773037,-0.11436054290620458
Barry Island,BYI,1.0,51.3924170726249,-3.27336400852697,51.51349214773037,-0.11436054290620458
Barry Links,BYL,1.0,56.4931516826701,-2.74544214683501,51.51349214773037,-0.11436054290620458
Barton-on-Humber,BAU,2.0,53.6889177395454,-0.44343673614012,51.51349214773037,-0.11436054290620458
Basildon,BSO,0.0,51.5681040297501,0.456788850539816,51.51349214773037,-0.11436054290620458
Basingstoke,BSK,0.0,51.2683569850094,-1.08726383162934,51.51349214773037,-0.11436054290620458
Bat & Ball,BBL,0.0,51.2897587469008,0.194227480292899,51.51349214773037,-0.11436054290620458
Bath Spa,BTH,0.0,51.3776883852266,-2.3570184714201,51.51349214773037,-0.11436054290620458
Bathgate,BHG,1.0,55.8971563834902,-3.63609679157923,51.51349214773037,-0.11436054290620458
Batley,BTL,1.0,53.7099423400798,-1.6229526318262,51.51349214773037,-0.11436054290620458
Battersby,BTT,2.0,54.457680170473,-1.09297186288525,51.51349214773037,-0.11436054290620458
Battersea Park,BAK,0.0,51.4769582891996,-0.147533519657093,51.51349214773037,-0.11436054290620458
Battle,BAT,0.0,50.9129130238687,0.494702777064857,51.51349214773037,-0.11436054290620458
Battlesbridge,BLB,0.0,51.624822766888,0.56528550890708,51.51349214773037,-0.11436054290620458
Bayford,BAY,0.0,51.7577148923117,-0.0956100209046352,51.51349214773037,-0.11436054290620458
Beaconsfield,BCF,0.0,51.6112905925788,-0.643822282354315,51.51349214773037,-0.11436054290620458
Bearley,BER,0.0,52.2444115945748,-1.75025547969474,51.51349214773037,-0.11436054290620458
Bearsden,BRN,1.0,55.9171345827093,-4.3320211452141,51.51349214773037,-0.11436054290620458
Bearsted,BSD,0.0,51.2758187894535,0.577580355704965,51.51349214773037,-0.11436054290620458
Beasdale,BSL,2.0,56.8995610683265,-5.76380325043513,51.51349214773037,-0.11436054290620458
Beaulieu Road,BEU,0.0,50.8550493435382,-1.50474962699015,51.51349214773037,-0.11436054290620458
Beauly,BEL,1.0,57.4782879378611,-4.46986686037102,51.51349214773037,-0.11436054290620458
Bebington,BEB,1.0,53.3576570664328,-3.00363517233964,51.51349214773037,-0.11436054290620458
Beccles,BCC,1.0,52.4585181871493,1.5694932615698,51.51349214773037,-0.11436054290620458
Beckenham Hill,BEC,0.0,51.4245808668055,-0.0159511139458484,51.51349214773037,-0.11436054290620458
Beckenham Junction,BKJ,0.0,51.4111718661491,-0.0260225635677561,51.51349214773037,-0.11436054290620458
Bedford,BDM,0.0,52.1361864656103,-0.479442379912954,51.51349214773037,-0.11436054290620458
Bedford St Johns,BSJ,1.0,52.1294772366621,-0.467501028060375,51.51349214773037,-0.11436054290620458
Bedhampton,BDH,0.0,50.8539566355958,-0.99582843515536,51.51349214773037,-0.11436054290620458
Bedminster,BMT,1.0,51.4400904239394,-2.59414932604792,51.51349214773037,-0.11436054290620458
Bedworth,BEH,1.0,52.4792974206142,-1.46739223305473,51.51349214773037,-0.11436054290620458
Bedwyn,BDW,0.0,51.3796409426581,-1.59878627020561,51.51349214773037,-0.11436054290620458
Beeston,BEE,0.0,52.9207551214346,-1.20765801407939,51.51349214773037,-0.11436054290620458
Bekesbourne,BKS,0.0,51.2613539349877,1.13670763163281,51.51349214773037,-0.11436054290620458
Belle Vue,BLV,1.0,53.4623764935822,-2.18050724055323,51.51349214773037,-0.11436054290620458
Bellgrove,BLG,1.0,55.8567093051092,-4.22437490020632,51.51349214773037,-0.11436054290620458
Bellingham,BGM,0.0,51.4329113825773,-0.0193308081217253,51.51349214773037,-0.11436054290620458
Bellshill,BLH,1.0,55.8170682424416,-4.02449996284266,51.51349214773037,-0.11436054290620458
Belmont,BLM,0.0,51.3438134158344,-0.198855124360003,51.51349214773037,-0.11436054290620458
Belper,BLP,1.0,53.0237591485711,-1.48251049959613,51.51349214773037,-0.11436054290620458
Beltring,BEG,1.0,51.2047063375307,0.403495486821792,51.51349214773037,-0.11436054290620458
Belvedere,BVD,0.0,51.4921162437256,0.152286098901381,51.51349214773037,-0.11436054290620458
Bempton,BEM,1.0,54.1276580609781,-0.18045684367924,51.51349214773037,-0.11436054290620458
Ben Rhydding,BEY,1.0,53.9257153348267,-1.79743026313235,51.51349214773037,-0.11436054290620458
Benfleet,BEF,0.0,51.5439424321207,0.561713345502072,51.51349214773037,-0.11436054290620458
Bentham,BEN,1.0,54.1155197017626,-2.51067651046258,51.51349214773037,-0.11436054290620458
Bentley (Hants),BTY,0.0,51.1812327932647,-0.868126900052275,51.51349214773037,-0.11436054290620458
Bentley (South Yorks),BYK,1.0,53.543936635355,-1.15094859528964,51.51349214773037,-0.11436054290620458
Bere Alston,BAS,1.0,50.4855988011236,-4.20035543651004,51.51349214773037,-0.11436054290620458
Bere Ferrers,BFE,1.0,50.4512820780774,-4.18143518031599,51.51349214773037,-0.11436054290620458
Berkhamsted,BKM,0.0,51.7631330812332,-0.562012981628892,51.51349214773037,-0.11436054290620458
Berkswell,BKW,0.0,52.3958819317755,-1.64284047482006,51.51349214773037,-0.11436054290620458
Bermuda Park,BEP,1.0,52.5014343619449,-1.47217775464212,51.51349214773037,-0.11436054290620458
Berney Arms,BYA,-999.0,52.5897827472666,1.63037533346209,51.51349214773037,-0.11436054290620458
Berry Brow,BBW,1.0,53.6210419716152,-1.79343228301033,51.51349214773037,-0.11436054290620458
Berrylands,BRS,0.0,51.3990439366779,-0.280713667843256,51.51349214773037,-0.11436054290620458
Berwick (Sussex),BRK,0.0,50.8403762860459,0.166017608785235,51.51349214773037,-0.11436054290620458
Berwick-upon-Tweed,BWK,0.0,55.7743389009866,-2.01097357377303,51.51349214773037,-0.11436054290620458
Bescar Lane,BES,2.0,53.623855333027,-2.9146110021991,51.51349214773037,-0.11436054290620458
Bescot Stadium,BSC,1.0,52.5630947071172,-1.9911057185482,51.51349214773037,-0.11436054290620458
Betchworth,BTO,1.0,51.2481879331766,-0.266973015200458,51.51349214773037,-0.11436054290620458
Bethnal Green,BET,0.0,51.5239156627757,-0.0595680464428894,51.51349214773037,-0.11436054290620458
Betws-y-Coed,BYC,1.0,53.0920709395504,-3.80086212197837,51.51349214773037,-0.11436054290620458
Beverley,BEV,0.0,53.8422725915824,-0.422980126740875,51.51349214773037,-0.11436054290620458
Bexhill,BEX,0.0,50.84103990242,0.477016592346932,51.51349214773037,-0.11436054290620458
Bexley,BXY,0.0,51.4402175270263,0.147902494716889,51.51349214773037,-0.11436054290620458
Bexleyheath,BXH,0.0,51.4634982236074,0.133734871030645,51.51349214773037,-0.11436054290620458
Bicester North,BCS,0.0,51.9034829537461,-1.15038352192815,51.51349214773037,-0.11436054290620458
Bicester Village,BIT,0.0,51.8930236127002,-1.14876425178293,51.51349214773037,-0.11436054290620458
Bickley,BKL,0.0,51.4001024308637,0.0452405405139698,51.51349214773037,-0.11436054290620458
Bidston,BID,1.0,53.4091398593576,-3.07856110228132,51.51349214773037,-0.11436054290620458
Biggleswade,BIW,0.0,52.0846785950736,-0.261187193156868,51.51349214773037,-0.11436054290620458
Bilbrook,BBK,1.0,52.6237197237583,-2.18608801838282,51.51349214773037,-0.11436054290620458
Billericay,BIC,0.0,51.6288812691945,0.418629610467223,51.51349214773037,-0.11436054290620458
Billingham (Cleveland),BIL,1.0,54.605606575355,-1.27971968622732,51.51349214773037,-0.11436054290620458
Billingshurst,BIG,0.0,51.0152034952011,-0.450302232654151,51.51349214773037,-0.11436054290620458
Bingham,BIN,1.0,52.9541905628363,-0.95154335353279,51.51349214773037,-0.11436054290620458
Bingley,BIY,1.0,53.8486154371384,-1.8373224993653,51.51349214773037,-0.11436054290620458
Birchgrove,BCG,1.0,51.5215597229164,-3.20185379786194,51.51349214773037,-0.11436054290620458
Birchington-on-sea,BCH,0.0,51.3774886896266,1.3014083545974,51.51349214773037,-0.11436054290620458
Birchwood,BWD,1.0,53.4127205850305,-2.5253082468513,51.51349214773037,-0.11436054290620458
Birkbeck,BIK,0.0,51.4038899816034,-0.0557387405611835,51.51349214773037,-0.11436054290620458
Birkdale,BDL,2.0,53.6340528065899,-3.01445011129132,51.51349214773037,-0.11436054290620458
Birkenhead Central,BKC,1.0,53.3883166263867,-3.02082115838918,51.51349214773037,-0.11436054290620458
Birkenhead Hamilton Square,BKQ,1.0,53.3946967251861,-3.01368016573114,51.51349214773037,-0.11436054290620458
Birkenhead North,BKN,1.0,53.4044379353974,-3.05753365912751,51.51349214773037,-0.11436054290620458
Birkenhead Park,BKP,1.0,53.3974085855031,-3.03910128885113,51.51349214773037,-0.11436054290620458
Birmingham International,BHI,0.0,52.4508081112451,-1.72585685988124,51.51349214773037,-0.11436054290620458
Birmingham Moor Street,BMO,0.0,52.479080623723,-1.89247273057604,51.51349214773037,-0.11436054290620458
Birmingham New Street,BHM,0.0,52.4778198092097,-1.9002055706822,51.51349214773037,-0.11436054290620458
Birmingham Snow Hill,BSW,0.0,52.4833566780576,-1.89908868312646,51.51349214773037,-0.11436054290620458
Bishop Auckland,BIA,1.0,54.6571963763698,-1.67771509725951,51.51349214773037,-0.11436054290620458
Bishopbriggs,BBG,1.0,55.9038831792009,-4.22491571705821,51.51349214773037,-0.11436054290620458
Bishops Stortford,BIS,0.0,51.8666894209812,0.16489410333554,51.51349214773037,-0.11436054290620458
Bishopstone (Sussex),BIP,0.0,50.7801416620368,0.082756921439231,51.51349214773037,-0.11436054290620458
Bishopton (Strathclyde),BPT,1.0,55.9022694882255,-4.5004875625329,51.51349214773037,-0.11436054290620458
Bitterne,BTE,1.0,50.9182213632939,-1.37699961416727,51.51349214773037,-0.11436054290620458
Blackburn,BBN,1.0,53.7465184457461,-2.47912240276289,51.51349214773037,-0.11436054290620458
Blackheath,BKH,0.0,51.4657945200002,0.00887187089452019,51.51349214773037,-0.11436054290620458
Blackhorse Road,BHO,0.0,51.58660384873,-0.0412357433706351,51.51349214773037,-0.11436054290620458
Blackpool North,BPN,0.0,53.8219180942013,-3.04927516714828,51.51349214773037,-0.11436054290620458
Blackpool Pleasure Beach,BPB,1.0,53.7879555202556,-3.05387646984086,51.51349214773037,-0.11436054290620458
Blackpool South,BPS,1.0,53.7987040263195,-3.04893832565541,51.51349214773037,-0.11436054290620458
Blackridge,BKR,1.0,55.8842557507999,-3.75079743413867,51.51349214773037,-0.11436054290620458
Blackrod,BLK,1.0,53.5915244932358,-2.56952431744104,51.51349214773037,-0.11436054290620458
Blackwater,BAW,1.0,51.3315811457068,-0.776741026218888,51.51349214773037,-0.11436054290620458
Blaenau Ffestiniog,BFF,1.0,52.9945530771849,-3.93859577234881,51.51349214773037,-0.11436054290620458
Blair Atholl,BLA,1.0,56.7655504660718,-3.85022876626298,51.51349214773037,-0.11436054290620458
Blairhill,BAI,1.0,55.8664556230225,-4.0432911996593,51.51349214773037,-0.11436054290620458
Blake Street,BKT,1.0,52.6048860712992,-1.84491459685048,51.51349214773037,-0.11436054290620458
Blakedown,BKD,0.0,52.4064026596129,-2.17686566095142,51.51349214773037,-0.11436054290620458
Blantyre,BLT,1.0,55.7973304780703,-4.08697164977011,51.51349214773037,-0.11436054290620458
Blaydon,BLO,1.0,54.9657896857216,-1.71258088882198,51.51349214773037,-0.11436054290620458
Bleasby,BSB,1.0,53.0413649497003,-0.943687538181265,51.51349214773037,-0.11436054290620458
Bletchley,BLY,0.0,51.9953339717924,-0.736320506839459,51.51349214773037,-0.11436054290620458
Bloxwich,BLX,1.0,52.6182018754768,-2.01147807238452,51.51349214773037,-0.11436054290620458
Bloxwich North,BWN,1.0,52.6254378492086,-2.01768461058018,51.51349214773037,-0.11436054290620458
Blundellsands & Crosby,BLN,2.0,53.4876867000616,-3.03986028592851,51.51349214773037,-0.11436054290620458
Blythe Bridge,BYB,1.0,52.9681439666743,-2.06696136521393,51.51349214773037,-0.11436054290620458
Bodmin Parkway,BOD,0.0,50.4458686645733,-4.66292953056928,51.51349214773037,-0.11436054290620458
Bodorgan,BOR,1.0,53.2043074000119,-4.41800424551237,51.51349214773037,-0.11436054290620458
Bognor Regis,BOG,0.0,50.7865584395345,-0.676178286011514,51.51349214773037,-0.11436054290620458
Bogston,BGS,1.0,55.9370473872407,-4.71140217696609,51.51349214773037,-0.11436054290620458
Bolton,BON,1.0,53.5741455351566,-2.42582497565139,51.51349214773037,-0.11436054290620458
Bolton-Upon-Dearne,BTD,1.0,53.5189470302023,-1.31154616002462,51.51349214773037,-0.11436054290620458
Bookham,BKA,0.0,51.2887375770933,-0.384020684769355,51.51349214773037,-0.11436054290620458
Bootle (Cumbria),BOC,1.0,54.2913058315169,-3.39386227213438,51.51349214773037,-0.11436054290620458
Bootle New Strand,BNW,2.0,53.4533917659639,-2.99474773972908,51.51349214773037,-0.11436054290620458
Bootle Oriel Road,BOT,2.0,53.4466239167649,-2.9957338918952,51.51349214773037,-0.11436054290620458
Bordesley,BBS,2.0,52.4718743800827,-1.87776885469942,51.51349214773037,-0.11436054290620458
Borough Green & Wrotham,BRG,0.0,51.2932170234776,0.306244959659036,51.51349214773037,-0.11436054290620458
Borth,BRH,1.0,52.4910318901744,-4.05017708151719,51.51349214773037,-0.11436054290620458
Bosham,BOH,0.0,50.8427472866996,-0.847431235664145,51.51349214773037,-0.11436054290620458
Boston,BSN,1.0,52.9780883520384,-0.03100323679323,51.51349214773037,-0.11436054290620458
Botley,BOE,0.0,50.9164546156522,-1.25923650546392,51.51349214773037,-0.11436054290620458
Bottesford,BTF,1.0,52.9446141670485,-0.794842711685305,51.51349214773037,-0.11436054290620458
Bourne End,BNE,1.0,51.5771173647136,-0.710473547391366,51.51349214773037,-0.11436054290620458
Bournemouth,BMH,0.0,50.7272746595869,-1.86450316465566,51.51349214773037,-0.11436054290620458
Bournville,BRV,1.0,52.4269645832552,-1.92642405915734,51.51349214773037,-0.11436054290620458
Bow Brickhill,BWB,1.0,52.0043001848605,-0.696077833880482,51.51349214773037,-0.11436054290620458
Bowes Park,BOP,0.0,51.6070103763875,-0.120581954633459,51.51349214773037,-0.11436054290620458
Bowling,BWG,2.0,55.9310849001239,-4.49384261915191,51.51349214773037,-0.11436054290620458
Box Hill & Westhumble,BXW,0.0,51.2540106794359,-0.328489952956063,51.51349214773037,-0.11436054290620458
Bracknell,BCE,0.0,51.4130914141393,-0.751703650172948,51.51349214773037,-0.11436054290620458
Bradford Forster Square,BDQ,0.0,53.7969256219995,-1.75296173787813,51.51349214773037,-0.11436054290620458
Bradford Interchange,BDI,0.0,53.7910764525054,-1.74959589964649,51.51349214773037,-0.11436054290620458
Bradford-on-Avon,BOA,0.0,51.3449161602034,-2.25232693866303,51.51349214773037,-0.11436054290620458
Brading,BDN,2.0,50.6783720718463,-1.13872244962043,51.51349214773037,-0.11436054290620458
Braintree,BTR,0.0,51.8753890748181,0.556686982906197,51.51349214773037,-0.11436054290620458
Braintree Freeport,BTP,0.0,51.8694135093739,0.568434688069829,51.51349214773037,-0.11436054290620458
Bramhall,BML,1.0,53.360614520234,-2.16359288123925,51.51349214773037,-0.11436054290620458
Bramley (Hants),BMY,1.0,51.3302932744388,-1.06100278415591,51.51349214773037,-0.11436054290620458
Bramley (W Yorks),BLE,1.0,53.8053497570895,-1.63720635437646,51.51349214773037,-0.11436054290620458
Brampton (Cumbria),BMP,1.0,54.9323930102284,-2.70294760254176,51.51349214773037,-0.11436054290620458
Brampton (Suffolk),BRP,1.0,52.3954307722651,1.54381046672808,51.51349214773037,-0.11436054290620458
Branchton,BCN,1.0,55.9406016000061,-4.80354935893801,51.51349214773037,-0.11436054290620458
Brandon,BND,1.0,52.4540047306678,0.624731734521936,51.51349214773037,-0.11436054290620458
Branksome,BSM,0.0,50.7269660330633,-1.91975842787338,51.51349214773037,-0.11436054290620458
Braystones (Cumbria),BYS,1.0,54.4393640536404,-3.54182643942065,51.51349214773037,-0.11436054290620458
Bredbury,BDY,1.0,53.4231550957567,-2.11048830300964,51.51349214773037,-0.11436054290620458
Breich,BRC,1.0,55.8273164832767,-3.66812586892786,51.51349214773037,-0.11436054290620458
Brentford,BFD,0.0,51.4875457097478,-0.3096509962364,51.51349214773037,-0.11436054290620458
Brentwood,BRE,0.0,51.6136030493508,0.2995857793073,51.51349214773037,-0.11436054290620458
Bricket Wood,BWO,1.0,51.7054267834401,-0.359115040469,51.51349214773037,-0.11436054290620458
Bridge of Allan,BEA,1.0,56.1566398048563,-3.95722936202684,51.51349214773037,-0.11436054290620458
Bridge of Orchy,BRO,2.0,56.5158728605762,-4.76299400728156,51.51349214773037,-0.11436054290620458
Bridgend,BGN,0.0,51.5069776497295,-3.57527638119945,51.51349214773037,-0.11436054290620458
Bridgeton,BDG,1.0,55.8489676845822,-4.22605724682491,51.51349214773037,-0.11436054290620458
Bridgwater,BWT,0.0,51.1278595271724,-2.99040597303838,51.51349214773037,-0.11436054290620458
Bridlington,BDT,1.0,54.0841300013586,-0.198720390714093,51.51349214773037,-0.11436054290620458
Brierfield,BRF,1.0,53.8239823807197,-2.23649020577414,51.51349214773037,-0.11436054290620458
Brigg,BGG,1.0,53.5491442686681,-0.486124757673641,51.51349214773037,-0.11436054290620458
Brighouse,BGH,0.0,53.6981985445311,-1.77943904000537,51.51349214773037,-0.11436054290620458
Brighton (East Sussex),BTN,0.0,50.8290032740444,-0.141280362604851,51.51349214773037,-0.11436054290620458
Brimsdown,BMD,0.0,51.6555817179022,-0.0308174334464399,51.51349214773037,-0.11436054290620458
Brinnington,BNT,1.0,53.4321182782686,-2.13512015019042,51.51349214773037,-0.11436054290620458
Bristol Parkway,BPW,0.0,51.5138036668802,-2.54216343130652,51.51349214773037,-0.11436054290620458
Bristol Temple Meads,BRI,0.0,51.449146420501,-2.58131562733598,51.51349214773037,-0.11436054290620458
Brithdir,BHD,1.0,51.7103060616454,-3.22872077880337,51.51349214773037,-0.11436054290620458
Briton Ferry,BNF,1.0,51.6379005035521,-3.81925304025098,51.51349214773037,-0.11436054290620458
Brixton,BRX,0.0,51.4632974069132,-0.114183479348404,51.51349214773037,-0.11436054290620458
Broad Green,BGE,1.0,53.4065063198581,-2.8934843782564,51.51349214773037,-0.11436054290620458
Broadbottom,BDB,1.0,53.4409753914717,-2.01652101691897,51.51349214773037,-0.11436054290620458
Broadstairs,BSR,0.0,51.3606706129939,1.43356042841681,51.51349214773037,-0.11436054290620458
Brockenhurst,BCU,0.0,50.8168418133325,-1.57353117285741,51.51349214773037,-0.11436054290620458
Brockholes,BHS,1.0,53.5969730380642,-1.76969142002127,51.51349214773037,-0.11436054290620458
Brockley,BCY,0.0,51.4646472014469,-0.0375366925196268,51.51349214773037,-0.11436054290620458
Bromborough,BOM,1.0,53.3218495381578,-2.98689585549247,51.51349214773037,-0.11436054290620458
Bromborough Rake,BMR,1.0,53.3299093778849,-2.98946942122466,51.51349214773037,-0.11436054290620458
Bromley Cross (Lancs),BMC,2.0,53.6140430093272,-2.41089911446368,51.51349214773037,-0.11436054290620458
Bromley North,BMN,1.0,51.4083259856208,0.0169926357417391,51.51349214773037,-0.11436054290620458
Bromley South,BMS,0.0,51.3999745779484,0.0173440284479178,51.51349214773037,-0.11436054290620458
Bromsgrove,BMV,1.0,52.3222879772082,-2.04734524157192,51.51349214773037,-0.11436054290620458
Brondesbury,BSY,1.0,51.5451643215911,-0.202308734122339,51.51349214773037,-0.11436054290620458
Brondesbury Park,BSP,1.0,51.5406977630272,-0.210127665126915,51.51349214773037,-0.11436054290620458
Brookmans Park,BPK,0.0,51.7210604040222,-0.204548729285783,51.51349214773037,-0.11436054290620458
Brookwood,BKO,0.0,51.3037572593507,-0.635747900032551,51.51349214773037,-0.11436054290620458
Broome,BME,1.0,52.4227745962921,-2.88520796216339,51.51349214773037,-0.11436054290620458
Broomfleet,BMF,1.0,53.7402076992399,-0.671828400321333,51.51349214773037,-0.11436054290620458
Brora,BRA,2.0,58.012954677959,-3.85228367382381,51.51349214773037,-0.11436054290620458
Brough,BUH,0.0,53.726959736948,-0.578724236728498,51.51349214773037,-0.11436054290620458
Broughty Ferry,BYF,1.0,56.4671632427311,-2.87315275743822,51.51349214773037,-0.11436054290620458
Broxbourne,BXB,0.0,51.7469087203036,-0.0110867237416249,51.51349214773037,-0.11436054290620458
Bruce Grove,BCV,0.0,51.5939575362971,-0.0698670703254643,51.51349214773037,-0.11436054290620458
Brundall,BDA,1.0,52.6194794445227,1.43929868679443,51.51349214773037,-0.11436054290620458
Brundall Gardens,BGA,1.0,52.623439277351,1.41841612253682,51.51349214773037,-0.11436054290620458
Brunstane,BSU,1.0,55.9425140850115,-3.10098653970798,51.51349214773037,-0.11436054290620458
Brunswick,BRW,2.0,53.3832435421687,-2.97607735757102,51.51349214773037,-0.11436054290620458
Bruton,BRU,0.0,51.1116412233567,-2.44707381432238,51.51349214773037,-0.11436054290620458
Bryn,BYN,1.0,53.4998691660173,-2.6472139954436,51.51349214773037,-0.11436054290620458
Buckenham (Norfolk),BUC,-999.0,52.5977342869752,1.47032522512213,51.51349214773037,-0.11436054290620458
Buckley,BCK,2.0,53.163039091322,-3.05592619131988,51.51349214773037,-0.11436054290620458
Bucknell,BUK,1.0,52.3573820377697,-2.94737831871819,51.51349214773037,-0.11436054290620458
Buckshaw Parkway,BSV,1.0,53.6733436562841,-2.6608302706882,51.51349214773037,-0.11436054290620458
Bugle,BGL,1.0,50.4003548175137,-4.79210144517706,51.51349214773037,-0.11436054290620458
Builth Road,BHR,1.0,52.1693260878635,-3.42703322967269,51.51349214773037,-0.11436054290620458
Bulwell,BLW,1.0,52.9996957837852,-1.19623056375416,51.51349214773037,-0.11436054290620458
Bures,BUE,1.0,51.9711590332091,0.769143780923498,51.51349214773037,-0.11436054290620458
Burgess Hill,BUG,0.0,50.9536546008005,-0.127412852764647,51.51349214773037,-0.11436054290620458
Burley Park,BUY,1.0,53.8120311080587,-1.57776768947798,51.51349214773037,-0.11436054290620458
Burley-in-Wharfedale,BUW,1.0,53.9081516997075,-1.75337211508043,51.51349214773037,-0.11436054290620458
Burnage,BNA,1.0,53.4211687602571,-2.21567840315285,51.51349214773037,-0.11436054290620458
Burneside (Cumbria),BUD,1.0,54.3549826054845,-2.76667730640148,51.51349214773037,-0.11436054290620458
Burnham (Bucks),BNM,0.0,51.5235048795581,-0.646373823188634,51.51349214773037,-0.11436054290620458
Burnham-on-Crouch,BUU,0.0,51.6336547723703,0.814027782561537,51.51349214773037,-0.11436054290620458
Burnley Barracks,BUB,1.0,53.7908801067712,-2.25808600820696,51.51349214773037,-0.11436054290620458
Burnley Central,BNC,1.0,53.7935141377532,-2.24497131410056,51.51349214773037,-0.11436054290620458
Burnley Manchester Road,BYM,1.0,53.784967519749,-2.24886752625716,51.51349214773037,-0.11436054290620458
Burnside (Strathclyde),BUI,1.0,55.8169313339993,-4.20239033426663,51.51349214773037,-0.11436054290620458
Burntisland,BTS,1.0,56.0570842114504,-3.23319831966981,51.51349214773037,-0.11436054290620458
Burscough Bridge,BCB,2.0,53.6052595050232,-2.84088028461687,51.51349214773037,-0.11436054290620458
Burscough Junction,BCJ,2.0,53.5975223038556,-2.84060569626726,51.51349214773037,-0.11436054290620458
Bursledon,BUO,1.0,50.8836886125224,-1.30503236047306,51.51349214773037,-0.11436054290620458
Burton Joyce,BUJ,1.0,52.9834418843688,-1.04087761567102,51.51349214773037,-0.11436054290620458
Burton-on-Trent,BUT,1.0,52.8058165084357,-1.64245997205794,51.51349214773037,-0.11436054290620458
Bury St Edmunds,BSE,1.0,52.2537604920335,0.713306656862091,51.51349214773037,-0.11436054290620458
Busby,BUS,1.0,55.7803445376612,-4.26220173231044,51.51349214773037,-0.11436054290620458
Bush Hill Park,BHK,0.0,51.6415169536941,-0.0692211146516689,51.51349214773037,-0.11436054290620458
Bushey,BSH,0.0,51.6457502336329,-0.385321269560704,51.51349214773037,-0.11436054290620458
Butlers Lane,BUL,1.0,52.5924709448511,-1.83802031828625,51.51349214773037,-0.11436054290620458
Buxted,BXD,0.0,50.9900108378352,0.131438921683175,51.51349214773037,-0.11436054290620458
Buxton,BUX,1.0,53.2607227045765,-1.91286358993768,51.51349214773037,-0.11436054290620458
Byfleet & New Haw,BFN,0.0,51.3497957278428,-0.481389767596653,51.51349214773037,-0.11436054290620458
Bynea,BYE,1.0,51.6720366859549,-4.09888164715589,51.51349214773037,-0.11436054290620458
Cadoxton,CAD,1.0,51.4122831697514,-3.24889594393883,51.51349214773037,-0.11436054290620458
Caergwrle,CGW,2.0,53.1078664074892,-3.03291327418616,51.51349214773037,-0.11436054290620458
Caerphilly,CPH,1.0,51.57158067131,-3.21848255919666,51.51349214773037,-0.11436054290620458
Caersws,CWS,1.0,52.5161279090032,-3.43249879239218,51.51349214773037,-0.11436054290620458
Caldercruix,CAC,1.0,55.8879475461776,-3.88771190821316,51.51349214773037,-0.11436054290620458
Caldicot,CDT,1.0,51.5847930591881,-2.76057390572724,51.51349214773037,-0.11436054290620458
Caledonian Rd & Barnsbury,CIR,1.0,51.5430392840645,-0.116729249835755,51.51349214773037,-0.11436054290620458
Calstock,CSK,1.0,50.4978023671618,-4.20898850028348,51.51349214773037,-0.11436054290620458
Cam & Dursley,CDU,1.0,51.71762106741,-2.35908298700462,51.51349214773037,-0.11436054290620458
Camberley,CAM,0.0,51.3363271281171,-0.744271720142327,51.51349214773037,-0.11436054290620458
Camborne,CBN,0.0,50.2104431448962,-5.2974123155278,51.51349214773037,-0.11436054290620458
Cambridge,CBG,0.0,52.1940653655991,0.137456461171047,51.51349214773037,-0.11436054290620458
Cambridge Heath,CBH,0.0,51.5319710950389,-0.0572790666047599,51.51349214773037,-0.11436054290620458
Cambuslang,CBL,1.0,55.8196110785266,-4.17300936139383,51.51349214773037,-0.11436054290620458
Camden Road,CMD,1.0,51.541789311709,-0.138700901327927,51.51349214773037,-0.11436054290620458
Camelon,CMO,1.0,56.0060960246981,-3.81760595611437,51.51349214773037,-0.11436054290620458
Canada Water,ZCW,1.0,51.4979884652777,-0.0497198367270248,51.51349214773037,-0.11436054290620458
Canley,CNL,0.0,52.3992417616656,-1.54757487164278,51.51349214773037,-0.11436054290620458
Cannock,CAO,1.0,52.6861624456421,-2.02214749992606,51.51349214773037,-0.11436054290620458
Canonbury,CNN,1.0,51.5487306960064,-0.0921909296515918,51.51349214773037,-0.11436054290620458
Canterbury East,CBE,0.0,51.2742643010057,1.07596836838028,51.51349214773037,-0.11436054290620458
Canterbury West,CBW,0.0,51.2842658182293,1.07530307014886,51.51349214773037,-0.11436054290620458
Cantley,CNY,1.0,52.5787439208642,1.51341203393271,51.51349214773037,-0.11436054290620458
Capenhurst,CPU,1.0,53.2601766897761,-2.94228526259152,51.51349214773037,-0.11436054290620458
Carbis Bay,CBB,1.0,50.1970567010486,-5.46326466277764,51.51349214773037,-0.11436054290620458
Cardenden,CDD,1.0,56.1412590120684,-3.26164246018956,51.51349214773037,-0.11436054290620458
Cardiff Bay,CDB,2.0,51.4671120338694,-3.16640344566505,51.51349214773037,-0.11436054290620458
Cardiff Central,CDF,0.0,51.4760288851757,-3.17930229689385,51.51349214773037,-0.11436054290620458
Cardiff Queen Street,CDQ,1.0,51.4819650131963,-3.17018110795731,51.51349214773037,-0.11436054290620458
Cardonald,CDO,1.0,55.8525736689993,-4.34069348123436,51.51349214773037,-0.11436054290620458
Cardross,CDR,1.0,55.9603843832927,-4.65307437435214,51.51349214773037,-0.11436054290620458
Carfin,CRF,1.0,55.8073437453988,-3.9562545230792,51.51349214773037,-0.11436054290620458
Cark & Cartmel,CAK,1.0,54.1779579416092,-2.97406410040301,51.51349214773037,-0.11436054290620458
Carlisle,CAR,0.0,54.8906549298,-2.93319211047497,51.51349214773037,-0.11436054290620458
Carlton,CTO,1.0,52.965087366641,-1.07865502808069,51.51349214773037,-0.11436054290620458
Carluke,CLU,1.0,55.7312694028257,-3.84892564535903,51.51349214773037,-0.11436054290620458
Carmarthen,CMN,0.0,51.8533578808521,-4.30596190317658,51.51349214773037,-0.11436054290620458
Carmyle,CML,1.0,55.8343417681725,-4.15818113045633,51.51349214773037,-0.11436054290620458
Carnforth,CNF,1.0,54.1296807999724,-2.77123283370784,51.51349214773037,-0.11436054290620458
Carnoustie,CAN,1.0,56.5005661034066,-2.70660077824166,51.51349214773037,-0.11436054290620458
Carntyne,CAY,1.0,55.8548777008205,-4.17857314789674,51.51349214773037,-0.11436054290620458
Carpenders Park,CPK,0.0,51.6283500844943,-0.385939110192136,51.51349214773037,-0.11436054290620458
Carrbridge,CAG,1.0,57.2795057695212,-3.82820361192189,51.51349214773037,-0.11436054290620458
Carshalton,CSH,0.0,51.3684528774191,-0.166368536051504,51.51349214773037,-0.11436054290620458
Carshalton Beeches,CSB,0.0,51.3574095253256,-0.169797044692897,51.51349214773037,-0.11436054290620458
Carstairs,CRS,0.0,55.6910505751263,-3.66847398361363,51.51349214773037,-0.11436054290620458
Cartsdyke,CDY,1.0,55.9422189788465,-4.73159192667259,51.51349214773037,-0.11436054290620458
Castle Bar Park,CBP,0.0,51.5229293420363,-0.331548940592461,51.51349214773037,-0.11436054290620458
Castle Cary,CLC,0.0,51.0998172088069,-2.52279469643867,51.51349214773037,-0.11436054290620458
Castleford,CFD,1.0,53.7240777865092,-1.354652736609,51.51349214773037,-0.11436054290620458
Castleton (Manchester),CAS,1.0,53.5918484863424,-2.17823419505367,51.51349214773037,-0.11436054290620458
Castleton Moor,CSM,1.0,54.4671435348016,-0.946648402304519,51.51349214773037,-0.11436054290620458
Caterham,CAT,0.0,51.2821399092314,-0.0783071221606942,51.51349214773037,-0.11436054290620458
Catford,CTF,0.0,51.4444050592825,-0.0263165980978829,51.51349214773037,-0.11436054290620458
Catford Bridge,CFB,0.0,51.4447390713824,-0.0247911767036132,51.51349214773037,-0.11436054290620458
Cathays,CYS,1.0,51.4889025348744,-3.17868388381823,51.51349214773037,-0.11436054290620458
Cathcart,CCT,1.0,55.8176734833053,-4.26053705302787,51.51349214773037,-0.11436054290620458
Cattal,CTL,1.0,53.9974405714928,-1.32053513613482,51.51349214773037,-0.11436054290620458
Causeland,CAU,1.0,50.4056959147701,-4.46644892679679,51.51349214773037,-0.11436054290620458
Cefn-y-Bedd,CYB,2.0,53.0988032278231,-3.03105323734973,51.51349214773037,-0.11436054290620458
Chadwell Heath,CTH,0.0,51.5680368465285,0.128958362519305,51.51349214773037,-0.11436054290620458
Chafford Hundred Lakeside,CFH,0.0,51.4855550575053,0.28744692045023,51.51349214773037,-0.11436054290620458
Chalfont & Latimer,CFO,0.0,51.6681076576697,-0.560526398177912,51.51349214773037,-0.11436054290620458
Chalkwell,CHW,0.0,51.5387163080302,0.670592556917399,51.51349214773037,-0.11436054290620458
Chandlers Ford,CFR,1.0,50.9836845147777,-1.38517039014294,51.51349214773037,-0.11436054290620458
Chapel-en-le-Frith,CEF,1.0,53.3122322961308,-1.91876260821786,51.51349214773037,-0.11436054290620458
Chapelton (Devon),CPN,1.0,51.0165400933197,-4.02472276399646,51.51349214773037,-0.11436054290620458
Chapeltown (South Yorks),CLN,1.0,53.4623369950109,-1.46627538451147,51.51349214773037,-0.11436054290620458
Chappel & Wakes Colne,CWC,1.0,51.9259030310448,0.758501135970095,51.51349214773037,-0.11436054290620458
Charing (Kent),CHG,0.0,51.2080962778901,0.790331124900325,51.51349214773037,-0.11436054290620458
Charing Cross (Glasgow),CHC,1.0,55.8646868840175,-4.2698209416277,51.51349214773037,-0.11436054290620458
Charlbury,CBY,0.0,51.8724282813146,-1.48969393048958,51.51349214773037,-0.11436054290620458
Charlton,CTN,0.0,51.4868115310585,0.0312574909275387,51.51349214773037,-0.11436054290620458
Chartham,CRT,0.0,51.2572624478548,1.01803921286391,51.51349214773037,-0.11436054290620458
Chassen Road,CSR,2.0,53.4461614853374,-2.36823319572701,51.51349214773037,-0.11436054290620458
Chatelherault,CTE,1.0,55.7652234915406,-4.00467524821846,51.51349214773037,-0.11436054290620458
Chatham,CTM,0.0,51.3803760158194,0.521150706594487,51.51349214773037,-0.11436054290620458
Chathill,CHT,1.0,55.5367340174025,-1.70637532341525,51.51349214773037,-0.11436054290620458
Cheadle Hulme,CHU,1.0,53.3759306424827,-2.1883029825707,51.51349214773037,-0.11436054290620458
Cheam,CHE,0.0,51.3554775610295,-0.214167523240628,51.51349214773037,-0.11436054290620458
Cheddington,CED,0.0,51.8579176369762,-0.662151871991779,51.51349214773037,-0.11436054290620458
Chelford (Cheshire),CEL,1.0,53.2703118842523,-2.28057730967718,51.51349214773037,-0.11436054290620458
Chelmsford,CHM,0.0,51.736370182895,0.468572080657349,51.51349214773037,-0.11436054290620458
Chelsfield,CLD,0.0,51.3562540463622,0.109069814712519,51.51349214773037,-0.11436054290620458
Cheltenham Spa,CNM,0.0,51.897399026527,-2.09962021886949,51.51349214773037,-0.11436054290620458
Chepstow,CPW,1.0,51.6401819017246,-2.67190561030381,51.51349214773037,-0.11436054290620458
Cherry Tree,CYT,1.0,53.7328728448942,-2.51837919025585,51.51349214773037,-0.11436054290620458
Chertsey,CHY,0.0,51.387067986648,-0.509316626293664,51.51349214773037,-0.11436054290620458
Cheshunt,CHN,0.0,51.7028745312854,-0.0239597248580568,51.51349214773037,-0.11436054290620458
Chessington North,CSN,0.0,51.3640398492818,-0.300699137972596,51.51349214773037,-0.11436054290620458
Chessington South,CSS,0.0,51.3565491107847,-0.308157574149904,51.51349214773037,-0.11436054290620458
Chester,CTR,0.0,53.1966981459934,-2.879593999182,51.51349214773037,-0.11436054290620458
Chester Road,CRD,1.0,52.5356474587434,-1.83247949958833,51.51349214773037,-0.11436054290620458
Chesterfield,CHD,0.0,53.2382208069527,-1.42011597140436,51.51349214773037,-0.11436054290620458
Chester-le-Street,CLS,1.0,54.854595364494,-1.57801542177952,51.51349214773037,-0.11436054290620458
Chestfield & Swalecliffe,CSW,0.0,51.360237745381,1.06693052184082,51.51349214773037,-0.11436054290620458
Chetnole,CNO,1.0,50.8663655335093,-2.57292595204148,51.51349214773037,-0.11436054290620458
Chichester,CCH,0.0,50.8320529892616,-0.781748952807999,51.51349214773037,-0.11436054290620458
Chilham,CIL,0.0,51.2446076985827,0.975895539359203,51.51349214773037,-0.11436054290620458
Chilworth,CHL,1.0,51.2152123162868,-0.524824137256049,51.51349214773037,-0.11436054290620458
Chingford,CHI,0.0,51.6330849559396,0.00989703968061354,51.51349214773037,-0.11436054290620458
Chinley,CLY,1.0,53.3402914179345,-1.94394095141586,51.51349214773037,-0.11436054290620458
Chippenham,CPM,0.0,51.4624897217942,-2.11539415452921,51.51349214773037,-0.11436054290620458
Chipstead,CHP,0.0,51.3092758788923,-0.169503225609274,51.51349214773037,-0.11436054290620458
Chirk,CRK,1.0,52.9330904882563,-3.06564362624753,51.51349214773037,-0.11436054290620458
Chislehurst,CIT,0.0,51.4055547408408,0.0574179687488035,51.51349214773037,-0.11436054290620458
Chiswick,CHK,0.0,51.4811353508269,-0.267835206320324,51.51349214773037,-0.11436054290620458
Cholsey,CHO,0.0,51.5702025135637,-1.15802300516055,51.51349214773037,-0.11436054290620458
Chorley,CRL,1.0,53.6525386748143,-2.62684103630161,51.51349214773037,-0.11436054290620458
Chorleywood,CLW,0.0,51.6542477676637,-0.518320062534133,51.51349214773037,-0.11436054290620458
Christchurch,CHR,0.0,50.7382153631909,-1.78454614689707,51.51349214773037,-0.11436054290620458
Christs Hospital,CHH,0.0,51.0506848896206,-0.363556339669494,51.51349214773037,-0.11436054290620458
Church & Oswaldtwistle,CTW,1.0,53.7505227746877,-2.39121218921604,51.51349214773037,-0.11436054290620458
Church Fenton,CHF,1.0,53.8266010051519,-1.22758889955301,51.51349214773037,-0.11436054290620458
Church Stretton,CTT,1.0,52.5374242388884,-2.80369477152189,51.51349214773037,-0.11436054290620458
Cilmeri,CIM,1.0,52.1505334866855,-3.45654171112508,51.51349214773037,-0.11436054290620458
City Thameslink,CTK,-1.0,51.5139346019675,-0.103589643870664,51.51349214773037,-0.11436054290620458
Clacton-on-Sea,CLT,0.0,51.7939991870545,1.15409160775521,51.51349214773037,-0.11436054290620458
Clandon,CLA,0.0,51.2640043702166,-0.502766109156909,51.51349214773037,-0.11436054290620458
Clapham (North Yorkshire),CPY,1.0,54.1053880706421,-2.4103762733162,51.51349214773037,-0.11436054290620458
Clapham High Street,CLP,1.0,51.465479417202,-0.132521686185382,51.51349214773037,-0.11436054290620458
Clapham Junction,CLJ,0.0,51.4641865965587,-0.170293416365599,51.51349214773037,-0.11436054290620458
Clapton,CPT,0.0,51.5616423238882,-0.0570246574503497,51.51349214773037,-0.11436054290620458
Clarbeston Road,CLR,1.0,51.8516714049905,-4.8835490247474,51.51349214773037,-0.11436054290620458
Clarkston,CKS,1.0,55.7893535486702,-4.27564475472092,51.51349214773037,-0.11436054290620458
Claverdon,CLV,0.0,52.277091521558,-1.69656001384624,51.51349214773037,-0.11436054290620458
Claygate,CLG,0.0,51.3612128745663,-0.34824779526903,51.51349214773037,-0.11436054290620458
Cleethorpes,CLE,1.0,53.5619045675724,-0.0292209300100191,51.51349214773037,-0.11436054290620458
Cleland,CEA,1.0,55.804652232152,-3.91024482718574,51.51349214773037,-0.11436054290620458
Clifton (Manchester),CLI,2.0,53.522491666707,-2.31474664635258,51.51349214773037,-0.11436054290620458
Clifton Down,CFN,1.0,51.4645471476911,-2.61174122454121,51.51349214773037,-0.11436054290620458
Clitheroe,CLH,2.0,53.8734683464237,-2.39433664531423,51.51349214773037,-0.11436054290620458
Clock House,CLK,0.0,51.4085847718765,-0.0406570648343016,51.51349214773037,-0.11436054290620458
Clunderwen,CUW,1.0,51.840545791914,-4.73184301881061,51.51349214773037,-0.11436054290620458
Clydebank,CYK,1.0,55.9006964941048,-4.40441492241242,51.51349214773037,-0.11436054290620458
Coatbridge Central,CBC,1.0,55.8625102963699,-4.0318976496868,51.51349214773037,-0.11436054290620458
Coatbridge Sunnyside,CBS,1.0,55.8668386609231,-4.02828798060081,51.51349214773037,-0.11436054290620458
Coatdyke,COA,1.0,55.8643447692187,-4.00498525207608,51.51349214773037,-0.11436054290620458
Cobham & Stoke d'Abernon,CSD,0.0,51.3180996661306,-0.389346373427882,51.51349214773037,-0.11436054290620458
Codsall,CSL,1.0,52.6272899571536,-2.20176310096144,51.51349214773037,-0.11436054290620458
Cogan,CGN,1.0,51.4459958120536,-3.18909039001181,51.51349214773037,-0.11436054290620458
Colchester,COL,0.0,51.90071062168,0.89259805805851,51.51349214773037,-0.11436054290620458
Colchester Town,CET,0.0,51.8864527052257,0.9047624659822,51.51349214773037,-0.11436054290620458
Coleshill Parkway,CEH,1.0,52.5165275432713,-1.70817740730361,51.51349214773037,-0.11436054290620458
Collingham,CLM,0.0,53.1440857576614,-0.750393934928215,51.51349214773037,-0.11436054290620458
Collington,CLL,0.0,50.8392865411482,0.457861387933257,51.51349214773037,-0.11436054290620458
Colne,CNE,1.0,53.8547444008362,-2.18185934114806,51.51349214773037,-0.11436054290620458
Colwall,CWL,0.0,52.0798705537891,-2.35695037506955,51.51349214773037,-0.11436054290620458
Colwyn Bay,CWB,0.0,53.2963632033856,-3.72541732837559,51.51349214773037,-0.11436054290620458
Combe (Oxon),CME,1.0,51.8325940324182,-1.39407333584626,51.51349214773037,-0.11436054290620458
Commondale,COM,1.0,54.4812740872027,-0.975148019682156,51.51349214773037,-0.11436054290620458
Congleton,CNG,1.0,53.1578561862417,-2.19258027037562,51.51349214773037,-0.11436054290620458
Conisbrough,CNS,1.0,53.4893094105923,-1.23433150755602,51.51349214773037,-0.11436054290620458
Connel Ferry,CON,2.0,56.4523594657108,-5.38544247761732,51.51349214773037,-0.11436054290620458
Conon Bridge,CBD,1.0,57.5617567994351,-4.44040638557,51.51349214773037,-0.11436054290620458
Cononley,CEY,1.0,53.9175717411782,-2.01206789209741,51.51349214773037,-0.11436054290620458
Conway Park,CNP,1.0,53.3933615887328,-3.02267129068915,51.51349214773037,-0.11436054290620458
Conwy,CNW,1.0,53.280106240192,-3.83052500023981,51.51349214773037,-0.11436054290620458
Cooden Beach,COB,0.0,50.8333700419813,0.426858738350685,51.51349214773037,-0.11436054290620458
Cookham,COO,1.0,51.557462203665,-0.722079072881563,51.51349214773037,-0.11436054290620458
Cooksbridge,CBR,0.0,50.9037547738731,-0.0092027514388362,51.51349214773037,-0.11436054290620458
Coombe Junction Halt,COE,1.0,50.4459252926848,-4.48185232237372,51.51349214773037,-0.11436054290620458
Copplestone,COP,1.0,50.8144709700958,-3.75157247453534,51.51349214773037,-0.11436054290620458
Corbridge,CRB,1.0,54.9662625268169,-2.01840032187859,51.51349214773037,-0.11436054290620458
Corby,COR,0.0,52.4888508478421,-0.6883354035657,51.51349214773037,-0.11436054290620458
Corkerhill,CKH,1.0,55.8375061471062,-4.33429351905428,51.51349214773037,-0.11436054290620458
Corkickle,CKL,1.0,54.5416834476749,-3.58216474823985,51.51349214773037,-0.11436054290620458
Corpach,CPA,2.0,56.8428332781627,-5.12195790866533,51.51349214773037,-0.11436054290620458
Corrour,CRR,2.0,56.7602193492772,-4.69060138585505,51.51349214773037,-0.11436054290620458
Coryton,COY,1.0,51.5204395971461,-3.23181845626842,51.51349214773037,-0.11436054290620458
Coseley,CSY,1.0,52.5450842204875,-2.08577774384501,51.51349214773037,-0.11436054290620458
Cosford,COS,1.0,52.6448359469502,-2.30027497544232,51.51349214773037,-0.11436054290620458
Cosham,CSA,0.0,50.8419241447189,-1.06732879438891,51.51349214773037,-0.11436054290620458
Cottingham,CGM,0.0,53.7816479755855,-0.406433983012819,51.51349214773037,-0.11436054290620458
Cottingley,COT,1.0,53.7678175756796,-1.58770821538294,51.51349214773037,-0.11436054290620458
Coulsdon South,CDS,0.0,51.3158366640872,-0.137887293899879,51.51349214773037,-0.11436054290620458
Coulsdon Town,CDN,0.0,51.3220411523246,-0.134464231082376,51.51349214773037,-0.11436054290620458
Coventry,COV,0.0,52.4008144382941,-1.51345977599177,51.51349214773037,-0.11436054290620458
Coventry Arena,CAA,1.0,52.4477337100526,-1.49412470531811,51.51349214773037,-0.11436054290620458
Cowden (Kent),CWN,0.0,51.1556353416943,0.110032723034128,51.51349214773037,-0.11436054290620458
Cowdenbeath,COW,1.0,56.1120953327991,-3.34318635187069,51.51349214773037,-0.11436054290620458
Cradley Heath,CRA,0.0,52.4696552938033,-2.09048839521938,51.51349214773037,-0.11436054290620458
Craigendoran,CGD,1.0,55.9948018624344,-4.71124492675969,51.51349214773037,-0.11436054290620458
Cramlington,CRM,1.0,55.0877690033603,-1.59859511992401,51.51349214773037,-0.11436054290620458
Cranbrook (Devon),CBK,0.0,50.7500952464281,-3.42041599201744,51.51349214773037,-0.11436054290620458
Craven Arms,CRV,1.0,52.4425417003323,-2.83742232035607,51.51349214773037,-0.11436054290620458
Crawley,CRW,0.0,51.1122123903253,-0.186672935434113,51.51349214773037,-0.11436054290620458
Crayford,CRY,0.0,51.4482779041524,0.178936075571555,51.51349214773037,-0.11436054290620458
Crediton,CDI,1.0,50.7833069483759,-3.64677829535681,51.51349214773037,-0.11436054290620458
Cressing (Essex),CES,0.0,51.8523340604127,0.577961040362359,51.51349214773037,-0.11436054290620458
Cressington,CSG,2.0,53.3587520488864,-2.91200333610422,51.51349214773037,-0.11436054290620458
Creswell,CWD,1.0,53.264112781138,-1.21639486472377,51.51349214773037,-0.11436054290620458
Crewe,CRE,0.0,53.0896271575516,-2.4329691730368,51.51349214773037,-0.11436054290620458
Crewkerne,CKN,0.0,50.8735384311373,-2.77849644743115,51.51349214773037,-0.11436054290620458
Crews Hill,CWH,0.0,51.684484296328,-0.106887096068869,51.51349214773037,-0.11436054290620458
Crianlarich,CNR,2.0,56.3904817962502,-4.61843468589525,51.51349214773037,-0.11436054290620458
Criccieth,CCC,1.0,52.9184156772103,-4.23751289496718,51.51349214773037,-0.11436054290620458
Cricklewood,CRI,0.0,51.5584516063089,-0.21267663535896,51.51349214773037,-0.11436054290620458
Croftfoot,CFF,1.0,55.8182615046635,-4.2283256121718,51.51349214773037,-0.11436054290620458
Crofton Park,CFT,0.0,51.4551875557246,-0.0365030454664447,51.51349214773037,-0.11436054290620458
Cromer,CMR,1.0,52.930080690008,1.29282430287158,51.51349214773037,-0.11436054290620458
Cromford,CMF,1.0,53.1129329746475,-1.5491620139343,51.51349214773037,-0.11436054290620458
Crookston,CKT,1.0,55.842318324364,-4.3646760010174,51.51349214773037,-0.11436054290620458
Cross Gates,CRG,1.0,53.8049143949973,-1.45158048553366,51.51349214773037,-0.11436054290620458
Crossflatts,CFL,1.0,53.85846717734,-1.84488619236594,51.51349214773037,-0.11436054290620458
Crosshill,COI,1.0,55.833290292641,-4.25681226287329,51.51349214773037,-0.11436054290620458
Crosskeys,CKY,1.0,51.6209052713811,-3.12617046220163,51.51349214773037,-0.11436054290620458
Crossmyloof,CMY,1.0,55.8339508036377,-4.28431839013047,51.51349214773037,-0.11436054290620458
Croston,CSO,1.0,53.6675629248262,-2.7777501372441,51.51349214773037,-0.11436054290620458
Crouch Hill,CRH,2.0,51.5713003694514,-0.117148819750171,51.51349214773037,-0.11436054290620458
Crowborough,COH,0.0,51.0463795309772,0.188012411090755,51.51349214773037,-0.11436054290620458
Crowhurst,CWU,0.0,50.8885767869689,0.501336510177375,51.51349214773037,-0.11436054290620458
Crowle,CWE,1.0,53.5897328427991,-0.81735865187716,51.51349214773037,-0.11436054290620458
Crowthorne,CRN,1.0,51.366727169526,-0.819273411974494,51.51349214773037,-0.11436054290620458
Croy,CRO,1.0,55.9556821274184,-4.0359768431357,51.51349214773037,-0.11436054290620458
Crystal Palace,CYP,0.0,51.4181074460731,-0.072609878955063,51.51349214773037,-0.11436054290620458
Cuddington,CUD,1.0,53.2399218257185,-2.59930662534034,51.51349214773037,-0.11436054290620458
Cuffley,CUF,0.0,51.7087202077633,-0.10978341309134,51.51349214773037,-0.11436054290620458
Culham,CUM,0.0,51.6537935596445,-1.23651383491957,51.51349214773037,-0.11436054290620458
Culrain,CUA,2.0,57.9195183107936,-4.40427167605383,51.51349214773037,-0.11436054290620458
Cumbernauld,CUB,1.0,55.9420305501203,-3.98033519205288,51.51349214773037,-0.11436054290620458
Cupar,CUP,1.0,56.3169904139478,-3.00875666756718,51.51349214773037,-0.11436054290620458
Curriehill,CUH,1.0,55.9005690535793,-3.3187519699346,51.51349214773037,-0.11436054290620458
Cuxton,CUX,1.0,51.3739241251142,0.46170858180193,51.51349214773037,-0.11436054290620458
Cwmbach,CMH,1.0,51.7019311514616,-3.41372372042933,51.51349214773037,-0.11436054290620458
Cwmbran,CWM,1.0,51.656589162343,-3.01620383997003,51.51349214773037,-0.11436054290620458
Cynghordy,CYN,1.0,52.0515022362178,-3.7482113284355,51.51349214773037,-0.11436054290620458
Dagenham Dock,DDK,0.0,51.5260877297843,0.146102888033722,51.51349214773037,-0.11436054290620458
Daisy Hill,DSY,1.0,53.5394553429484,-2.51586138257427,51.51349214773037,-0.11436054290620458
Dalgety Bay,DAG,1.0,56.0420983541516,-3.36772120470528,51.51349214773037,-0.11436054290620458
Dalmally,DAL,2.0,56.4011953995722,-4.98355341151622,51.51349214773037,-0.11436054290620458
Dalmarnock,DAK,1.0,55.8420903351636,-4.2177095618254,51.51349214773037,-0.11436054290620458
Dalmeny,DAM,1.0,55.9863224095627,-3.38162023146767,51.51349214773037,-0.11436054290620458
Dalmuir,DMR,1.0,55.9119346513924,-4.42668195442919,51.51349214773037,-0.11436054290620458
Dalreoch,DLR,1.0,55.9474206110829,-4.57786407515961,51.51349214773037,-0.11436054290620458
Dalry,DLY,1.0,55.7062259599313,-4.71108082709015,51.51349214773037,-0.11436054290620458
Dalston (Cumbria),DLS,1.0,54.8461793005894,-2.98885243258072,51.51349214773037,-0.11436054290620458
Dalston Junction,DLJ,1.0,51.5461140533343,-0.075137571913028,51.51349214773037,-0.11436054290620458
Dalston Kingsland,DLK,1.0,51.548146614991,-0.0757008270787684,51.51349214773037,-0.11436054290620458
Dalton (Cumbria),DLT,1.0,54.1542402484565,-3.17900332996882,51.51349214773037,-0.11436054290620458
Dalwhinnie,DLW,1.0,56.9351747606959,-4.24619941232607,51.51349214773037,-0.11436054290620458
Danby,DNY,2.0,54.4661531404483,-0.910955849347219,51.51349214773037,-0.11436054290620458
Danescourt,DCT,1.0,51.5005094348701,-3.2339173943314,51.51349214773037,-0.11436054290620458
Danzey,DZY,1.0,52.3248139247282,-1.82087736085094,51.51349214773037,-0.11436054290620458
Darlington,DAR,0.0,54.5204487638895,-1.5473239913848,51.51349214773037,-0.11436054290620458
Darnall,DAN,1.0,53.3845848539264,-1.4125672166063,51.51349214773037,-0.11436054290620458
Darsham,DSM,1.0,52.2729949292624,1.52346982245693,51.51349214773037,-0.11436054290620458
Dartford,DFD,0.0,51.4473686091583,0.219247795125754,51.51349214773037,-0.11436054290620458
Darton,DRT,1.0,53.5883685698073,-1.53165757467506,51.51349214773037,-0.11436054290620458
Darwen,DWN,2.0,53.6980382551398,-2.46494001713562,51.51349214773037,-0.11436054290620458
Datchet,DAT,0.0,51.4830761133821,-0.579421910690656,51.51349214773037,-0.11436054290620458
Davenport,DVN,1.0,53.3909022414929,-2.15295802817964,51.51349214773037,-0.11436054290620458
Dawlish,DWL,0.0,50.5808243984253,-3.46462586729764,51.51349214773037,-0.11436054290620458
Dawlish Warren,DWW,1.0,50.5987145190544,-3.44356213176095,51.51349214773037,-0.11436054290620458
Deal,DEA,0.0,51.2230404404227,1.39884675211659,51.51349214773037,-0.11436054290620458
Dean (Wilts),DEN,1.0,51.0424618999667,-1.63486720856804,51.51349214773037,-0.11436054290620458
Deansgate,DGT,1.0,53.4741857640751,-2.25105124318295,51.51349214773037,-0.11436054290620458
Deganwy,DGY,1.0,53.2947519812566,-3.83338710286836,51.51349214773037,-0.11436054290620458
Deighton,DHN,1.0,53.6684837829464,-1.75189659292689,51.51349214773037,-0.11436054290620458
Delamere,DLM,1.0,53.2287779256449,-2.66656070710605,51.51349214773037,-0.11436054290620458
Denby Dale,DBD,1.0,53.5726320929315,-1.66321052492305,51.51349214773037,-0.11436054290620458
Denham,DNM,0.0,51.578836362709,-0.497436854492594,51.51349214773037,-0.11436054290620458
Denham Golf Club,DGC,0.0,51.580596815156,-0.51778668246761,51.51349214773037,-0.11436054290620458
Denmark Hill,DMK,0.0,51.4682011118168,-0.0893608845630425,51.51349214773037,-0.11436054290620458
Dent,DNT,1.0,54.2824108456213,-2.36359889232972,51.51349214773037,-0.11436054290620458
Denton,DTN,1.0,53.4568674739172,-2.13165979003999,51.51349214773037,-0.11436054290620458
Deptford,DEP,0.0,51.4788463642079,-0.026270214115525,51.51349214773037,-0.11436054290620458
Derby,DBY,0.0,52.9165485818253,-1.46335478012848,51.51349214773037,-0.11436054290620458
Derby Road (Ipswich),DBR,1.0,52.050551175491,1.18264326424955,51.51349214773037,-0.11436054290620458
Devonport (Devon),DPT,1.0,50.3785384996853,-4.17071080992923,51.51349214773037,-0.11436054290620458
Devonport Dockyard,DOC,1.0,50.3821742019037,-4.1758986568326,51.51349214773037,-0.11436054290620458
Dewsbury,DEW,1.0,53.6921323675954,-1.63310655566078,51.51349214773037,-0.11436054290620458
Didcot Parkway,DID,0.0,51.6109546860743,-1.24289356096081,51.51349214773037,-0.11436054290620458
Digby & Sowton,DIG,1.0,50.713993328666,-3.47356109719659,51.51349214773037,-0.11436054290620458
Dilton Marsh,DMH,1.0,51.2489890910928,-2.20791557793657,51.51349214773037,-0.11436054290620458
Dinas (Rhondda),DMG,1.0,51.6178378851192,-3.43754173872447,51.51349214773037,-0.11436054290620458
Dinas Powys,DNS,1.0,51.4316678020878,-3.21835212130232,51.51349214773037,-0.11436054290620458
Dingle Road,DGL,1.0,51.4400570944876,-3.18059109298652,51.51349214773037,-0.11436054290620458
Dingwall,DIN,1.0,57.59424066943,-4.42219986587001,51.51349214773037,-0.11436054290620458
Dinsdale,DND,1.0,54.5147295901116,-1.46706513570219,51.51349214773037,-0.11436054290620458
Dinting,DTG,1.0,53.4493321635491,-1.97029878612479,51.51349214773037,-0.11436054290620458
Disley,DSL,1.0,53.3581843467523,-2.04248177088045,51.51349214773037,-0.11436054290620458
Diss,DIS,0.0,52.3736543722193,1.12369734579394,51.51349214773037,-0.11436054290620458
Dodworth,DOD,1.0,53.5443255754093,-1.53169088048623,51.51349214773037,-0.11436054290620458
Dolau,DOL,1.0,52.29535399865,-3.26362091602153,51.51349214773037,-0.11436054290620458
Doleham,DLH,1.0,50.9185854757412,0.609974730800684,51.51349214773037,-0.11436054290620458
Dolgarrog,DLG,1.0,53.1863525124092,-3.82263691779208,51.51349214773037,-0.11436054290620458
Dolwyddelan,DWD,1.0,53.0520169904365,-3.88513298649778,51.51349214773037,-0.11436054290620458
Doncaster,DON,0.0,53.5221497040669,-1.13984532561563,51.51349214773037,-0.11436054290620458
Dorchester South,DCH,0.0,50.7092941817416,-2.43724302167314,51.51349214773037,-0.11436054290620458
Dorchester West,DCW,1.0,50.7109558301461,-2.44254130185048,51.51349214773037,-0.11436054290620458
Dore & Totley,DOR,1.0,53.3276351284421,-1.51529775653157,51.51349214773037,-0.11436054290620458
Dorking (Main),DKG,0.0,51.2409286574082,-0.324250782074152,51.51349214773037,-0.11436054290620458
Dorking Deepdene,DPD,1.0,51.2388030074627,-0.324643185528021,51.51349214773037,-0.11436054290620458
Dorking West,DKT,1.0,51.2362248191187,-0.339978560509645,51.51349214773037,-0.11436054290620458
Dormans,DMS,0.0,51.1557900843982,-0.00430826569700688,51.51349214773037,-0.11436054290620458
Dorridge,DDG,0.0,52.3720695979365,-1.7529004491151,51.51349214773037,-0.11436054290620458
Dove Holes,DVH,1.0,53.3000293384446,-1.88975176117671,51.51349214773037,-0.11436054290620458
Dover Priory,DVP,0.0,51.1256965964877,1.30529347028767,51.51349214773037,-0.11436054290620458
Dovercourt,DVC,0.0,51.9387345600673,1.28061089295205,51.51349214773037,-0.11436054290620458
Dovey Junction,DVY,1.0,52.5643635350253,-3.92390297461625,51.51349214773037,-0.11436054290620458
Downham Market,DOW,0.0,52.6041065863828,0.365681057551921,51.51349214773037,-0.11436054290620458
Drayton Green,DRG,0.0,51.516615460614,-0.33019425245541,51.51349214773037,-0.11436054290620458
Drayton Park,DYP,0.0,51.5527683445258,-0.105509008966857,51.51349214773037,-0.11436054290620458
Drem,DRM,1.0,56.0051254677484,-2.78604825861367,51.51349214773037,-0.11436054290620458
Driffield,DRF,1.0,54.0015272627459,-0.434665009990613,51.51349214773037,-0.11436054290620458
Drigg,DRI,1.0,54.3769633209494,-3.44341362306065,51.51349214773037,-0.11436054290620458
Droitwich Spa,DTW,1.0,52.2682048110456,-2.15836341611519,51.51349214773037,-0.11436054290620458
Dronfield,DRO,1.0,53.301369608262,-1.46877868224617,51.51349214773037,-0.11436054290620458
Drumchapel,DMC,1.0,55.9048173082117,-4.36287986166729,51.51349214773037,-0.11436054290620458
Drumfrochar,DFR,1.0,55.941253590074,-4.7747672712099,51.51349214773037,-0.11436054290620458
Drumgelloch,DRU,1.0,55.8673580650901,-3.94888294626481,51.51349214773037,-0.11436054290620458
Drumry,DMY,1.0,55.9045972303031,-4.38547328830428,51.51349214773037,-0.11436054290620458
Dublin Ferryport,DFP,1.0,nan,nan,51.51349214773037,-0.11436054290620458
Dublin Port - Stena,DPS,1.0,nan,nan,51.51349214773037,-0.11436054290620458
Duddeston,DUD,1.0,52.4883642047734,-1.87139067866748,51.51349214773037,-0.11436054290620458
Dudley Port,DDP,1.0,52.5246530129006,-2.04947980373852,51.51349214773037,-0.11436054290620458
Duffield,DFI,1.0,52.9884014400862,-1.48597186949023,51.51349214773037,-0.11436054290620458
Duirinish,DRN,2.0,57.319983293958,-5.69131781581449,51.51349214773037,-0.11436054290620458
Duke Street,DST,2.0,55.8584414373244,-4.2130485563449,51.51349214773037,-0.11436054290620458
Dullingham,DUL,1.0,52.2016485756332,0.366663821056869,51.51349214773037,-0.11436054290620458
Dumbarton Central,DBC,1.0,55.9466604798905,-4.566921701259,51.51349214773037,-0.11436054290620458
Dumbarton East,DBE,1.0,55.9422524714118,-4.55413782204535,51.51349214773037,-0.11436054290620458
Dumbreck,DUM,1.0,55.8446540909046,-4.30124003607443,51.51349214773037,-0.11436054290620458
Dumfries,DMF,1.0,55.072560279693,-3.60430398071058,51.51349214773037,-0.11436054290620458
Dumpton Park,DMP,0.0,51.3456955683759,1.42581850787212,51.51349214773037,-0.11436054290620458
Dunbar,DUN,0.0,55.9982961094783,-2.51334649990357,51.51349214773037,-0.11436054290620458
Dunblane,DBL,0.0,56.1858943626205,-3.96548684337943,51.51349214773037,-0.11436054290620458
Duncraig,DCG,2.0,57.3370088020812,-5.63713233286221,51.51349214773037,-0.11436054290620458
Dundee,DEE,0.0,56.4564890772048,-2.97120503713119,51.51349214773037,-0.11436054290620458
Dunfermline Queen Margaret,DFL,1.0,56.0805782860466,-3.42146840922136,51.51349214773037,-0.11436054290620458
Dunfermline Town,DFE,1.0,56.068193893139,-3.45252931740364,51.51349214773037,-0.11436054290620458
Dunkeld & Birnam,DKD,1.0,56.5570605801315,-3.57839962708896,51.51349214773037,-0.11436054290620458
Dunlop,DNL,1.0,55.7118854515322,-4.53238991249355,51.51349214773037,-0.11436054290620458
Dunrobin Castle,DNO,-999.0,57.9855381206844,-3.94892170714185,51.51349214773037,-0.11436054290620458
Dunston,DOT,1.0,54.9500563207881,-1.64204458851339,51.51349214773037,-0.11436054290620458
Dunton Green,DNG,0.0,51.2964882631909,0.170937116397448,51.51349214773037,-0.11436054290620458
Durham,DHM,0.0,54.7793912284615,-1.58175210120156,51.51349214773037,-0.11436054290620458
Durrington-on-Sea,DUR,0.0,50.8175268119417,-0.411468707281776,51.51349214773037,-0.11436054290620458
Dyce,DYC,1.0,57.2056516865783,-2.19232258891137,51.51349214773037,-0.11436054290620458
Dyffryn Ardudwy,DYF,1.0,52.7888563835265,-4.10464455585967,51.51349214773037,-0.11436054290620458
Eaglescliffe,EAG,0.0,54.5294320938467,-1.34943715428009,51.51349214773037,-0.11436054290620458
Ealing Broadway,EAL,0.0,51.5148402459065,-0.301751768794788,51.51349214773037,-0.11436054290620458
Earlestown,ERL,1.0,53.4511393445328,-2.63766364961555,51.51349214773037,-0.11436054290620458
Earley,EAR,0.0,51.4410997593376,-0.917988243278776,51.51349214773037,-0.11436054290620458
Earlsfield,EAD,0.0,51.4423355716453,-0.187714934858848,51.51349214773037,-0.11436054290620458
Earlswood (Surrey),ELD,0.0,51.2273270225923,-0.170823068766138,51.51349214773037,-0.11436054290620458
Earlswood (West Midlands),EWD,1.0,52.3665825052423,-1.8611697000963,51.51349214773037,-0.11436054290620458
East Croydon,ECR,0.0,51.375452247008,-0.0927797007945513,51.51349214773037,-0.11436054290620458
East Didsbury,EDY,1.0,53.4093102676041,-2.22199660364924,51.51349214773037,-0.11436054290620458
East Dulwich,EDW,0.0,51.4614929058056,-0.0805717011574361,51.51349214773037,-0.11436054290620458
East Farleigh,EFL,1.0,51.2552351625774,0.48472893141574,51.51349214773037,-0.11436054290620458
East Garforth,EGF,1.0,53.791978068865,-1.37053696173991,51.51349214773037,-0.11436054290620458
East Grinstead,EGR,0.0,51.1262718897162,-0.0179000957224751,51.51349214773037,-0.11436054290620458
East Kilbride,EKL,1.0,55.7660084213155,-4.18022795719083,51.51349214773037,-0.11436054290620458
East Malling,EML,0.0,51.2858073765709,0.439280267235468,51.51349214773037,-0.11436054290620458
East Midlands Parkway,EMD,0.0,52.8625009507858,-1.26323198480542,51.51349214773037,-0.11436054290620458
East Tilbury,ETL,0.0,51.4848289691417,0.412927781783206,51.51349214773037,-0.11436054290620458
East Worthing,EWR,0.0,50.8216440311297,-0.354893751833792,51.51349214773037,-0.11436054290620458
Eastbourne,EBN,0.0,50.769375796356,0.281246925814933,51.51349214773037,-0.11436054290620458
Eastbrook,EBK,1.0,51.4376389302109,-3.20613799233607,51.51349214773037,-0.11436054290620458
Easterhouse,EST,1.0,55.8597611434519,-4.10717729312099,51.51349214773037,-0.11436054290620458
Eastham Rake,ERA,1.0,53.307541541813,-2.98113292052366,51.51349214773037,-0.11436054290620458
Eastleigh,ESL,0.0,50.9692506626551,-1.35008459359062,51.51349214773037,-0.11436054290620458
Eastrington,EGN,1.0,53.7551607566439,-0.787630411364113,51.51349214773037,-0.11436054290620458
Ebbsfleet International,EBD,0.0,51.4429709652907,0.32092083234529,51.51349214773037,-0.11436054290620458
Ebbw Vale Parkway,EBV,1.0,51.7571470124788,-3.19610327359543,51.51349214773037,-0.11436054290620458
Ebbw Vale Town,EBB,1.0,51.7766914366017,-3.20257748551815,51.51349214773037,-0.11436054290620458
Eccles (Manchester),ECC,1.0,53.4853606544673,-2.33451459617625,51.51349214773037,-0.11436054290620458
Eccles Road,ECS,1.0,52.470880756208,0.9699171605498,51.51349214773037,-0.11436054290620458
Eccleston Park,ECL,1.0,53.4307889509427,-2.78004194630839,51.51349214773037,-0.11436054290620458
Edale,EDL,1.0,53.3649724276593,-1.81662641323107,51.51349214773037,-0.11436054290620458
Eden Park,EDN,0.0,51.3900893651293,-0.0263551602667185,51.51349214773037,-0.11436054290620458
Edenbridge,EBR,1.0,51.2084338014699,0.0606462610283875,51.51349214773037,-0.11436054290620458
Edenbridge Town,EBT,0.0,51.2000809020151,0.0671730164326339,51.51349214773037,-0.11436054290620458
Edge Hill,EDG,1.0,53.4026192646978,-2.94648344109004,51.51349214773037,-0.11436054290620458
Edinburgh,EDB,0.0,55.9523963079519,-3.18822824323027,51.51349214773037,-0.11436054290620458
Edinburgh Gateway,EGY,1.0,55.9409436079933,-3.32025199802754,51.51349214773037,-0.11436054290620458
Edinburgh Park,EDP,1.0,55.9275544602882,-3.30766474611863,51.51349214773037,-0.11436054290620458
Edmonton Green,EDR,0.0,51.6249271577681,-0.061112495341183,51.51349214773037,-0.11436054290620458
Effingham Junction,EFF,0.0,51.2914943131304,-0.419965418267021,51.51349214773037,-0.11436054290620458
Eggesford,EGG,1.0,50.8877413451847,-3.8747459315936,51.51349214773037,-0.11436054290620458
Egham,EGH,0.0,51.4296459643391,-0.546512233572854,51.51349214773037,-0.11436054290620458
Egton,EGT,1.0,54.4374810712663,-0.761464966771902,51.51349214773037,-0.11436054290620458
Elephant & Castle,EPH,0.0,51.4940272342536,-0.098725576447673,51.51349214773037,-0.11436054290620458
Elephant & Castle (Underground),ZEL,-999.0,nan,nan,51.51349214773037,-0.11436054290620458
Elgin,ELG,1.0,57.6429130327793,-3.3112465068439,51.51349214773037,-0.11436054290620458
Ellesmere Port,ELP,1.0,53.2821939982944,-2.89642303912049,51.51349214773037,-0.11436054290620458
Elmers End,ELE,0.0,51.3984907228231,-0.0495703490218307,51.51349214773037,-0.11436054290620458
Elmstead Woods,ESD,0.0,51.4171158227735,0.0442740591944571,51.51349214773037,-0.11436054290620458
Elmswell,ESW,1.0,52.2380370806758,0.912589403049404,51.51349214773037,-0.11436054290620458
Elsecar,ELR,1.0,53.4986597288227,-1.42742391502071,51.51349214773037,-0.11436054290620458
Elsenham (Essex),ESM,0.0,51.9205434621908,0.228070270071964,51.51349214773037,-0.11436054290620458
Elstree & Borehamwood,ELS,0.0,51.653068116385,-0.280081540392811,51.51349214773037,-0.11436054290620458
Eltham,ELW,0.0,51.4556417308034,0.0524723310748576,51.51349214773037,-0.11436054290620458
Elton & Orston,ELO,1.0,52.9521360042829,-0.855512437952713,51.51349214773037,-0.11436054290620458
Ely,ELY,0.0,52.3912277010784,0.266827583237292,51.51349214773037,-0.11436054290620458
Emerson Park,EMP,1.0,51.5686403621106,0.220113229215512,51.51349214773037,-0.11436054290620458
Emsworth,EMS,0.0,50.8516141341351,-0.938429764103964,51.51349214773037,-0.11436054290620458
Energlyn & Churchill Park,ECP,1.0,51.5832164323409,-3.22879606589368,51.51349214773037,-0.11436054290620458
Enfield Chase,ENC,0.0,51.6532525338014,-0.0906963712828411,51.51349214773037,-0.11436054290620458
Enfield Lock,ENL,0.0,51.6709204354558,-0.0285324658222715,51.51349214773037,-0.11436054290620458
Enfield Town,ENF,0.0,51.6520239893496,-0.0793276428368423,51.51349214773037,-0.11436054290620458
Entwistle,ENT,2.0,53.6559786935683,-2.41454505509583,51.51349214773037,-0.11436054290620458
Epsom (Surrey),EPS,0.0,51.3343914612577,-0.268777680483958,51.51349214773037,-0.11436054290620458
Epsom Downs,EPD,0.0,51.3236861855796,-0.2389548499911,51.51349214773037,-0.11436054290620458
Erdington,ERD,1.0,52.5282854859969,-1.83950909009634,51.51349214773037,-0.11436054290620458
Eridge,ERI,0.0,51.0889635853662,0.201431713057724,51.51349214773037,-0.11436054290620458
Erith,ERH,0.0,51.481668933412,0.175054448859463,51.51349214773037,-0.11436054290620458
Esher,ESH,0.0,51.3798899750361,-0.353337838372063,51.51349214773037,-0.11436054290620458
Eskbank,EKB,1.0,55.8818057426337,-3.08307353739981,51.51349214773037,-0.11436054290620458
Essex Road,EXR,0.0,51.5407037990573,-0.0962760595924929,51.51349214773037,-0.11436054290620458
Etchingham,ETC,0.0,51.0105437070136,0.442356266553348,51.51349214773037,-0.11436054290620458
Euxton Balshaw Lane,EBA,1.0,53.6604819715387,-2.67202385840804,51.51349214773037,-0.11436054290620458
Evesham,EVE,0.0,52.0983985539654,-1.94731370609441,51.51349214773037,-0.11436054290620458
Ewell East,EWE,0.0,51.3452982319215,-0.241529638967969,51.51349214773037,-0.11436054290620458
Ewell West,EWW,0.0,51.3500435722978,-0.256986619886036,51.51349214773037,-0.11436054290620458
Exeter Central,EXC,0.0,50.726488241429,-3.53327709081269,51.51349214773037,-0.11436054290620458
Exeter St David's,EXD,0.0,50.729278976491,-3.54328686333265,51.51349214773037,-0.11436054290620458
Exeter St Thomas,EXT,0.0,50.7171518711947,-3.53883698274128,51.51349214773037,-0.11436054290620458
Exhibition Centre (Glasgow),EXG,1.0,55.8615560763509,-4.28358973053668,51.51349214773037,-0.11436054290620458
Exmouth,EXM,1.0,50.6216387262065,-3.41497227480739,51.51349214773037,-0.11436054290620458
Exton,EXN,1.0,50.6683075102992,-3.44409684947275,51.51349214773037,-0.11436054290620458
Eynsford,EYN,0.0,51.3627183040984,0.204393120925889,51.51349214773037,-0.11436054290620458
Fairbourne,FRB,1.0,52.6960464630273,-4.04941426648684,51.51349214773037,-0.11436054290620458
Fairfield,FRF,1.0,53.471295546374,-2.14577519882972,51.51349214773037,-0.11436054290620458
Fairlie,FRL,1.0,55.7519484298977,-4.85326868616408,51.51349214773037,-0.11436054290620458
Fairwater,FRW,1.0,51.4939101690858,-3.23383998994953,51.51349214773037,-0.11436054290620458
Falconwood,FCN,0.0,51.4591526356848,0.0793044770026859,51.51349214773037,-0.11436054290620458
Falkirk Grahamston,FKG,0.0,56.0026177290346,-3.78504688532692,51.51349214773037,-0.11436054290620458
Falkirk High,FKK,1.0,55.9918195759738,-3.79224489222847,51.51349214773037,-0.11436054290620458
Falls of Cruachan,FOC,-999.0,56.393889401057,-5.11247911920548,51.51349214773037,-0.11436054290620458
Falmer,FMR,1.0,50.8621274713423,-0.0873855066246158,51.51349214773037,-0.11436054290620458
Falmouth Docks,FAL,1.0,50.1507142799667,-5.05602948101336,51.51349214773037,-0.11436054290620458
Falmouth Town,FMT,1.0,50.1483473407862,-5.06493628645553,51.51349214773037,-0.11436054290620458
Fareham,FRM,0.0,50.8530338308312,-1.19203724188042,51.51349214773037,-0.11436054290620458
Farnborough (Main),FNB,0.0,51.296604884603,-0.755725724931643,51.51349214773037,-0.11436054290620458
Farnborough North,FNN,1.0,51.3020444491095,-0.743026929007782,51.51349214773037,-0.11436054290620458
Farncombe,FNC,0.0,51.1971531239671,-0.604548878459314,51.51349214773037,-0.11436054290620458
Farnham,FNH,0.0,51.2119042298562,-0.792427196436538,51.51349214773037,-0.11436054290620458
Farningham Road,FNR,0.0,51.4016634815392,0.235452055986937,51.51349214773037,-0.11436054290620458
Farnworth,FNW,1.0,53.5500060922431,-2.38784997242115,51.51349214773037,-0.11436054290620458
Farringdon,ZFD,0.0,51.5201655608346,-0.105204669877814,51.51349214773037,-0.11436054290620458
Fauldhouse,FLD,1.0,55.8224777300448,-3.71931936502271,51.51349214773037,-0.11436054290620458
Faversham,FAV,0.0,51.3117105445912,0.891044848807162,51.51349214773037,-0.11436054290620458
Faygate,FGT,0.0,51.095889351236,-0.263018670595782,51.51349214773037,-0.11436054290620458
Fazakerley,FAZ,2.0,53.4690878780859,-2.93672370069026,51.51349214773037,-0.11436054290620458
Fearn,FRN,1.0,57.7781470089061,-3.99393654949616,51.51349214773037,-0.11436054290620458
Featherstone,FEA,1.0,53.6790669195959,-1.35844424440448,51.51349214773037,-0.11436054290620458
Felixstowe,FLX,1.0,51.9670684291527,1.35043499148186,51.51349214773037,-0.11436054290620458
Feltham,FEL,0.0,51.4478973442697,-0.409838240699482,51.51349214773037,-0.11436054290620458
Feniton,FNT,0.0,50.7866805768598,-3.28541829669429,51.51349214773037,-0.11436054290620458
Fenny Stratford,FEN,1.0,52.0000683454646,-0.715997362186537,51.51349214773037,-0.11436054290620458
Fernhill,FER,1.0,51.6864988102667,-3.39588328122109,51.51349214773037,-0.11436054290620458
Ferriby,FRY,1.0,53.7171537976793,-0.507830473428837,51.51349214773037,-0.11436054290620458
Ferryside,FYS,0.0,51.7683725332786,-4.36945917743674,51.51349214773037,-0.11436054290620458
Ffairfach,FFA,1.0,51.8724792728464,-3.9928602757854,51.51349214773037,-0.11436054290620458
Filey,FIL,1.0,54.2098572113142,-0.293849397915568,51.51349214773037,-0.11436054290620458
Filton Abbey Wood,FIT,1.0,51.5049414768014,-2.56243092363725,51.51349214773037,-0.11436054290620458
Finchley Road & Frognal,FNY,1.0,51.5502644624917,-0.183140600658463,51.51349214773037,-0.11436054290620458
Finsbury Park,FPK,0.0,51.5643002449157,-0.106284978884699,51.51349214773037,-0.11436054290620458
Finstock,FIN,1.0,51.852782857678,-1.4693431033147,51.51349214773037,-0.11436054290620458
Fishbourne (Sussex),FSB,0.0,50.839050994238,-0.815084252072113,51.51349214773037,-0.11436054290620458
Fishersgate,FSG,1.0,50.8342331969519,-0.219423238635621,51.51349214773037,-0.11436054290620458
Fishguard & Goodwick,FGW,1.0,52.0041205147366,-4.99483911549407,51.51349214773037,-0.11436054290620458
Fishguard Harbour,FGH,1.0,52.0115490590944,-4.98564336378428,51.51349214773037,-0.11436054290620458
Fiskerton,FSK,1.0,53.060273739149,-0.912187610219373,51.51349214773037,-0.11436054290620458
Fitzwilliam,FZW,1.0,53.6325012276325,-1.37427316573517,51.51349214773037,-0.11436054290620458
Five Ways,FWY,1.0,52.471096381369,-1.91295451976274,51.51349214773037,-0.11436054290620458
Fleet,FLE,0.0,51.290634463196,-0.830805697283605,51.51349214773037,-0.11436054290620458
Flimby,FLM,1.0,54.6896909968798,-3.5207407041013,51.51349214773037,-0.11436054290620458
Flint,FLN,0.0,53.249527518706,-3.13299365746619,51.51349214773037,-0.11436054290620458
Flitwick,FLT,0.0,52.0036411879386,-0.495257873996204,51.51349214773037,-0.11436054290620458
Flixton,FLI,2.0,53.443809978016,-2.38424675876937,51.51349214773037,-0.11436054290620458
Flowery Field,FLF,1.0,53.4618562073799,-2.08105317397333,51.51349214773037,-0.11436054290620458
Folkestone Central,FKC,0.0,51.0828838914415,1.16948226479176,51.51349214773037,-0.11436054290620458
Folkestone West,FKW,0.0,51.084582896074,1.15390330754187,51.51349214773037,-0.11436054290620458
Ford,FOD,0.0,50.8293930308604,-0.578410029818067,51.51349214773037,-0.11436054290620458
Forest Gate,FOG,0.0,51.5494301979489,0.0243528171904902,51.51349214773037,-0.11436054290620458
Forest Hill,FOH,0.0,51.4392784872536,-0.0531571058976325,51.51349214773037,-0.11436054290620458
Formby,FBY,2.0,53.5534804308434,-3.07090821445518,51.51349214773037,-0.11436054290620458
Forres,FOR,1.0,57.6098000095499,-3.62595038813861,51.51349214773037,-0.11436054290620458
Forsinard,FRS,2.0,58.3569037821129,-3.89688108603807,51.51349214773037,-0.11436054290620458
Fort Matilda,FTM,1.0,55.9590370104671,-4.79526871008857,51.51349214773037,-0.11436054290620458
Fort William,FTW,2.0,56.8204504611118,-5.10614472047831,51.51349214773037,-0.11436054290620458
Four Oaks,FOK,1.0,52.5797812436274,-1.82803190041241,51.51349214773037,-0.11436054290620458
Foxfield,FOX,1.0,54.2586714739313,-3.216062079698,51.51349214773037,-0.11436054290620458
Foxton,FXN,0.0,52.1192118267723,0.0563080918097999,51.51349214773037,-0.11436054290620458
Frant,FRT,0.0,51.1040264976395,0.294543047861973,51.51349214773037,-0.11436054290620458
Fratton,FTN,0.0,50.7963389126627,-1.07398277385311,51.51349214773037,-0.11436054290620458
Freshfield,FRE,2.0,53.5660564604323,-3.07182995042112,51.51349214773037,-0.11436054290620458
Freshford,FFD,1.0,51.3420317090826,-2.30100872969826,51.51349214773037,-0.11436054290620458
Frimley,FML,0.0,51.3118614892824,-0.746991364293745,51.51349214773037,-0.11436054290620458
Frinton-on-Sea,FRI,0.0,51.8376787265319,1.24317054105804,51.51349214773037,-0.11436054290620458
Frizinghall,FZH,1.0,53.820371215731,-1.76900125757173,51.51349214773037,-0.11436054290620458
Frodsham,FRD,1.0,53.2958177869804,-2.72356723663145,51.51349214773037,-0.11436054290620458
Frome,FRO,0.0,51.2272725800456,-2.30999705913937,51.51349214773037,-0.11436054290620458
Fulwell,FLW,0.0,51.4339339825483,-0.349467607470903,51.51349214773037,-0.11436054290620458
Furness Vale,FNV,1.0,53.3487533587757,-1.98884482439185,51.51349214773037,-0.11436054290620458
Furze Platt,FZP,1.0,51.5330197603371,-0.728472828364334,51.51349214773037,-0.11436054290620458
Gainsborough Central,GNB,2.0,53.3995839522027,-0.769694112366499,51.51349214773037,-0.11436054290620458
Gainsborough Lea Road,GBL,1.0,53.3860887154294,-0.768579598023266,51.51349214773037,-0.11436054290620458
Galashiels,GAL,1.0,55.6183541299903,-2.80690093870811,51.51349214773037,-0.11436054290620458
Garelochhead,GCH,2.0,56.0798700489652,-4.82571771685403,51.51349214773037,-0.11436054290620458
Garforth,GRF,1.0,53.796578277864,-1.38230970941118,51.51349214773037,-0.11436054290620458
Gargrave,GGV,1.0,53.9784181355008,-2.10517064216562,51.51349214773037,-0.11436054290620458
Garrowhill,GAR,1.0,55.855243344443,-4.12946139753487,51.51349214773037,-0.11436054290620458
Garscadden,GRS,1.0,55.887699912531,-4.36500554078304,51.51349214773037,-0.11436054290620458
Garsdale,GSD,1.0,54.3214321652742,-2.32635383688291,51.51349214773037,-0.11436054290620458
Garston (Hertfordshire),GSN,1.0,51.6866146882955,-0.381741213587884,51.51349214773037,-0.11436054290620458
Garswood,GSW,1.0,53.4885228462082,-2.67213496487047,51.51349214773037,-0.11436054290620458
Gartcosh,GRH,1.0,55.8856655213683,-4.0794950329411,51.51349214773037,-0.11436054290620458
Garth (Mid Glamorgan),GMG,1.0,51.5964598445663,-3.64145068487318,51.51349214773037,-0.11436054290620458
Garth (Powys),GTH,1.0,52.1332403844721,-3.52990778325094,51.51349214773037,-0.11436054290620458
Garve,GVE,2.0,57.6130466094469,-4.6883963248569,51.51349214773037,-0.11436054290620458
Gathurst,GST,2.0,53.5594052283238,-2.69439359809359,51.51349214773037,-0.11436054290620458
Gatley,GTY,1.0,53.3929065592229,-2.23123425803736,51.51349214773037,-0.11436054290620458
Gatwick Airport,GTW,0.0,51.1564892793918,-0.161041534688098,51.51349214773037,-0.11436054290620458
Georgemas Junction,GGJ,2.0,58.5136271736984,-3.45212085822396,51.51349214773037,-0.11436054290620458
Gerrards Cross,GER,0.0,51.5890222051815,-0.555275422196685,51.51349214773037,-0.11436054290620458
Gidea Park,GDP,0.0,51.5819019565528,0.205964300058707,51.51349214773037,-0.11436054290620458
Giffnock,GFN,1.0,55.8039950697486,-4.29301520024745,51.51349214773037,-0.11436054290620458
Giggleswick,GIG,1.0,54.0618024962135,-2.30284801630944,51.51349214773037,-0.11436054290620458
Gilberdyke,GBD,1.0,53.7479630906218,-0.73224344785332,51.51349214773037,-0.11436054290620458
Gilfach Fargoed,GFF,1.0,51.6842528100711,-3.22656863026563,51.51349214773037,-0.11436054290620458
Gillingham (Dorset),GIL,0.0,51.0340364196905,-2.27262400569309,51.51349214773037,-0.11436054290620458
Gillingham (Kent),GLM,0.0,51.3865628367939,0.549849975746005,51.51349214773037,-0.11436054290620458
Gilshochill,GSC,2.0,55.897343092772,-4.28268544801919,51.51349214773037,-0.11436054290620458
Gipsy Hill,GIP,0.0,51.4244515495985,-0.0838359193392377,51.51349214773037,-0.11436054290620458
Girvan,GIR,1.0,55.246318566381,-4.84838258218449,51.51349214773037,-0.11436054290620458
Glaisdale,GLS,1.0,54.4393809349983,-0.793787833434208,51.51349214773037,-0.11436054290620458
Glan Conwy,GCW,1.0,53.2674259523784,-3.79772818382623,51.51349214773037,-0.11436054290620458
Glasgow Central,GLC,0.0,55.8597611220755,-4.25764427147523,51.51349214773037,-0.11436054290620458
Glasgow Queen Street,GLQ,1.0,55.8621932785207,-4.25145684628951,51.51349214773037,-0.11436054290620458
Glasshoughton,GLH,1.0,53.709043569431,-1.34200520311902,51.51349214773037,-0.11436054290620458
Glazebrook,GLZ,2.0,53.4283618664117,-2.45965774285801,51.51349214773037,-0.11436054290620458
Gleneagles,GLE,0.0,56.2748538679223,-3.73116869415328,51.51349214773037,-0.11436054290620458
Glenfinnan,GLF,2.0,56.872409157321,-5.44962144461022,51.51349214773037,-0.11436054290620458
Glengarnock,GLG,1.0,55.7388933086603,-4.67450285410692,51.51349214773037,-0.11436054290620458
Glenrothes with Thornton,GLT,1.0,56.1623603600939,-3.1430158601085,51.51349214773037,-0.11436054290620458
Glossop,GLO,1.0,53.4444712318736,-1.94907395313458,51.51349214773037,-0.11436054290620458
Gloucester,GCR,0.0,51.8655605144798,-2.23848790484313,51.51349214773037,-0.11436054290620458
Glynde,GLY,0.0,50.8591702144894,0.0700772878696409,51.51349214773037,-0.11436054290620458
Gobowen,GOB,1.0,52.8935180650251,-3.03717308499659,51.51349214773037,-0.11436054290620458
Godalming,GOD,0.0,51.186585921505,-0.618862331615451,51.51349214773037,-0.11436054290620458
Godley,GDL,1.0,53.4517051977502,-2.05477260308077,51.51349214773037,-0.11436054290620458
Godstone,GDN,1.0,51.2181558172133,-0.0500850012889198,51.51349214773037,-0.11436054290620458
Goldthorpe,GOE,1.0,53.5341898861407,-1.31280778570287,51.51349214773037,-0.11436054290620458
Golf Street,GOF,1.0,56.4977965346615,-2.71954392312506,51.51349214773037,-0.11436054290620458
Golspie,GOL,2.0,57.9714691985912,-3.98721576849113,51.51349214773037,-0.11436054290620458
Gomshall,GOM,1.0,51.2193975424127,-0.441852194682862,51.51349214773037,-0.11436054290620458
Goodmayes,GMY,0.0,51.5655770865087,0.110807067219603,51.51349214773037,-0.11436054290620458
Goole,GOO,1.0,53.7049141368498,-0.874213506853866,51.51349214773037,-0.11436054290620458
Goostrey,GTR,1.0,53.2225542420521,-2.32647062196789,51.51349214773037,-0.11436054290620458
Gordon Hill,GDH,0.0,51.6633336093912,-0.0946105124636726,51.51349214773037,-0.11436054290620458
Gorebridge,GBG,1.0,55.8402767826394,-3.04651587768389,51.51349214773037,-0.11436054290620458
Goring & Streatley,GOR,0.0,51.5214929030435,-1.13304945602141,51.51349214773037,-0.11436054290620458
Goring-by-Sea,GBS,0.0,50.8177202058478,-0.433083115794079,51.51349214773037,-0.11436054290620458
Gorton,GTO,1.0,53.4690756762697,-2.16620966709274,51.51349214773037,-0.11436054290620458
Gospel Oak,GPO,1.0,51.5553339798316,-0.150770187040439,51.51349214773037,-0.11436054290620458
Gourock,GRK,1.0,55.9623249558487,-4.81665893944356,51.51349214773037,-0.11436054290620458
Gowerton,GWN,1.0,51.6487303539145,-4.03593543599281,51.51349214773037,-0.11436054290620458
Goxhill,GOX,2.0,53.6767016367335,-0.337120493015181,51.51349214773037,-0.11436054290620458
Grange Park,GPK,0.0,51.6426058069193,-0.097358506166751,51.51349214773037,-0.11436054290620458
Grange-Over-Sands,GOS,1.0,54.1957250961186,-2.90274777085942,51.51349214773037,-0.11436054290620458
Grangetown (Cardiff),GTN,1.0,51.4676150468125,-3.18972442860954,51.51349214773037,-0.11436054290620458
Grantham,GRA,0.0,52.9064717738698,-0.642450315227216,51.51349214773037,-0.11436054290620458
Grateley,GRT,0.0,51.1700600828741,-1.62077382846579,51.51349214773037,-0.11436054290620458
Gravelly Hill,GVH,1.0,52.5149974472898,-1.85259861926897,51.51349214773037,-0.11436054290620458
Gravesend,GRV,0.0,51.441346011536,0.366642983401035,51.51349214773037,-0.11436054290620458
Grays,GRY,0.0,51.4762456345275,0.321832149858223,51.51349214773037,-0.11436054290620458
Great Ayton,GTA,2.0,54.4895711302537,-1.11534529939959,51.51349214773037,-0.11436054290620458
Great Bentley,GRB,0.0,51.8517564056418,1.06515337310583,51.51349214773037,-0.11436054290620458
Great Chesterford,GRC,0.0,52.0598088541971,0.193521006507941,51.51349214773037,-0.11436054290620458
Great Coates,GCT,2.0,53.5757525817776,-0.130230465339355,51.51349214773037,-0.11436054290620458
Great Malvern,GMV,0.0,52.1092007461802,-2.31827112619549,51.51349214773037,-0.11436054290620458
Great Missenden,GMN,0.0,51.7035179982242,-0.709141096280644,51.51349214773037,-0.11436054290620458
Great Yarmouth,GYM,1.0,52.6121553184077,1.72088599357988,51.51349214773037,-0.11436054290620458
Green Lane,GNL,1.0,53.3832574656958,-3.01641526158589,51.51349214773037,-0.11436054290620458
Green Road,GNR,1.0,54.244528737063,-3.24557141101891,51.51349214773037,-0.11436054290620458
Greenbank,GBK,1.0,53.2514672060584,-2.53427100429322,51.51349214773037,-0.11436054290620458
Greenfaulds,GRL,1.0,55.9352373330107,-3.99310087977674,51.51349214773037,-0.11436054290620458
Greenfield,GNF,1.0,53.5388596318608,-2.01384369909123,51.51349214773037,-0.11436054290620458
Greenford,GFD,0.0,51.5423301826924,-0.345837203687885,51.51349214773037,-0.11436054290620458
Greenhithe,GNH,0.0,51.4503695823852,0.280290118678753,51.51349214773037,-0.11436054290620458
Greenock Central,GKC,1.0,55.9453458030869,-4.75263519677792,51.51349214773037,-0.11436054290620458
Greenock West,GKW,1.0,55.9473421500839,-4.76783441808454,51.51349214773037,-0.11436054290620458
Greenwich,GNW,0.0,51.478133366978,-0.013339927226544,51.51349214773037,-0.11436054290620458
Gretna Green,GEA,1.0,55.0010499904167,-3.06519852950793,51.51349214773037,-0.11436054290620458
Grimsby Docks,GMD,2.0,53.5743199678321,-0.0756172875545137,51.51349214773037,-0.11436054290620458
Grimsby Town,GMB,1.0,53.5634269192435,-0.0869839520639892,51.51349214773037,-0.11436054290620458
Grindleford,GRN,1.0,53.3055624866971,-1.62629684321943,51.51349214773037,-0.11436054290620458
Grosmont,GMT,1.0,54.4361127385958,-0.724965652276441,51.51349214773037,-0.11436054290620458
Grove Park,GRP,0.0,51.4308613774598,0.0217254815980876,51.51349214773037,-0.11436054290620458
Guide Bridge,GUI,1.0,53.4746291381174,-2.11371083446596,51.51349214773037,-0.11436054290620458
Guildford,GLD,0.0,51.2369694290095,-0.580425041311442,51.51349214773037,-0.11436054290620458
Guiseley,GSY,1.0,53.8759354199738,-1.71508009314658,51.51349214773037,-0.11436054290620458
Gunnersbury,GUN,1.0,51.491676370171,-0.275286434982196,51.51349214773037,-0.11436054290620458
Gunnislake,GSL,1.0,50.5160873764122,-4.21940651718442,51.51349214773037,-0.11436054290620458
Gunton,GNT,1.0,52.8663427403447,1.34911622990825,51.51349214773037,-0.11436054290620458
Gwersyllt,GWE,2.0,53.0725775216154,-3.01788857383521,51.51349214773037,-0.11436054290620458
Gypsy Lane,GYP,2.0,54.5328916495178,-1.17939215630242,51.51349214773037,-0.11436054290620458
Habrough,HAB,1.0,53.6060750257549,-0.269461323075939,51.51349214773037,-0.11436054290620458
Hackbridge,HCB,0.0,51.3778703391452,-0.153907557296679,51.51349214773037,-0.11436054290620458
Hackney Central,HKC,1.0,51.5471033371116,-0.05605761519121,51.51349214773037,-0.11436054290620458
Hackney Downs,HAC,0.0,51.5487558416146,-0.0608190190969979,51.51349214773037,-0.11436054290620458
Hackney Wick,HKW,1.0,51.5434088064448,-0.0249198567732405,51.51349214773037,-0.11436054290620458
Haddenham & Thame Parkway,HDM,0.0,51.7708550752323,-0.942137163541627,51.51349214773037,-0.11436054290620458
Haddiscoe,HAD,1.0,52.5287829223008,1.62300695115001,51.51349214773037,-0.11436054290620458
Hadfield,HDF,1.0,53.4607461868179,-1.96532069137142,51.51349214773037,-0.11436054290620458
Hadley Wood,HDW,0.0,51.6684954399645,-0.176172558385927,51.51349214773037,-0.11436054290620458
Hag Fold,HGF,2.0,53.5338545721892,-2.49482190837221,51.51349214773037,-0.11436054290620458
Haggerston,HGG,1.0,51.5387038848962,-0.0756665511018363,51.51349214773037,-0.11436054290620458
Hagley,HAG,0.0,52.4224915714766,-2.14641735922659,51.51349214773037,-0.11436054290620458
Hairmyres,HMY,1.0,55.7619706251142,-4.22001179037031,51.51349214773037,-0.11436054290620458
Hale (Manchester),HAL,1.0,53.37871974134,-2.34735707887452,51.51349214773037,-0.11436054290620458
Halesworth,HAS,1.0,52.3468123386401,1.50566724409269,51.51349214773037,-0.11436054290620458
Halewood,HED,1.0,53.3644822484192,-2.83013437129598,51.51349214773037,-0.11436054290620458
Halifax,HFX,0.0,53.7209620544181,-1.85357493347212,51.51349214773037,-0.11436054290620458
Hall Green,HLG,1.0,52.4369106872099,-1.84565106858289,51.51349214773037,-0.11436054290620458
Hall Road,HLR,2.0,53.4974890539194,-3.04962755982687,51.51349214773037,-0.11436054290620458
Halling,HAI,1.0,51.3524753935197,0.444931769399534,51.51349214773037,-0.11436054290620458
Hall-i'-th'-Wood,HID,2.0,53.5974249930564,-2.41310999594702,51.51349214773037,-0.11436054290620458
Haltwhistle,HWH,1.0,54.9678514502275,-2.46356531907909,51.51349214773037,-0.11436054290620458
Ham Street,HMT,1.0,51.0683754548441,0.854506282072355,51.51349214773037,-0.11436054290620458
Hamble,HME,1.0,50.8713750749217,-1.32916216397532,51.51349214773037,-0.11436054290620458
Hamilton Central,HNC,1.0,55.7731983159363,-4.0388857141295,51.51349214773037,-0.11436054290620458
Hamilton West,HNW,1.0,55.7788645846798,-4.05480903727555,51.51349214773037,-0.11436054290620458
Hammerton,HMM,1.0,53.9963302971634,-1.28409568774822,51.51349214773037,-0.11436054290620458
Hampden Park (Sussex),HMD,0.0,50.7964037646054,0.279355781887921,51.51349214773037,-0.11436054290620458
Hampstead Heath,HDH,1.0,51.5552087499737,-0.165705423537251,51.51349214773037,-0.11436054290620458
Hampton (London),HMP,0.0,51.4159332805517,-0.372118964249262,51.51349214773037,-0.11436054290620458
Hampton Court,HMC,0.0,51.4025545250828,-0.342747730939869,51.51349214773037,-0.11436054290620458
Hampton Wick,HMW,0.0,51.4145232919642,-0.312489539027649,51.51349214773037,-0.11436054290620458
Hampton-in-Arden,HIA,0.0,52.4290342253656,-1.69993074934828,51.51349214773037,-0.11436054290620458
Hamstead (Birmingham),HSD,1.0,52.531069889457,-1.9289779395104,51.51349214773037,-0.11436054290620458
Hamworthy,HAM,0.0,50.7251934395072,-2.01935721018784,51.51349214773037,-0.11436054290620458
Hanborough,HND,0.0,51.8251586675452,-1.37352555785945,51.51349214773037,-0.11436054290620458
