Name,Code,Changes,lat,lon,terminal lat,terminal lon,linear distance
Abbey Wood,ABW,0.0,51.4910605627019,0.121394025366647,51.51349214773037,-0.11436054290620458,0.2368193245248541
Aber,ABE,1.0,51.5749691125956,-3.22982905106563,51.51349214773037,-0.11436054290620458,3.1160750059236633
Abercynon,ACY,1.0,51.6447124034837,-3.32698855170195,51.51349214773037,-0.11436054290620458,3.2153067471734147
Aberdare,ABA,1.0,51.7150618291708,-3.44308409477462,51.51349214773037,-0.11436054290620458,3.334820957898561
Aberdeen,ABD,0.0,57.1437058328662,-2.09868538622245,51.51349214773037,-0.11436054290620458,5.969660896909714
Aberdour,AUR,1.0,56.0545955695197,-3.30056061487314,51.51349214773037,-0.11436054290620458,5.54738597773662
Aberdovey,AVY,1.0,52.5439615025967,-4.05706796158074,51.51349214773037,-0.11436054290620458,4.075145258833095
Abererch,ABH,1.0,52.8985884658899,-4.37417647351973,51.51349214773037,-0.11436054290620458,4.479344100790636
Abergavenny,AGV,1.0,51.8166930409601,-3.00964730040687,51.51349214773037,-0.11436054290620458,2.911119404939279
Abergele & Pensarn,AGL,1.0,53.2945771647609,-3.58262268840784,51.51349214773037,-0.11436054290620458,3.8988595958062233
Aberystwyth,AYW,1.0,52.4140498933205,-4.08189442746786,51.51349214773037,-0.11436054290620458,4.068455404485501
Accrington,ACR,1.0,53.7529733751372,-2.36954810226505,51.51349214773037,-0.11436054290620458,3.1782301829468755
Achanalt,AAT,2.0,57.6096018732679,-4.91385256332031,51.51349214773037,-0.11436054290620458,7.758716223693965
Achnasheen,ACN,2.0,57.5792959197415,-5.07233352893289,51.51349214773037,-0.11436054290620458,7.834249902237917
Achnashellach,ACH,2.0,57.4820809030767,-5.33305678830677,51.51349214773037,-0.11436054290620458,7.928356843142508
Acklington,ACK,1.0,55.3070993237817,-1.65183479633575,51.51349214773037,-0.11436054290620458,4.0933216934595915
Acle,ACL,1.0,52.6346777628319,1.54391497575916,51.51349214773037,-0.11436054290620458,2.001732969033453
Acocks Green,ACG,1.0,52.4493240670217,-1.81897562150643,51.51349214773037,-0.11436054290620458,1.9446063733711636
Acton Bridge (Cheshire),ACB,1.0,53.2665097605329,-2.60312690733168,51.51349214773037,-0.11436054290620458,3.0441794900254293
Acton Central,ACC,1.0,51.5087150057177,-0.262970693276422,51.51349214773037,-0.11436054290620458,0.14868691226489253
Acton Main Line,AML,0.0,51.5171788796431,-0.266756440210259,51.51349214773037,-0.11436054290620458,0.15244048513208114
Adderley Park,ADD,1.0,52.4830872932844,-1.85594463679675,51.51349214773037,-0.11436054290620458,1.9932962404957508
Addiewell,ADW,1.0,55.8434130805542,-3.60652712168835,51.51349214773037,-0.11436054290620458,5.562683048535931
Addlestone,ASN,0.0,51.3730447500684,-0.48445679693337,51.51349214773037,-0.11436054290620458,0.3958493510856857
Adisham,ADM,0.0,51.2411978022143,1.19908904695378,51.51349214773037,-0.11436054290620458,1.3413776633384742
Adlington (Cheshire),ADC,1.0,53.3195557900317,-2.13356274381038,51.51349214773037,-0.11436054290620458,2.709066888834423
Adlington (Lancs),ADL,1.0,53.6132468473224,-2.6030711963325,51.51349214773037,-0.11436054290620458,3.2561711433732055
Adwick,AWK,1.0,53.5723210050351,-1.180356329611,51.51349214773037,-0.11436054290620458,2.318431211173427
Aigburth,AIG,2.0,53.3645680055959,-2.92715540113816,51.51349214773037,-0.11436054290620458,3.3672387420657803
Ainsdale,ANS,2.0,53.6020355257546,-3.04265252059266,51.51349214773037,-0.11436054290620458,3.596791257283599
Aintree,AIN,2.0,53.4739127558616,-2.95628079876913,51.51349214773037,-0.11436054290620458,3.4525004998507414
Airbles,AIR,1.0,55.7828378389089,-3.99419330717581,51.51349214773037,-0.11436054290620458,5.768918001626007
Airdrie,ADR,1.0,55.8639835131324,-3.98291292517007,51.51349214773037,-0.11436054290620458,5.821724199475367
Albany Park,AYP,0.0,51.4354507399114,0.12573706592842,51.51349214773037,-0.11436054290620458,0.25246251821304166
Albrighton,ALB,1.0,52.6379442676754,-2.26890024505565,51.51349214773037,-0.11436054290620458,2.430315596416873
Alderley Edge,ALD,1.0,53.3037821045932,-2.23679936267512,51.51349214773037,-0.11436054290620458,2.7766679083581463
Aldermaston,AMT,0.0,51.4019618556841,-1.1374239270022,51.51349214773037,-0.11436054290620458,1.0291247222382114
Aldershot,AHT,0.0,51.2464179114788,-0.759859888333875,51.51349214773037,-0.11436054290620458,0.6985685740261357
Aldrington,AGT,1.0,50.8363824121951,-0.183821512855377,51.51349214773037,-0.11436054290620458,0.6806632209124571
Alexandra Palace,AAP,0.0,51.5979224924556,-0.120235220128854,51.51349214773037,-0.11436054290620458,0.08463447845229641
Alexandra Parade,AXP,2.0,55.8631759802332,-4.21064896878422,51.51349214773037,-0.11436054290620458,5.974891489451396
Alexandria,ALX,2.0,55.9850887680667,-4.57748537031666,51.51349214773037,-0.11436054290620458,6.317804963755286
Alfreton,ALF,0.0,53.1004322999438,-1.36969621564025,51.51349214773037,-0.11436054290620458,2.023424497713177
Allens West,ALW,1.0,54.5246233650745,-1.36111683481751,51.51349214773037,-0.11436054290620458,3.2590355106203988
Alloa,ALO,1.0,56.1177936041036,-3.79005640302655,51.51349214773037,-0.11436054290620458,5.891547501061716
Alness,ASS,1.0,57.6943991747966,-4.24971726526612,51.51349214773037,-0.11436054290620458,7.436718826095557
Alnmouth,ALM,0.0,55.3927786386397,-1.63663783937358,51.51349214773037,-0.11436054290620458,4.167276310240496
Alresford (Essex),ALR,0.0,51.8539974379073,0.997436403040026,51.51349214773037,-0.11436054290620458,1.1627709583808175
Alsager,ASG,0.0,53.0930054110113,-2.29905784069112,51.51349214773037,-0.11436054290620458,2.6958791574974357
Althorne (Essex),ALN,0.0,51.6478675266105,0.75248341471277,51.51349214773037,-0.11436054290620458,0.8771973491237334
Althorpe,ALP,1.0,53.5855003548442,-0.733182290833722,51.51349214773037,-0.11436054290620458,2.1624426850335583
Altnabreac,ABC,2.0,58.3881525009701,-3.7062809681672,51.51349214773037,-0.11436054290620458,7.756471318442
Alton,AON,0.0,51.1519686627366,-0.966913302570746,51.51349214773037,-0.11436054290620458,0.9260374928768621
Altrincham,ALT,1.0,53.3877187203289,-2.34688910433965,51.51349214773037,-0.11436054290620458,2.9149458010485416
Alvechurch,ALV,1.0,52.3460721156993,-1.96766073187852,51.51349214773037,-0.11436054290620458,2.031726111833967
Ambergate,AMB,1.0,53.0605170840145,-1.48069758186533,51.51349214773037,-0.11436054290620458,2.064016244489493
Amberley,AMY,0.0,50.8966791881016,-0.541992407726222,51.51349214773037,-0.11436054290620458,0.7505512900364936
Amersham,AMR,0.0,51.6742050968552,-0.607596139216709,51.51349214773037,-0.11436054290620458,0.5187581377522463
Ammanford,AMF,1.0,51.7959795450084,-3.99673575596767,51.51349214773037,-0.11436054290620458,3.8926387482805254
Ancaster,ANC,1.0,52.9876865844111,-0.535623734022494,51.51349214773037,-0.11436054290620458,1.5332031546177771
Anderston,AND,1.0,55.8599021238713,-4.27098003165416,51.51349214773037,-0.11436054290620458,6.014047327294385
Andover,ADV,0.0,51.2115476149434,-1.49223307188506,51.51349214773037,-0.11436054290620458,1.4105683985523452
Anerley,ANZ,0.0,51.4121513855632,-0.0658859220340606,51.51349214773037,-0.11436054290620458,0.11233761144568097
Angel Road,AGR,0.0,51.61240330726,-0.0487914234374522,51.51349214773037,-0.11436054290620458,0.11867066574096748
Angmering,ANG,0.0,50.8165743892467,-0.489394019247872,51.51349214773037,-0.11436054290620458,0.7914192760268169
Annan,ANN,1.0,54.9838388790739,-3.2625810423293,51.51349214773037,-0.11436054290620458,4.685573470636711
Anniesland,ANL,1.0,55.8893555064876,-4.32195784208586,51.51349214773037,-0.11436054290620458,6.0705893590802225
Ansdell & Fairhaven,AFV,1.0,53.7414654744213,-2.99303444657805,51.51349214773037,-0.11436054290620458,3.6401412868359304
Apperley Bridge,APY,1.0,53.8417501065548,-1.70582867126391,51.51349214773037,-0.11436054290620458,2.8202049440435495
Appleby,APP,1.0,54.5803488158896,-2.48669258391647,51.51349214773037,-0.11436054290620458,3.8773146810436576
Appledore (Kent),APD,1.0,51.0332342031393,0.816341504124954,51.51349214773037,-0.11436054290620458,1.047307974614356
Appleford,APF,0.0,51.6396415502262,-1.24214153179695,51.51349214773037,-0.11436054290620458,1.134814359555537
Appley Bridge,APB,2.0,53.5786734960166,-2.71925251339081,51.51349214773037,-0.11436054290620458,3.3242196346217114
Apsley,APS,0.0,51.7325208234117,-0.462934812195194,51.51349214773037,-0.11436054290620458,0.4116765501957452
Arbroath,ARB,0.0,56.5595762979872,-2.58893177406225,51.51349214773037,-0.11436054290620458,5.620183985381471
Ardgay,ARD,1.0,57.8814576101148,-4.36209023833324,51.51349214773037,-0.11436054290620458,7.654684297574501
Ardlui,AUI,2.0,56.3019723653141,-4.72165858161935,51.51349214773037,-0.11436054290620458,6.645053650025765
Ardrossan Harbour,ADS,1.0,55.6398782290401,-4.82111163323781,51.51349214773037,-0.11436054290620458,6.259438306938127
Ardrossan South Beach,ASB,1.0,55.641422142645,-4.80121264089138,51.51349214773037,-0.11436054290620458,6.2455094773208
Ardrossan Town,ADN,1.0,55.6397124556587,-4.81267645169651,51.51349214773037,-0.11436054290620458,6.252988598130679
Ardwick,ADK,1.0,53.471345820655,-2.21388417456067,51.51349214773037,-0.11436054290620458,2.8707473738488454
Argyle Street,AGS,1.0,55.8573090626122,-4.25069486323156,51.51349214773037,-0.11436054290620458,5.9981669699596525
Arisaig,ARG,2.0,56.9125537431151,-5.83907949880085,51.51349214773037,-0.11436054290620458,7.869070671606513
Arlesey,ARL,0.0,52.0260300130868,-0.266319838272065,51.51349214773037,-0.11436054290620458,0.5345902083579723
Armadale (West Lothian),ARM,1.0,55.8857140292087,-3.69541334262219,51.51349214773037,-0.11436054290620458,5.651571757947662
Armathwaite,AWT,1.0,54.8094679848183,-2.77207147292765,51.51349214773037,-0.11436054290620458,4.23401512824682
Arnside,ARN,1.0,54.2027315043991,-2.82824189170434,51.51349214773037,-0.11436054290620458,3.8206230241690196
Arram,ARR,1.0,53.8843427696163,-0.426570132093475,51.51349214773037,-0.11436054290620458,2.391319196359493
Arrochar & Tarbet,ART,2.0,56.2039766194239,-4.72277124702392,51.51349214773037,-0.11436054290620458,6.575567944826125
Arundel,ARU,0.0,50.84821399905,-0.546174298416944,51.51349214773037,-0.11436054290620458,0.7931318519387947
Ascot (Berks),ACT,0.0,51.406243053303,-0.675833255037063,51.51349214773037,-0.11436054290620458,0.5716239801854643
Ascott-under-Wychwood,AUW,1.0,51.8673416456497,-1.56405280921503,51.51349214773037,-0.11436054290620458,1.4922523694648246
Ash,ASH,1.0,51.2495967734882,-0.712805474371656,51.51349214773037,-0.11436054290620458,0.6540467143431749
Ash Vale,AHV,0.0,51.2722464128127,-0.72164859629209,51.51349214773037,-0.11436054290620458,0.653451057387762
Ashburys,ABY,1.0,53.471639721401,-2.19443661452133,51.51349214773037,-0.11436054290620458,2.8567566196611827
Ashchurch for Tewkesbury,ASC,0.0,51.9989057939667,-2.10876020926952,51.51349214773037,-0.11436054290620458,2.052621844651994
Ashfield,ASF,2.0,55.8889269328418,-4.24921509407071,51.51349214773037,-0.11436054290620458,6.020087351363677
Ashford (Surrey),AFS,0.0,51.4365062586203,-0.468070995385795,51.51349214773037,-0.11436054290620458,0.3619915901169315
Ashford International,AFK,0.0,51.1437026741936,0.876197214386404,51.51349214773037,-0.11436054290620458,1.0573310386398214
Ashford International (Eurostar),ASI,-999.0,nan,nan,51.51349214773037,-0.11436054290620458,nan
Ashley,ASY,1.0,53.3557258053839,-2.34146074338483,51.51349214773037,-0.11436054290620458,2.89029412904006
Ashtead,AHD,0.0,51.317872587997,-0.307571763628547,51.51349214773037,-0.11436054290620458,0.27495015541602025
Ashton-under-Lyne,AHN,2.0,53.4912746360398,-2.09431253377749,51.51349214773037,-0.11436054290620458,2.798541308828334
Ashurst (Kent),AHS,0.0,51.1286608253579,0.152652111896866,51.51349214773037,-0.11436054290620458,0.4683918279645022
Ashurst New Forest,ANF,0.0,50.8898511647037,-1.52663085660955,51.51349214773037,-0.11436054290620458,1.5438379172303722
Ashwell & Morden,AWM,0.0,52.0307706434447,-0.109788918120069,51.51349214773037,-0.11436054290620458,0.5172986969649784
Askam,ASK,1.0,54.1889331625586,-3.20451175494515,51.51349214773037,-0.11436054290620458,4.0874220649562085
Aslockton,ALK,1.0,52.9515495737311,-0.898097621841918,51.51349214773037,-0.11436054290620458,1.637758519860158
Aspatria,ASP,1.0,54.7589599137074,-3.33187421074512,51.51349214773037,-0.11436054290620458,4.570060746065218
Aspley Guise,APG,1.0,52.0212361960308,-0.632334507265971,51.51349214773037,-0.11436054290620458,0.7253282335185105
Aston,AST,1.0,52.5042320347358,-1.8719337575538,51.51349214773037,-0.11436054290620458,2.017580017880386
Atherstone,ATH,0.0,52.5789720633612,-1.55281147568713,51.51349214773037,-0.11436054290620458,1.7900805950099001
Atherton,ATN,1.0,53.5291462480773,-2.47897234425216,51.51349214773037,-0.11436054290620458,3.1071289679236003
Attadale,ATT,2.0,57.3950433711996,-5.4555786528295,51.51349214773037,-0.11436054290620458,7.944888651961397
Attenborough,ATB,1.0,52.9062133028873,-1.23141560765685,51.51349214773037,-0.11436054290620458,1.7853526916849607
Attleborough,ATL,1.0,52.5145445883409,1.02234755537498,51.51349214773037,-0.11436054290620458,1.5146654051473956
Auchinleck,AUK,1.0,55.4702784722357,-4.29535018687193,51.51349214773037,-0.11436054290620458,5.756460059858059
Audley End,AUD,0.0,52.0044405435161,0.207160027997398,51.51349214773037,-0.11436054290620458,0.5868609757334009
Aughton Park,AUG,2.0,53.5542504500956,-2.89522128047861,51.51349214773037,-0.11436054290620458,3.449330498871393
Aviemore,AVM,0.0,57.1885162452285,-3.82886797624022,51.51349214773037,-0.11436054290620458,6.782585346273066
Avoncliff,AVF,1.0,51.3396528744674,-2.28132558221387,51.51349214773037,-0.11436054290620458,2.1739267638331956
Avonmouth,AVN,1.0,51.5003648679963,-2.69946651797304,51.51349214773037,-0.11436054290620458,2.5851393052985503
Axminster,AXM,0.0,50.7792744117621,-3.00472359764506,51.51349214773037,-0.11436054290620458,2.9821593304197704
Aylesbury,AYS,0.0,51.8138902206829,-0.815095998270687,51.51349214773037,-0.11436054290620458,0.7624101131533235
Aylesbury Vale Parkway,AVP,0.0,51.8311587338339,-0.860182437861177,51.51349214773037,-0.11436054290620458,0.8106555118673409
Aylesford,AYL,1.0,51.3013153585378,0.466170568242092,51.51349214773037,-0.11436054290620458,0.6180900912352046
Aylesham,AYH,0.0,51.2272505439136,1.2094526827124,51.51349214773037,-0.11436054290620458,1.3544060366368464
Ayr,AYR,1.0,55.4581477383334,-4.62587677242484,51.51349214773037,-0.11436054290620458,5.992836258207445
Bache,BAC,1.0,53.2087886904783,-2.89167051075084,51.51349214773037,-0.11436054290620458,3.2538409649738975
Baglan,BAJ,1.0,51.615545271975,-3.81113654529303,51.51349214773037,-0.11436054290620458,3.698184372363175
Bagshot,BAG,0.0,51.3643669407293,-0.688661997063008,51.51349214773037,-0.11436054290620458,0.5933468527006198
Baildon,BLD,1.0,53.8502255005868,-1.75363638811678,51.51349214773037,-0.11436054290620458,2.854391013691453
Baillieston,BIO,1.0,55.844505909339,-4.11369931815988,51.51349214773037,-0.11436054290620458,5.895115846401231
Balcombe,BAB,0.0,51.0555201604538,-0.136933757536862,51.51349214773037,-0.11436054290620458,0.4585279611417476
Baldock,BDK,0.0,51.9928698318742,-0.187563753520231,51.51349214773037,-0.11436054290620458,0.48493471117183123
Balham,BAL,0.0,51.4432234163815,-0.152424495700288,51.51349214773037,-0.11436054290620458,0.079915950270829
Balloch,BHC,2.0,56.0029392993731,-4.58348654319574,51.51349214773037,-0.11436054290620458,6.334684122658126
Balmossie,BSI,1.0,56.4745685552318,-2.83895622541232,51.51349214773037,-0.11436054290620458,5.660008900540551
Bamber Bridge,BMB,1.0,53.7268691714662,-2.6607753764786,51.51349214773037,-0.11436054290620458,3.3739096540718476
Bamford,BAM,1.0,53.3390008432273,-1.68908191470249,51.51349214773037,-0.11436054290620458,2.41085656896608
Banavie,BNV,2.0,56.8433146084024,-5.09542698683765,51.51349214773037,-0.11436054290620458,7.295068908594623
Banbury,BAN,0.0,52.0603086671337,-1.32813289497966,51.51349214773037,-0.11436054290620458,1.3312594144456966
Bangor (Gwynedd),BNG,0.0,53.2222875881889,-4.1358808597691,51.51349214773037,-0.11436054290620458,4.36950884153733
Bank Hall,BAH,2.0,53.4374965462522,-2.98751189569183,51.51349214773037,-0.11436054290620458,3.45785939875311
Banstead,BAD,0.0,51.3293474848423,-0.213158931277083,51.51349214773037,-0.11436054290620458,0.20897458796428436
Barassie,BSS,1.0,55.5610644543682,-4.65113966824502,51.51349214773037,-0.11436054290620458,6.079901842100045
Barbican,ZBB,0.0,nan,nan,51.51349214773037,-0.11436054290620458,nan
Bardon Mill,BLL,1.0,54.9744957852522,-2.34650475516335,51.51349214773037,-0.11436054290620458,4.11837516057637
Bare Lane,BAR,1.0,54.0745443408907,-2.83533086719705,51.51349214773037,-0.11436054290620458,3.7366653371372127
Bargeddie,BGI,1.0,55.8512961462984,-4.07380825280165,51.51349214773037,-0.11436054290620458,5.8731396797104285
Bargoed,BGD,1.0,51.6923127611933,-3.22968013064506,51.51349214773037,-0.11436054290620458,3.120447555327385
Barking,BKG,0.0,51.5394928787692,0.0809024258638578,51.51349214773037,-0.11436054290620458,0.196986458893631
Barlaston,BRT,2.0,nan,nan,51.51349214773037,-0.11436054290620458,nan
Barming,BMG,0.0,51.2848926922128,0.478958086821072,51.51349214773037,-0.11436054290620458,0.6358338678022597
Barmouth,BRM,1.0,52.7228954666472,-4.05659664341287,51.51349214773037,-0.11436054290620458,4.123576343411755
Barnehurst,BNH,0.0,51.4649571594916,0.159646215915891,51.51349214773037,-0.11436054290620458,0.27827207722573905
Barnes,BNS,0.0,51.4670847781107,-0.242164290131055,51.51349214773037,-0.11436054290620458,0.13596853224084485
Barnes Bridge,BNI,0.0,51.4720072305495,-0.252630234454485,51.51349214773037,-0.11436054290620458,0.1443589483002699
Barnetby,BTB,1.0,53.575120046432,-0.409679706265516,51.51349214773037,-0.11436054290620458,2.0826720819543683
Barnham,BAA,0.0,50.8309058508596,-0.639679954401345,51.51349214773037,-0.11436054290620458,0.8613271949551733
Barnhill,BNL,2.0,55.8774948886876,-4.22300584363342,51.51349214773037,-0.11436054290620458,5.993787294379912
Barnsley,BNY,1.0,53.5543015489003,-1.47716484028851,51.51349214773037,-0.11436054290620458,2.4540045975644076
Barnstaple,BNP,1.0,51.0739744679973,-4.06311775092404,51.51349214773037,-0.11436054290620458,3.973142242441208
Barnt Green,BTG,1.0,52.3610898378667,-1.99246673824797,51.51349214773037,-0.11436054290620458,2.060510792329312
Barrhead,BRR,1.0,55.8037583421428,-4.39728431394783,51.51349214773037,-0.11436054290620458,6.062162984238509
Barrhill,BRL,1.0,55.0970106102442,-4.78178229089313,51.51349214773037,-0.11436054290620458,5.884422685766107
Barrow Haven,BAV,2.0,53.697419946542,-0.392955239385703,51.51349214773037,-0.11436054290620458,2.201625680112021
Barrow-in-Furness,BIF,1.0,54.1190037011827,-3.22612090695349,51.51349214773037,-0.11436054290620458,4.058539517909031
Barrow-Upon-Soar,BWS,1.0,52.7493358553102,-1.14484305880024,51.51349214773037,-0.11436054290620458,1.6091003340773895
Barry,BRY,1.0,51.3967862682376,-3.28498495899336,51.51349214773037,-0.11436054290620458,3.1727715723317043
Barry Docks,BYD,1.0,51.4024452836283,-3.26070393235989,51.51349214773037,-0.11436054290620458,3.148302420414184
Barry Island,BYI,1.0,51.3924170726249,-3.27336400852697,51.51349214773037,-0.11436054290620458,3.1613228353990994
Barry Links,BYL,1.0,56.4931516826701,-2.74544214683501,51.51349214773037,-0.11436054290620458,5.632015579741306
Barton-on-Humber,BAU,2.0,53.6889177395454,-0.44343673614012,51.51349214773037,-0.11436054290620458,2.2001744581912406
Basildon,BSO,0.0,51.5681040297501,0.456788850539816,51.51349214773037,-0.11436054290620458,0.5737543788865535
Basingstoke,BSK,0.0,51.2683569850094,-1.08726383162934,51.51349214773037,-0.11436054290620458,1.0033105487387886
Bat & Ball,BBL,0.0,51.2897587469008,0.194227480292899,51.51349214773037,-0.11436054290620458,0.3811603372711985
Bath Spa,BTH,0.0,51.3776883852266,-2.3570184714201,51.51349214773037,-0.11436054290620458,2.2467659527054473
Bathgate,BHG,1.0,55.8971563834902,-3.63609679157923,51.51349214773037,-0.11436054290620458,5.623089750048222
Batley,BTL,1.0,53.7099423400798,-1.6229526318262,51.51349214773037,-0.11436054290620458,2.664628217636346
Battersby,BTT,2.0,54.457680170473,-1.09297186288525,51.51349214773037,-0.11436054290620458,3.1025671997319066
Battersea Park,BAK,0.0,51.4769582891996,-0.147533519657093,51.51349214773037,-0.11436054290620458,0.04934743362791087
Battle,BAT,0.0,50.9129130238687,0.494702777064857,51.51349214773037,-0.11436054290620458,0.8553674133099903
Battlesbridge,BLB,0.0,51.624822766888,0.56528550890708,51.51349214773037,-0.11436054290620458,0.6887040456592425
Bayford,BAY,0.0,51.7577148923117,-0.0956100209046352,51.51349214773037,-0.11436054290620458,0.24494148494317633
Beaconsfield,BCF,0.0,51.6112905925788,-0.643822282354315,51.51349214773037,-0.11436054290620458,0.5384183033239026
Bearley,BER,0.0,52.2444115945748,-1.75025547969474,51.51349214773037,-0.11436054290620458,1.791757651577282
Bearsden,BRN,1.0,55.9171345827093,-4.3320211452141,51.51349214773037,-0.11436054290620458,6.097600155094412
Bearsted,BSD,0.0,51.2758187894535,0.577580355704965,51.51349214773037,-0.11436054290620458,0.7316220557128086
Beasdale,BSL,2.0,56.8995610683265,-5.76380325043513,51.51349214773037,-0.11436054290620458,7.805507115047895
Beaulieu Road,BEU,0.0,50.8550493435382,-1.50474962699015,51.51349214773037,-0.11436054290620458,1.5384176063514874
Beauly,BEL,1.0,57.4782879378611,-4.46986686037102,51.51349214773037,-0.11436054290620458,7.385744654362023
Bebington,BEB,1.0,53.3576570664328,-3.00363517233964,51.51349214773037,-0.11436054290620458,3.4276598623055445
Beccles,BCC,1.0,52.4585181871493,1.5694932615698,51.51349214773037,-0.11436054290620458,1.9309163239322806
Beckenham Hill,BEC,0.0,51.4245808668055,-0.0159511139458484,51.51349214773037,-0.11436054290620458,0.1326259084191483
Beckenham Junction,BKJ,0.0,51.4111718661491,-0.0260225635677561,51.51349214773037,-0.11436054290620458,0.13517780371226157
Bedford,BDM,0.0,52.1361864656103,-0.479442379912954,51.51349214773037,-0.11436054290620458,0.7218261295022355
Bedford St Johns,BSJ,1.0,52.1294772366621,-0.467501028060375,51.51349214773037,-0.11436054290620458,0.7100322753517293
Bedhampton,BDH,0.0,50.8539566355958,-0.99582843515536,51.51349214773037,-0.11436054290620458,1.1008963333723911
Bedminster,BMT,1.0,51.4400904239394,-2.59414932604792,51.51349214773037,-0.11436054290620458,2.480874890447109
Bedworth,BEH,1.0,52.4792974206142,-1.46739223305473,51.51349214773037,-0.11436054290620458,1.6623701692692854
Bedwyn,BDW,0.0,51.3796409426581,-1.59878627020561,51.51349214773037,-0.11436054290620458,1.4904482161308614
Beeston,BEE,0.0,52.9207551214346,-1.20765801407939,51.51349214773037,-0.11436054290620458,1.7820461379079295
Bekesbourne,BKS,0.0,51.2613539349877,1.13670763163281,51.51349214773037,-0.11436054290620458,1.2762230430725845
Belle Vue,BLV,1.0,53.4623764935822,-2.18050724055323,51.51349214773037,-0.11436054290620458,2.8402662497913864
Bellgrove,BLG,1.0,55.8567093051092,-4.22437490020632,51.51349214773037,-0.11436054290620458,5.979611466756258
Bellingham,BGM,0.0,51.4329113825773,-0.0193308081217253,51.51349214773037,-0.11436054290620458,0.12459498467379011
Bellshill,BLH,1.0,55.8170682424416,-4.02449996284266,51.51349214773037,-0.11436054290620458,5.814633048293846
Belmont,BLM,0.0,51.3438134158344,-0.198855124360003,51.51349214773037,-0.11436054290620458,0.18955264797115676
Belper,BLP,1.0,53.0237591485711,-1.48251049959613,51.51349214773037,-0.11436054290620458,2.0378274504528373
Beltring,BEG,1.0,51.2047063375307,0.403495486821792,51.51349214773037,-0.11436054290620458,0.6029291368861749
Belvedere,BVD,0.0,51.4921162437256,0.152286098901381,51.51349214773037,-0.11436054290620458,0.26750207636443496
Bempton,BEM,1.0,54.1276580609781,-0.18045684367924,51.51349214773037,-0.11436054290620458,2.6150013657667994
Ben Rhydding,BEY,1.0,53.9257153348267,-1.79743026313235,51.51349214773037,-0.11436054290620458,2.941350776005353
Benfleet,BEF,0.0,51.5439424321207,0.561713345502072,51.51349214773037,-0.11436054290620458,0.6767592795129883
Bentham,BEN,1.0,54.1155197017626,-2.51067651046258,51.51349214773037,-0.11436054290620458,3.537354605960309
Bentley (Hants),BTY,0.0,51.1812327932647,-0.868126900052275,51.51349214773037,-0.11436054290620458,0.8237475340146403
Bentley (South Yorks),BYK,1.0,53.543936635355,-1.15094859528964,51.51349214773037,-0.11436054290620458,2.279741127336468
Bere Alston,BAS,1.0,50.4855988011236,-4.20035543651004,51.51349214773037,-0.11436054290620458,4.213302624136447
Bere Ferrers,BFE,1.0,50.4512820780774,-4.18143518031599,51.51349214773037,-0.11436054290620458,4.203496917845201
Berkhamsted,BKM,0.0,51.7631330812332,-0.562012981628892,51.51349214773037,-0.11436054290620458,0.5125556570505634
Berkswell,BKW,0.0,52.3958819317755,-1.64284047482006,51.51349214773037,-0.11436054290620458,1.7648973435445463
Bermuda Park,BEP,1.0,52.5014343619449,-1.47217775464212,51.51349214773037,-0.11436054290620458,1.6791954618546978
Berney Arms,BYA,-999.0,52.5897827472666,1.63037533346209,51.51349214773037,-0.11436054290620458,2.050001154374479
Berry Brow,BBW,1.0,53.6210419716152,-1.79343228301033,51.51349214773037,-0.11436054290620458,2.694633215963404
Berrylands,BRS,0.0,51.3990439366779,-0.280713667843256,51.51349214773037,-0.11436054290620458,0.2019201703382621
Berwick (Sussex),BRK,0.0,50.8403762860459,0.166017608785235,51.51349214773037,-0.11436054290620458,0.729175473529608
Berwick-upon-Tweed,BWK,0.0,55.7743389009866,-2.01097357377303,51.51349214773037,-0.11436054290620458,4.6638992317145975
Bescar Lane,BES,2.0,53.623855333027,-2.9146110021991,51.51349214773037,-0.11436054290620458,3.5064277275634
Bescot Stadium,BSC,1.0,52.5630947071172,-1.9911057185482,51.51349214773037,-0.11436054290620458,2.15031113724663
Betchworth,BTO,1.0,51.2481879331766,-0.266973015200458,51.51349214773037,-0.11436054290620458,0.3060668112679888
Bethnal Green,BET,0.0,51.5239156627757,-0.0595680464428894,51.51349214773037,-0.11436054290620458,0.05577514979435438
Betws-y-Coed,BYC,1.0,53.0920709395504,-3.80086212197837,51.51349214773037,-0.11436054290620458,4.01026244708318
Beverley,BEV,0.0,53.8422725915824,-0.422980126740875,51.51349214773037,-0.11436054290620458,2.3491412054608287
Bexhill,BEX,0.0,50.84103990242,0.477016592346932,51.51349214773037,-0.11436054290620458,0.8954992676284895
Bexley,BXY,0.0,51.4402175270263,0.147902494716889,51.51349214773037,-0.11436054290620458,0.2723069425163769
Bexleyheath,BXH,0.0,51.4634982236074,0.133734871030645,51.51349214773037,-0.11436054290620458,0.2530824507264571
Bicester North,BCS,0.0,51.9034829537461,-1.15038352192815,51.51349214773037,-0.11436054290620458,1.1069943278257148
Bicester Village,BIT,0.0,51.8930236127002,-1.14876425178293,51.51349214773037,-0.11436054290620458,1.1018326396690516
Bickley,BKL,0.0,51.4001024308637,0.0452405405139698,51.51349214773037,-0.11436054290620458,0.19577980927561758
Bidston,BID,1.0,53.4091398593576,-3.07856110228132,51.51349214773037,-0.11436054290620458,3.5185174722881962
Biggleswade,BIW,0.0,52.0846785950736,-0.261187193156868,51.51349214773037,-0.11436054290620458,0.5897559010746828
Bilbrook,BBK,1.0,52.6237197237583,-2.18608801838282,51.51349214773037,-0.11436054290620458,2.3504595302233064
Billericay,BIC,0.0,51.6288812691945,0.418629610467223,51.51349214773037,-0.11436054290620458,0.5453376504013769
Billingham (Cleveland),BIL,1.0,54.605606575355,-1.27971968622732,51.51349214773037,-0.11436054290620458,3.304426359664641
Billingshurst,BIG,0.0,51.0152034952011,-0.450302232654151,51.51349214773037,-0.11436054290620458,0.6009562381323115
Bingham,BIN,1.0,52.9541905628363,-0.95154335353279,51.51349214773037,-0.11436054290620458,1.6662793828459204
Bingley,BIY,1.0,53.8486154371384,-1.8373224993653,51.51349214773037,-0.11436054290620458,2.901964624205667
Birchgrove,BCG,1.0,51.5215597229164,-3.20185379786194,51.51349214773037,-0.11436054290620458,3.0875037951663384
Birchington-on-sea,BCH,0.0,51.3774886896266,1.3014083545974,51.51349214773037,-0.11436054290620458,1.422286367703338
Birchwood,BWD,1.0,53.4127205850305,-2.5253082468513,51.51349214773037,-0.11436054290620458,3.069159084864717
Birkbeck,BIK,0.0,51.4038899816034,-0.0557387405611835,51.51349214773037,-0.11436054290620458,0.12429461182972652
Birkdale,BDL,2.0,53.6340528065899,-3.01445011129132,51.51349214773037,-0.11436054290620458,3.5926726837493748
Birkenhead Central,BKC,1.0,53.3883166263867,-3.02082115838918,51.51349214773037,-0.11436054290620458,3.4586818493643867
Birkenhead Hamilton Square,BKQ,1.0,53.3946967251861,-3.01368016573114,51.51349214773037,-0.11436054290620458,3.4561517526778434
Birkenhead North,BKN,1.0,53.4044379353974,-3.05753365912751,51.51349214773037,-0.11436054290620458,3.4982772851710187
Birkenhead Park,BKP,1.0,53.3974085855031,-3.03910128885113,51.51349214773037,-0.11436054290620458,3.4789724884656366
Birmingham International,BHI,0.0,52.4508081112451,-1.72585685988124,51.51349214773037,-0.11436054290620458,1.8642643576176794
Birmingham Moor Street,BMO,0.0,52.479080623723,-1.89247273057604,51.51349214773037,-0.11436054290620458,2.023374423311163
Birmingham New Street,BHM,0.0,52.4778198092097,-1.9002055706822,51.51349214773037,-0.11436054290620458,2.02957392127669
Birmingham Snow Hill,BSW,0.0,52.4833566780576,-1.89908868312646,51.51349214773037,-0.11436054290620458,2.0312291209218425
Bishop Auckland,BIA,1.0,54.6571963763698,-1.67771509725951,51.51349214773037,-0.11436054290620458,3.5109761804635826
Bishopbriggs,BBG,1.0,55.9038831792009,-4.22491571705821,51.51349214773037,-0.11436054290620458,6.0143326520042715
Bishops Stortford,BIS,0.0,51.8666894209812,0.16489410333554,51.51349214773037,-0.11436054290620458,0.45025711685594366
Bishopstone (Sussex),BIP,0.0,50.7801416620368,0.082756921439231,51.51349214773037,-0.11436054290620458,0.7593801614586528
Bishopton (Strathclyde),BPT,1.0,55.9022694882255,-4.5004875625329,51.51349214773037,-0.11436054290620458,6.204794660320588
Bitterne,BTE,1.0,50.9182213632939,-1.37699961416727,51.51349214773037,-0.11436054290620458,1.395924328564629
Blackburn,BBN,1.0,53.7465184457461,-2.47912240276289,51.51349214773037,-0.11436054290620458,3.2524613912332128
Blackheath,BKH,0.0,51.4657945200002,0.00887187089452019,51.51349214773037,-0.11436054290620458,0.13214118019087978
Blackhorse Road,BHO,0.0,51.58660384873,-0.0412357433706351,51.51349214773037,-0.11436054290620458,0.10340482160023722
Blackpool North,BPN,0.0,53.8219180942013,-3.04927516714828,51.51349214773037,-0.11436054290620458,3.733972978200328
Blackpool Pleasure Beach,BPB,1.0,53.7879555202556,-3.05387646984086,51.51349214773037,-0.11436054290620458,3.7167105776023726
Blackpool South,BPS,1.0,53.7987040263195,-3.04893832565541,51.51349214773037,-0.11436054290620458,3.719400501834954
Blackridge,BKR,1.0,55.8842557507999,-3.75079743413867,51.51349214773037,-0.11436054290620458,5.6857055620066905
Blackrod,BLK,1.0,53.5915244932358,-2.56952431744104,51.51349214773037,-0.11436054290620458,3.2165272560255036
Blackwater,BAW,1.0,51.3315811457068,-0.776741026218888,51.51349214773037,-0.11436054290620458,0.6869057557851461
Blaenau Ffestiniog,BFF,1.0,52.9945530771849,-3.93859577234881,51.51349214773037,-0.11436054290620458,4.101014090059513
Blair Atholl,BLA,1.0,56.7655504660718,-3.85022876626298,51.51349214773037,-0.11436054290620458,6.445217448740295
Blairhill,BAI,1.0,55.8664556230225,-4.0432911996593,51.51349214773037,-0.11436054290620458,5.863854289015177
Blake Street,BKT,1.0,52.6048860712992,-1.84491459685048,51.51349214773037,-0.11436054290620458,2.0459613950477977
Blakedown,BKD,0.0,52.4064026596129,-2.17686566095142,51.51349214773037,-0.11436054290620458,2.2474911666551742
Blantyre,BLT,1.0,55.7973304780703,-4.08697164977011,51.51349214773037,-0.11436054290620458,5.842337703939074
Blaydon,BLO,1.0,54.9657896857216,-1.71258088882198,51.51349214773037,-0.11436054290620458,3.8042958040772126
Bleasby,BSB,1.0,53.0413649497003,-0.943687538181265,51.51349214773037,-0.11436054290620458,1.7384414180786818
Bletchley,BLY,0.0,51.9953339717924,-0.736320506839459,51.51349214773037,-0.11436054290620458,0.786769178445165
Bloxwich,BLX,1.0,52.6182018754768,-2.01147807238452,51.51349214773037,-0.11436054290620458,2.195321958900676
Bloxwich North,BWN,1.0,52.6254378492086,-2.01768461058018,51.51349214773037,-0.11436054290620458,2.204328866032228
Blundellsands & Crosby,BLN,2.0,53.4876867000616,-3.03986028592851,51.51349214773037,-0.11436054290620458,3.529304871625275
Blythe Bridge,BYB,1.0,52.9681439666743,-2.06696136521393,51.51349214773037,-0.11436054290620458,2.434884368021136
Bodmin Parkway,BOD,0.0,50.4458686645733,-4.66292953056928,51.51349214773037,-0.11436054290620458,4.672183615539818
Bodorgan,BOR,1.0,53.2043074000119,-4.41800424551237,51.51349214773037,-0.11436054290620458,4.6238734126627605
Bognor Regis,BOG,0.0,50.7865584395345,-0.676178286011514,51.51349214773037,-0.11436054290620458,0.918733798539781
Bogston,BGS,1.0,55.9370473872407,-4.71140217696609,51.51349214773037,-0.11436054290620458,6.379704753535177
Bolton,BON,1.0,53.5741455351566,-2.42582497565139,51.51349214773037,-0.11436054290620458,3.0966369188132536
Bolton-Upon-Dearne,BTD,1.0,53.5189470302023,-1.31154616002462,51.51349214773037,-0.11436054290620458,2.3356161258789307
Bookham,BKA,0.0,51.2887375770933,-0.384020684769355,51.51349214773037,-0.11436054290620458,0.35104303031381623
Bootle (Cumbria),BOC,1.0,54.2913058315169,-3.39386227213438,51.51349214773037,-0.11436054290620458,4.297834391160541
Bootle New Strand,BNW,2.0,53.4533917659639,-2.99474773972908,51.51349214773037,-0.11436054290620458,3.472728168521652
Bootle Oriel Road,BOT,2.0,53.4466239167649,-2.9957338918952,51.51349214773037,-0.11436054290620458,3.469771002921466
Bordesley,BBS,2.0,52.4718743800827,-1.87776885469942,51.51349214773037,-0.11436054290620458,2.0070140451402034
Borough Green & Wrotham,BRG,0.0,51.2932170234776,0.306244959659036,51.51349214773037,-0.11436054290620458,0.47479481795058565
Borth,BRH,1.0,52.4910318901744,-4.05017708151719,51.51349214773037,-0.11436054290620458,4.055395883716077
Bosham,BOH,0.0,50.8427472866996,-0.847431235664145,51.51349214773037,-0.11436054290620458,0.9936253364220302
Boston,BSN,1.0,52.9780883520384,-0.03100323679323,51.51349214773037,-0.11436054290620458,1.4669664216184028
Botley,BOE,0.0,50.9164546156522,-1.25923650546392,51.51349214773037,-0.11436054290620458,1.2911989716354508
Bottesford,BTF,1.0,52.9446141670485,-0.794842711685305,51.51349214773037,-0.11436054290620458,1.5846659636035332
Bourne End,BNE,1.0,51.5771173647136,-0.710473547391366,51.51349214773037,-0.11436054290620458,0.5994988593421089
Bournemouth,BMH,0.0,50.7272746595869,-1.86450316465566,51.51349214773037,-0.11436054290620458,1.918628972763282
Bournville,BRV,1.0,52.4269645832552,-1.92642405915734,51.51349214773037,-0.11436054290620458,2.0292870859964824
Bow Brickhill,BWB,1.0,52.0043001848605,-0.696077833880482,51.51349214773037,-0.11436054290620458,0.761109411274084
Bowes Park,BOP,0.0,51.6070103763875,-0.120581954633459,51.51349214773037,-0.11436054290620458,0.09372494361186687
Bowling,BWG,2.0,55.9310849001239,-4.49384261915191,51.51349214773037,-0.11436054290620458,6.220529638395532
Box Hill & Westhumble,BXW,0.0,51.2540106794359,-0.328489952956063,51.51349214773037,-0.11436054290620458,0.3364253804880854
Bracknell,BCE,0.0,51.4130914141393,-0.751703650172948,51.51349214773037,-0.11436054290620458,0.6452027151880654
Bradford Forster Square,BDQ,0.0,53.7969256219995,-1.75296173787813,51.51349214773037,-0.11436054290620458,2.810530609613817
Bradford Interchange,BDI,0.0,53.7910764525054,-1.74959589964649,51.51349214773037,-0.11436054290620458,2.803816138282091
Bradford-on-Avon,BOA,0.0,51.3449161602034,-2.25232693866303,51.51349214773037,-0.11436054290620458,2.1446021013129974
Brading,BDN,2.0,50.6783720718463,-1.13872244962043,51.51349214773037,-0.11436054290620458,1.3216439978571457
Braintree,BTR,0.0,51.8753890748181,0.556686982906197,51.51349214773037,-0.11436054290620458,0.7624133837587654
Braintree Freeport,BTP,0.0,51.8694135093739,0.568434688069829,51.51349214773037,-0.11436054290620458,0.7699930799155279
Bramhall,BML,1.0,53.360614520234,-2.16359288123925,51.51349214773037,-0.11436054290620458,2.7588429160561816
Bramley (Hants),BMY,1.0,51.3302932744388,-1.06100278415591,51.51349214773037,-0.11436054290620458,0.9642060776066311
Bramley (W Yorks),BLE,1.0,53.8053497570895,-1.63720635437646,51.51349214773037,-0.11436054290620458,2.75166688883118
Brampton (Cumbria),BMP,1.0,54.9323930102284,-2.70294760254176,51.51349214773037,-0.11436054290620458,4.288317394142189
Brampton (Suffolk),BRP,1.0,52.3954307722651,1.54381046672808,51.51349214773037,-0.11436054290620458,1.8781232213669583
Branchton,BCN,1.0,55.9406016000061,-4.80354935893801,51.51349214773037,-0.11436054290620458,6.448859577849937
Brandon,BND,1.0,52.4540047306678,0.624731734521936,51.51349214773037,-0.11436054290620458,1.1961694333235369
Branksome,BSM,0.0,50.7269660330633,-1.91975842787338,51.51349214773037,-0.11436054290620458,1.9692853658363547
Braystones (Cumbria),BYS,1.0,54.4393640536404,-3.54182643942065,51.51349214773037,-0.11436054290620458,4.506467450405384
Bredbury,BDY,1.0,53.4231550957567,-2.11048830300964,51.51349214773037,-0.11436054290620458,2.7624877573882882
Breich,BRC,1.0,55.8273164832767,-3.66812586892786,51.51349214773037,-0.11436054290620458,5.589125905755347
Brentford,BFD,0.0,51.4875457097478,-0.3096509962364,51.51349214773037,-0.11436054290620458,0.19700654508390458
Brentwood,BRE,0.0,51.6136030493508,0.2995857793073,51.51349214773037,-0.11436054290620458,0.4258799717025238
Bricket Wood,BWO,1.0,51.7054267834401,-0.359115040469,51.51349214773037,-0.11436054290620458,0.31103644233794414
Bridge of Allan,BEA,1.0,56.1566398048563,-3.95722936202684,51.51349214773037,-0.11436054290620458,6.02714367896134
Bridge of Orchy,BRO,2.0,56.5158728605762,-4.76299400728156,51.51349214773037,-0.11436054290620458,6.828880280277464
Bridgend,BGN,0.0,51.5069776497295,-3.57527638119945,51.51349214773037,-0.11436054290620458,3.460921969422778
Bridgeton,BDG,1.0,55.8489676845822,-4.22605724682491,51.51349214773037,-0.11436054290620458,5.975148359300932
Bridgwater,BWT,0.0,51.1278595271724,-2.99040597303838,51.51349214773037,-0.11436054290620458,2.9017839055006456
Bridlington,BDT,1.0,54.0841300013586,-0.198720390714093,51.51349214773037,-0.11436054290620458,2.5720216870058747
Brierfield,BRF,1.0,53.8239823807197,-2.23649020577414,51.51349214773037,-0.11436054290620458,3.1371642326730473
Brigg,BGG,1.0,53.5491442686681,-0.486124757673641,51.51349214773037,-0.11436054290620458,2.0693207071065474
Brighouse,BGH,0.0,53.6981985445311,-1.77943904000537,51.51349214773037,-0.11436054290620458,2.7468943266394623
Brighton (East Sussex),BTN,0.0,50.8290032740444,-0.141280362604851,51.51349214773037,-0.11436054290620458,0.6850180252318093
Brimsdown,BMD,0.0,51.6555817179022,-0.0308174334464399,51.51349214773037,-0.11436054290620458,0.16482990350607704
Brinnington,BNT,1.0,53.4321182782686,-2.13512015019042,51.51349214773037,-0.11436054290620458,2.7865023989251387
Bristol Parkway,BPW,0.0,51.5138036668802,-2.54216343130652,51.51349214773037,-0.11436054290620458,2.427802908386324
Bristol Temple Meads,BRI,0.0,51.449146420501,-2.58131562733598,51.51349214773037,-0.11436054290620458,2.467794108349924
Brithdir,BHD,1.0,51.7103060616454,-3.22872077880337,51.51349214773037,-0.11436054290620458,3.120572927468288
Briton Ferry,BNF,1.0,51.6379005035521,-3.81925304025098,51.51349214773037,-0.11436054290620458,3.7069806926769764
Brixton,BRX,0.0,51.4632974069132,-0.114183479348404,51.51349214773037,-0.11436054290620458,0.05019505311488625
Broad Green,BGE,1.0,53.4065063198581,-2.8934843782564,51.51349214773037,-0.11436054290620458,3.3625930393207017
Broadbottom,BDB,1.0,53.4409753914717,-2.01652101691897,51.51349214773037,-0.11436054290620458,2.708026241342592
Broadstairs,BSR,0.0,51.3606706129939,1.43356042841681,51.51349214773037,-0.11436054290620458,1.5554464808989072
Brockenhurst,BCU,0.0,50.8168418133325,-1.57353117285741,51.51349214773037,-0.11436054290620458,1.6169417477846428
Brockholes,BHS,1.0,53.5969730380642,-1.76969142002127,51.51349214773037,-0.11436054290620458,2.6610172741109337
Brockley,BCY,0.0,51.4646472014469,-0.0375366925196268,51.51349214773037,-0.11436054290620458,0.09103698570171369
Bromborough,BOM,1.0,53.3218495381578,-2.98689585549247,51.51349214773037,-0.11436054290620458,3.394350537815531
Bromborough Rake,BMR,1.0,53.3299093778849,-2.98946942122466,51.51349214773037,-0.11436054290620458,3.4008267548035844
Bromley Cross (Lancs),BMC,2.0,53.6140430093272,-2.41089911446368,51.51349214773037,-0.11436054290620458,3.112298721653568
Bromley North,BMN,1.0,51.4083259856208,0.0169926357417391,51.51349214773037,-0.11436054290620458,0.16826639353648354
Bromley South,BMS,0.0,51.3999745779484,0.0173440284479178,51.51349214773037,-0.11436054290620458,0.17387447416103757
Bromsgrove,BMV,1.0,52.3222879772082,-2.04734524157192,51.51349214773037,-0.11436054290620458,2.0953712174830783
Brondesbury,BSY,1.0,51.5451643215911,-0.202308734122339,51.51349214773037,-0.11436054290620458,0.09347732845591125
Brondesbury Park,BSP,1.0,51.5406977630272,-0.210127665126915,51.51349214773037,-0.11436054290620458,0.09955645233793509
Brookmans Park,BPK,0.0,51.7210604040222,-0.204548729285783,51.51349214773037,-0.11436054290620458,0.22631502376658055
Brookwood,BKO,0.0,51.3037572593507,-0.635747900032551,51.51349214773037,-0.11436054290620458,0.5619906579070771
Broome,BME,1.0,52.4227745962921,-2.88520796216339,51.51349214773037,-0.11436054290620458,2.916228727666372
Broomfleet,BMF,1.0,53.7402076992399,-0.671828400321333,51.51349214773037,-0.11436054290620458,2.295437335103145
Brora,BRA,2.0,58.012954677959,-3.85228367382381,51.51349214773037,-0.11436054290620458,7.497671806267254
Brough,BUH,0.0,53.726959736948,-0.578724236728498,51.51349214773037,-0.11436054290620458,2.2616525835453127
Broughty Ferry,BYF,1.0,56.4671632427311,-2.87315275743822,51.51349214773037,-0.11436054290620458,5.670078641465935
Broxbourne,BXB,0.0,51.7469087203036,-0.0110867237416249,51.51349214773037,-0.11436054290620458,0.25524258672226663
Bruce Grove,BCV,0.0,51.5939575362971,-0.0698670703254643,51.51349214773037,-0.11436054290620458,0.09194752775081996
Brundall,BDA,1.0,52.6194794445227,1.43929868679443,51.51349214773037,-0.11436054290620458,1.907109043211737
Brundall Gardens,BGA,1.0,52.623439277351,1.41841612253682,51.51349214773037,-0.11436054290620458,1.892455266757899
Brunstane,BSU,1.0,55.9425140850115,-3.10098653970798,51.51349214773037,-0.11436054290620458,5.341925698256176
Brunswick,BRW,2.0,53.3832435421687,-2.97607735757102,51.51349214773037,-0.11436054290620458,3.4183904698467997
Bruton,BRU,0.0,51.1116412233567,-2.44707381432238,51.51349214773037,-0.11436054290620458,2.3670731657600124
Bryn,BYN,1.0,53.4998691660173,-2.6472139954436,51.51349214773037,-0.11436054290620458,3.2188569820371145
Buckenham (Norfolk),BUC,-999.0,52.5977342869752,1.47032522512213,51.51349214773037,-0.11436054290620458,1.920106767840204
Buckley,BCK,2.0,53.163039091322,-3.05592619131988,51.51349214773037,-0.11436054290620458,3.3725085000693262
Bucknell,BUK,1.0,52.3573820377697,-2.94737831871819,51.51349214773037,-0.11436054290620458,2.9560344829817686
Buckshaw Parkway,BSV,1.0,53.6733436562841,-2.6608302706882,51.51349214773037,-0.11436054290620458,3.339081702131884
Bugle,BGL,1.0,50.4003548175137,-4.79210144517706,51.51349214773037,-0.11436054290620458,4.8083609124835505
Builth Road,BHR,1.0,52.1693260878635,-3.42703322967269,51.51349214773037,-0.11436054290620458,3.3769688311678623
Bulwell,BLW,1.0,52.9996957837852,-1.19623056375416,51.51349214773037,-0.11436054290620458,1.8382720119264606
Bures,BUE,1.0,51.9711590332091,0.769143780923498,51.51349214773037,-0.11436054290620458,0.9950069689653339
Burgess Hill,BUG,0.0,50.9536546008005,-0.127412852764647,51.51349214773037,-0.11436054290620458,0.5599896800344586
Burley Park,BUY,1.0,53.8120311080587,-1.57776768947798,51.51349214773037,-0.11436054290620458,2.7248562950703628
Burley-in-Wharfedale,BUW,1.0,53.9081516997075,-1.75337211508043,51.51349214773037,-0.11436054290620458,2.9018534255879223
Burnage,BNA,1.0,53.4211687602571,-2.21567840315285,51.51349214773037,-0.11436054290620458,2.838092106992481
Burneside (Cumbria),BUD,1.0,54.3549826054845,-2.76667730640148,51.51349214773037,-0.11436054290620458,3.887010706883356
Burnham (Bucks),BNM,0.0,51.5235048795581,-0.646373823188634,51.51349214773037,-0.11436054290620458,0.5321074940230826
Burnham-on-Crouch,BUU,0.0,51.6336547723703,0.814027782561537,51.51349214773037,-0.11436054290620458,0.9361324367978893
Burnley Barracks,BUB,1.0,53.7908801067712,-2.25808600820696,51.51349214773037,-0.11436054290620458,3.1276276611136273
Burnley Central,BNC,1.0,53.7935141377532,-2.24497131410056,51.51349214773037,-0.11436054290620458,3.120577275652227
Burnley Manchester Road,BYM,1.0,53.784967519749,-2.24886752625716,51.51349214773037,-0.11436054290620458,3.117005041327523
Burnside (Strathclyde),BUI,1.0,55.8169313339993,-4.20239033426663,51.51349214773037,-0.11436054290620458,5.93561929413986
Burntisland,BTS,1.0,56.0570842114504,-3.23319831966981,51.51349214773037,-0.11436054290620458,5.511023309628388
Burscough Bridge,BCB,2.0,53.6052595050232,-2.84088028461687,51.51349214773037,-0.11436054290620458,3.4364808422241824
Burscough Junction,BCJ,2.0,53.5975223038556,-2.84060569626726,51.51349214773037,-0.11436054290620458,3.431558585812575
Bursledon,BUO,1.0,50.8836886125224,-1.30503236047306,51.51349214773037,-0.11436054290620458,1.3469787934887523
Burton Joyce,BUJ,1.0,52.9834418843688,-1.04087761567102,51.51349214773037,-0.11436054290620458,1.7375805346423752
Burton-on-Trent,BUT,1.0,52.8058165084357,-1.64245997205794,51.51349214773037,-0.11436054290620458,2.00129710903861
Bury St Edmunds,BSE,1.0,52.2537604920335,0.713306656862091,51.51349214773037,-0.11436054290620458,1.1104189367754822
Busby,BUS,1.0,55.7803445376612,-4.26220173231044,51.51349214773037,-0.11436054290620458,5.9506819651176786
Bush Hill Park,BHK,0.0,51.6415169536941,-0.0692211146516689,51.51349214773037,-0.11436054290620458,0.13574947117833594
Bushey,BSH,0.0,51.6457502336329,-0.385321269560704,51.51349214773037,-0.11436054290620458,0.3015160305452045
Butlers Lane,BUL,1.0,52.5924709448511,-1.83802031828625,51.51349214773037,-0.11436054290620458,2.0335186908163134
Buxted,BXD,0.0,50.9900108378352,0.131438921683175,51.51349214773037,-0.11436054290620458,0.5783165729961283
Buxton,BUX,1.0,53.2607227045765,-1.91286358993768,51.51349214773037,-0.11436054290620458,2.507474392483072
Byfleet & New Haw,BFN,0.0,51.3497957278428,-0.481389767596653,51.51349214773037,-0.11436054290620458,0.4018792973778041
Bynea,BYE,1.0,51.6720366859549,-4.09888164715589,51.51349214773037,-0.11436054290620458,3.98767410915335
Cadoxton,CAD,1.0,51.4122831697514,-3.24889594393883,51.51349214773037,-0.11436054290620458,3.1361689108768216
Caergwrle,CGW,2.0,53.1078664074892,-3.03291327418616,51.51349214773037,-0.11436054290620458,3.325654721320782
Caerphilly,CPH,1.0,51.57158067131,-3.21848255919666,51.51349214773037,-0.11436054290620458,3.104665484169073
Caersws,CWS,1.0,52.5161279090032,-3.43249879239218,51.51349214773037,-0.11436054290620458,3.466312148737475
Caldercruix,CAC,1.0,55.8879475461776,-3.88771190821316,51.51349214773037,-0.11436054290620458,5.777026965409457
Caldicot,CDT,1.0,51.5847930591881,-2.76057390572724,51.51349214773037,-0.11436054290620458,2.647173772450029
Caledonian Rd & Barnsbury,CIR,1.0,51.5430392840645,-0.116729249835755,51.51349214773037,-0.11436054290620458,0.029641930403835094
Calstock,CSK,1.0,50.4978023671618,-4.20898850028348,51.51349214773037,-0.11436054290620458,4.218720640157039
Cam & Dursley,CDU,1.0,51.71762106741,-2.35908298700462,51.51349214773037,-0.11436054290620458,2.253984797395213
Camberley,CAM,0.0,51.3363271281171,-0.744271720142327,51.51349214773037,-0.11436054290620458,0.6543512324291656
Camborne,CBN,0.0,50.2104431448962,-5.2974123155278,51.51349214773037,-0.11436054290620458,5.3443392839024515
Cambridge,CBG,0.0,52.1940653655991,0.137456461171047,51.51349214773037,-0.11436054290620458,0.7256663892055668
Cambridge Heath,CBH,0.0,51.5319710950389,-0.0572790666047599,51.51349214773037,-0.11436054290620458,0.05999805355495984
Cambuslang,CBL,1.0,55.8196110785266,-4.17300936139383,51.51349214773037,-0.11436054290620458,5.917371923241995
Camden Road,CMD,1.0,51.541789311709,-0.138700901327927,51.51349214773037,-0.11436054290620458,0.03732536051174445
Camelon,CMO,1.0,56.0060960246981,-3.81760595611437,51.51349214773037,-0.11436054290620458,5.822157348079219
Canada Water,ZCW,1.0,51.4979884652777,-0.0497198367270248,51.51349214773037,-0.11436054290620458,0.0664739427515489
Canley,CNL,0.0,52.3992417616656,-1.54757487164278,51.51349214773037,-0.11436054290620458,1.684831057014989
Cannock,CAO,1.0,52.6861624456421,-2.02214749992606,51.51349214773037,-0.11436054290620458,2.239376408953944
Canonbury,CNN,1.0,51.5487306960064,-0.0921909296515918,51.51349214773037,-0.11436054290620458,0.04163228358451506
Canterbury East,CBE,0.0,51.2742643010057,1.07596836838028,51.51349214773037,-0.11436054290620458,1.214130503567466
Canterbury West,CBW,0.0,51.2842658182293,1.07530307014886,51.51349214773037,-0.11436054290620458,1.2115462114025046
Cantley,CNY,1.0,52.5787439208642,1.51341203393271,51.51349214773037,-0.11436054290620458,1.9453546982680485
Capenhurst,CPU,1.0,53.2601766897761,-2.94228526259152,51.51349214773037,-0.11436054290620458,3.323862979972067
Carbis Bay,CBB,1.0,50.1970567010486,-5.46326466277764,51.51349214773037,-0.11436054290620458,5.5085186365172465
Cardenden,CDD,1.0,56.1412590120684,-3.26164246018956,51.51349214773037,-0.11436054290620458,5.596571237599311
Cardiff Bay,CDB,2.0,51.4671120338694,-3.16640344566505,51.51349214773037,-0.11436054290620458,3.0523952881699965
Cardiff Central,CDF,0.0,51.4760288851757,-3.17930229689385,51.51349214773037,-0.11436054290620458,3.065170705095901
Cardiff Queen Street,CDQ,1.0,51.4819650131963,-3.17018110795731,51.51349214773037,-0.11436054290620458,3.05598319465294
Cardonald,CDO,1.0,55.8525736689993,-4.34069348123436,51.51349214773037,-0.11436054290620458,6.05718734676541
Cardross,CDR,1.0,55.9603843832927,-4.65307437435214,51.51349214773037,-0.11436054290620458,6.354114713983623
Carfin,CRF,1.0,55.8073437453988,-3.9562545230792,51.51349214773037,-0.11436054290620458,5.761710761370209
Cark & Cartmel,CAK,1.0,54.1779579416092,-2.97406410040301,51.51349214773037,-0.11436054290620458,3.9086164308499556
Carlisle,CAR,0.0,54.8906549298,-2.93319211047497,51.51349214773037,-0.11436054290620458,4.398981684767338
Carlton,CTO,1.0,52.965087366641,-1.07865502808069,51.51349214773037,-0.11436054290620458,1.7426969138958541
Carluke,CLU,1.0,55.7312694028257,-3.84892564535903,51.51349214773037,-0.11436054290620458,5.6335265578550375
Carmarthen,CMN,0.0,51.8533578808521,-4.30596190317658,51.51349214773037,-0.11436054290620458,4.205357378389003
Carmyle,CML,1.0,55.8343417681725,-4.15818113045633,51.51349214773037,-0.11436054290620458,5.917957957502669
Carnforth,CNF,1.0,54.1296807999724,-2.77123283370784,51.51349214773037,-0.11436054290620458,3.728728125480524
Carnoustie,CAN,1.0,56.5005661034066,-2.70660077824166,51.51349214773037,-0.11436054290620458,5.620553004560688
Carntyne,CAY,1.0,55.8548777008205,-4.17857314789674,51.51349214773037,-0.11436054290620458,5.946885959823316
Carpenders Park,CPK,0.0,51.6283500844943,-0.385939110192136,51.51349214773037,-0.11436054290620458,0.29486821437168637
Carrbridge,CAG,1.0,57.2795057695212,-3.82820361192189,51.51349214773037,-0.11436054290620458,6.858537994933999
Carshalton,CSH,0.0,51.3684528774191,-0.166368536051504,51.51349214773037,-0.11436054290620458,0.15408186552422662
Carshalton Beeches,CSB,0.0,51.3574095253256,-0.169797044692897,51.51349214773037,-0.11436054290620458,0.16563511326737193
Carstairs,CRS,0.0,55.6910505751263,-3.66847398361363,51.51349214773037,-0.11436054290620458,5.484862510922578
Cartsdyke,CDY,1.0,55.9422189788465,-4.73159192667259,51.51349214773037,-0.11436054290620458,6.397847059432194
Castle Bar Park,CBP,0.0,51.5229293420363,-0.331548940592461,51.51349214773037,-0.11436054290620458,0.2173933318340086
Castle Cary,CLC,0.0,51.0998172088069,-2.52279469643867,51.51349214773037,-0.11436054290620458,2.44370252424369
Castleford,CFD,1.0,53.7240777865092,-1.354652736609,51.51349214773037,-0.11436054290620458,2.534761052275994
Castleton (Manchester),CAS,1.0,53.5918484863424,-2.17823419505367,51.51349214773037,-0.11436054290620458,2.9290168183671
Castleton Moor,CSM,1.0,54.4671435348016,-0.946648402304519,51.51349214773037,-0.11436054290620458,3.068673915105619
Caterham,CAT,0.0,51.2821399092314,-0.0783071221606942,51.51349214773037,-0.11436054290620458,0.23414462924854282
Catford,CTF,0.0,51.4444050592825,-0.0263165980978829,51.51349214773037,-0.11436054290620458,0.11191408315138
Catford Bridge,CFB,0.0,51.4447390713824,-0.0247911767036132,51.51349214773037,-0.11436054290620458,0.11291437848761031
Cathays,CYS,1.0,51.4889025348744,-3.17868388381823,51.51349214773037,-0.11436054290620458,3.064421998798247
Cathcart,CCT,1.0,55.8176734833053,-4.26053705302787,51.51349214773037,-0.11436054290620458,5.976349774117666
Cattal,CTL,1.0,53.9974405714928,-1.32053513613482,51.51349214773037,-0.11436054290620458,2.7613143466947223
Causeland,CAU,1.0,50.4056959147701,-4.46644892679679,51.51349214773037,-0.11436054290620458,4.4908669313347875
Cefn-y-Bedd,CYB,2.0,53.0988032278231,-3.03105323734973,51.51349214773037,-0.11436054290620458,3.319684848669375
Chadwell Heath,CTH,0.0,51.5680368465285,0.128958362519305,51.51349214773037,-0.11436054290620458,0.24935760245969452
Chafford Hundred Lakeside,CFH,0.0,51.4855550575053,0.28744692045023,51.51349214773037,-0.11436054290620458,0.40277750510570476
Chalfont & Latimer,CFO,0.0,51.6681076576697,-0.560526398177912,51.51349214773037,-0.11436054290620458,0.47219691477617076
Chalkwell,CHW,0.0,51.5387163080302,0.670592556917399,51.51349214773037,-0.11436054290620458,0.7853582795040209
Chandlers Ford,CFR,1.0,50.9836845147777,-1.38517039014294,51.51349214773037,-0.11436054290620458,1.3768274386315678
Chapel-en-le-Frith,CEF,1.0,53.3122322961308,-1.91876260821786,51.51349214773037,-0.11436054290620458,2.5478094384723087
Chapelton (Devon),CPN,1.0,51.0165400933197,-4.02472276399646,51.51349214773037,-0.11436054290620458,3.9418135476596174
Chapeltown (South Yorks),CLN,1.0,53.4623369950109,-1.46627538451147,51.51349214773037,-0.11436054290620458,2.371849484626812
Chappel & Wakes Colne,CWC,1.0,51.9259030310448,0.758501135970095,51.51349214773037,-0.11436054290620458,0.9653860611832658
Charing (Kent),CHG,0.0,51.2080962778901,0.790331124900325,51.51349214773037,-0.11436054290620458,0.9548474491320873
Charing Cross (Glasgow),CHC,1.0,55.8646868840175,-4.2698209416277,51.51349214773037,-0.11436054290620458,6.016705640002299
Charlbury,CBY,0.0,51.8724282813146,-1.48969393048958,51.51349214773037,-0.11436054290620458,1.4213996886850506
Charlton,CTN,0.0,51.4868115310585,0.0312574909275387,51.51349214773037,-0.11436054290620458,0.14804211253422575
Chartham,CRT,0.0,51.2572624478548,1.01803921286391,51.51349214773037,-0.11436054290620458,1.1610266430907343
Chassen Road,CSR,2.0,53.4461614853374,-2.36823319572701,51.51349214773037,-0.11436054290620458,2.969032284037999
Chatelherault,CTE,1.0,55.7652234915406,-4.00467524821846,51.51349214773037,-0.11436054290620458,5.762965202593814
Chatham,CTM,0.0,51.3803760158194,0.521150706594487,51.51349214773037,-0.11436054290620458,0.6493030515998429
Chathill,CHT,1.0,55.5367340174025,-1.70637532341525,51.51349214773037,-0.11436054290620458,4.326775497208307
Cheadle Hulme,CHU,1.0,53.3759306424827,-2.1883029825707,51.51349214773037,-0.11436054290620458,2.787456616662734
Cheam,CHE,0.0,51.3554775610295,-0.214167523240628,51.51349214773037,-0.11436054290620458,0.18689580769434413
Cheddington,CED,0.0,51.8579176369762,-0.662151871991779,51.51349214773037,-0.11436054290620458,0.6470736108539498
Chelford (Cheshire),CEL,1.0,53.2703118842523,-2.28057730967718,51.51349214773037,-0.11436054290620458,2.789069857008371
Chelmsford,CHM,0.0,51.736370182895,0.468572080657349,51.51349214773037,-0.11436054290620458,0.6240873834436451
Chelsfield,CLD,0.0,51.3562540463622,0.109069814712519,51.51349214773037,-0.11436054290620458,0.273212271370625
Cheltenham Spa,CNM,0.0,51.897399026527,-2.09962021886949,51.51349214773037,-0.11436054290620458,2.0220386921602707
Chepstow,CPW,1.0,51.6401819017246,-2.67190561030381,51.51349214773037,-0.11436054290620458,2.5606809769155046
Cherry Tree,CYT,1.0,53.7328728448942,-2.51837919025585,51.51349214773037,-0.11436054290620458,3.2718429570730088
Chertsey,CHY,0.0,51.387067986648,-0.509316626293664,51.51349214773037,-0.11436054290620458,0.41469672811603253
Cheshunt,CHN,0.0,51.7028745312854,-0.0239597248580568,51.51349214773037,-0.11436054290620458,0.2098523173680975
Chessington North,CSN,0.0,51.3640398492818,-0.300699137972596,51.51349214773037,-0.11436054290620458,0.2388682932556678
Chessington South,CSS,0.0,51.3565491107847,-0.308157574149904,51.51349214773037,-0.11436054290620458,0.24937603366121866
Chester,CTR,0.0,53.1966981459934,-2.879593999182,51.51349214773037,-0.11436054290620458,3.2372362441279505
Chester Road,CRD,1.0,52.5356474587434,-1.83247949958833,51.51349214773037,-0.11436054290620458,1.9991833905729157
Chesterfield,CHD,0.0,53.2382208069527,-1.42011597140436,51.51349214773037,-0.11436054290620458,2.163258234006115
Chester-le-Street,CLS,1.0,54.854595364494,-1.57801542177952,51.51349214773037,-0.11436054290620458,3.647637085774566
Chestfield & Swalecliffe,CSW,0.0,51.360237745381,1.06693052184082,51.51349214773037,-0.11436054290620458,1.1911907871918006
Chetnole,CNO,1.0,50.8663655335093,-2.57292595204148,51.51349214773037,-0.11436054290620458,2.5423053958621344
Chichester,CCH,0.0,50.8320529892616,-0.781748952807999,51.51349214773037,-0.11436054290620458,0.9538168673104239
Chilham,CIL,0.0,51.2446076985827,0.975895539359203,51.51349214773037,-0.11436054290620458,1.1229234933467915
Chilworth,CHL,1.0,51.2152123162868,-0.524824137256049,51.51349214773037,-0.11436054290620458,0.5073965117465783
Chingford,CHI,0.0,51.6330849559396,0.00989703968061354,51.51349214773037,-0.11436054290620458,0.17245981156689946
Chinley,CLY,1.0,53.3402914179345,-1.94394095141586,51.51349214773037,-0.11436054290620458,2.585451613320333
Chippenham,CPM,0.0,51.4624897217942,-2.11539415452921,51.51349214773037,-0.11436054290620458,2.001683482046146
Chipstead,CHP,0.0,51.3092758788923,-0.169503225609274,51.51349214773037,-0.11436054290620458,0.21153013949277555
Chirk,CRK,1.0,52.9330904882563,-3.06564362624753,51.51349214773037,-0.11436054290620458,3.2749551579282206
Chislehurst,CIT,0.0,51.4055547408408,0.0574179687488035,51.51349214773037,-0.11436054290620458,0.20287518545266717
Chiswick,CHK,0.0,51.4811353508269,-0.267835206320324,51.51349214773037,-0.11436054290620458,0.1568484447354507
Cholsey,CHO,0.0,51.5702025135637,-1.15802300516055,51.51349214773037,-0.11436054290620458,1.0452020860636249
Chorley,CRL,1.0,53.6525386748143,-2.62684103630161,51.51349214773037,-0.11436054290620458,3.2997088166567456
Chorleywood,CLW,0.0,51.6542477676637,-0.518320062534133,51.51349214773037,-0.11436054290620458,0.4277796606207952
Christchurch,CHR,0.0,50.7382153631909,-1.78454614689707,51.51349214773037,-0.11436054290620458,1.8413511464205252
Christs Hospital,CHH,0.0,51.0506848896206,-0.363556339669494,51.51349214773037,-0.11436054290620458,0.5256320987949401
Church & Oswaldtwistle,CTW,1.0,53.7505227746877,-2.39121218921604,51.51349214773037,-0.11436054290620458,3.1919209647560094
Church Fenton,CHF,1.0,53.8266010051519,-1.22758889955301,51.51349214773037,-0.11436054290620458,2.567050829322336
Church Stretton,CTT,1.0,52.5374242388884,-2.80369477152189,51.51349214773037,-0.11436054290620458,2.877664942363371
Cilmeri,CIM,1.0,52.1505334866855,-3.45654171112508,51.51349214773037,-0.11436054290620458,3.402351632141309
City Thameslink,CTK,-1.0,51.5139346019675,-0.103589643870664,51.51349214773037,-0.11436054290620458,0.010779982921404111
Clacton-on-Sea,CLT,0.0,51.7939991870545,1.15409160775521,51.51349214773037,-0.11436054290620458,1.299097786014571
Clandon,CLA,0.0,51.2640043702166,-0.502766109156909,51.51349214773037,-0.11436054290620458,0.4616308427989742
Clapham (North Yorkshire),CPY,1.0,54.1053880706421,-2.4103762733162,51.51349214773037,-0.11436054290620458,3.4626020143089797
Clapham High Street,CLP,1.0,51.465479417202,-0.132521686185382,51.51349214773037,-0.11436054290620458,0.05133273242285765
Clapham Junction,CLJ,0.0,51.4641865965587,-0.170293416365599,51.51349214773037,-0.11436054290620458,0.07456221368606784
Clapton,CPT,0.0,51.5616423238882,-0.0570246574503497,51.51349214773037,-0.11436054290620458,0.07487217924594723
Clarbeston Road,CLR,1.0,51.8516714049905,-4.8835490247474,51.51349214773037,-0.11436054290620458,4.7811634552029005
Clarkston,CKS,1.0,55.7893535486702,-4.27564475472092,51.51349214773037,-0.11436054290620458,5.966512969192772
Claverdon,CLV,0.0,52.277091521558,-1.69656001384624,51.51349214773037,-0.11436054290620458,1.7568264483303062
Claygate,CLG,0.0,51.3612128745663,-0.34824779526903,51.51349214773037,-0.11436054290620458,0.279091783922797
Cleethorpes,CLE,1.0,53.5619045675724,-0.0292209300100191,51.51349214773037,-0.11436054290620458,2.050181015287966
Cleland,CEA,1.0,55.804652232152,-3.91024482718574,51.51349214773037,-0.11436054290620458,5.729117939942749
Clifton (Manchester),CLI,2.0,53.522491666707,-2.31474664635258,51.51349214773037,-0.11436054290620458,2.979560046632431
Clifton Down,CFN,1.0,51.4645471476911,-2.61174122454121,51.51349214773037,-0.11436054290620458,2.497860260709668
Clitheroe,CLH,2.0,53.8734683464237,-2.39433664531423,51.51349214773037,-0.11436054290620458,3.28142936629005
Clock House,CLK,0.0,51.4085847718765,-0.0406570648343016,51.51349214773037,-0.11436054290620458,0.12820982875131126
Clunderwen,CUW,1.0,51.840545791914,-4.73184301881061,51.51349214773037,-0.11436054290620458,4.629050496749639
Clydebank,CYK,1.0,55.9006964941048,-4.40441492241242,51.51349214773037,-0.11436054290620458,6.136133029520071
Coatbridge Central,CBC,1.0,55.8625102963699,-4.0318976496868,51.51349214773037,-0.11436054290620458,5.853294443319838
Coatbridge Sunnyside,CBS,1.0,55.8668386609231,-4.02828798060081,51.51349214773037,-0.11436054290620458,5.854097185003507
Coatdyke,COA,1.0,55.8643447692187,-4.00498525207608,51.51349214773037,-0.11436054290620458,5.836683918246305
Cobham & Stoke d'Abernon,CSD,0.0,51.3180996661306,-0.389346373427882,51.51349214773037,-0.11436054290620458,0.3373357805709504
Codsall,CSL,1.0,52.6272899571536,-2.20176310096144,51.51349214773037,-0.11436054290620458,2.365965976013081
Cogan,CGN,1.0,51.4459958120536,-3.18909039001181,51.51349214773037,-0.11436054290620458,3.0754705961871673
Colchester,COL,0.0,51.90071062168,0.89259805805851,51.51349214773037,-0.11436054290620458,1.0788437192775866
Colchester Town,CET,0.0,51.8864527052257,0.9047624659822,51.51349214773037,-0.11436054290620458,1.085224071191284
Coleshill Parkway,CEH,1.0,52.5165275432713,-1.70817740730361,51.51349214773037,-0.11436054290620458,1.8831707840622247
Collingham,CLM,0.0,53.1440857576614,-0.750393934928215,51.51349214773037,-0.11436054290620458,1.7502496954763174
Collington,CLL,0.0,50.8392865411482,0.457861387933257,51.51349214773037,-0.11436054290620458,0.8843026281089938
Colne,CNE,1.0,53.8547444008362,-2.18185934114806,51.51349214773037,-0.11436054290620458,3.1234617643577245
Colwall,CWL,0.0,52.0798705537891,-2.35695037506955,51.51349214773037,-0.11436054290620458,2.3130053294733353
Colwyn Bay,CWB,0.0,53.2963632033856,-3.72541732837559,51.51349214773037,-0.11436054290620458,4.027202541340292
Combe (Oxon),CME,1.0,51.8325940324182,-1.39407333584626,51.51349214773037,-0.11436054290620458,1.3188975870877024
Commondale,COM,1.0,54.4812740872027,-0.975148019682156,51.51349214773037,-0.11436054290620458,3.0900946135082115
Congleton,CNG,1.0,53.1578561862417,-2.19258027037562,51.51349214773037,-0.11436054290620458,2.6500811924905916
Conisbrough,CNS,1.0,53.4893094105923,-1.23433150755602,51.51349214773037,-0.11436054290620458,2.271164639096393
Connel Ferry,CON,2.0,56.4523594657108,-5.38544247761732,51.51349214773037,-0.11436054290620458,7.223345149378721
Conon Bridge,CBD,1.0,57.5617567994351,-4.44040638557,51.51349214773037,-0.11436054290620458,7.436139988588818
Cononley,CEY,1.0,53.9175717411782,-2.01206789209741,51.51349214773037,-0.11436054290620458,3.0628241664853384
Conway Park,CNP,1.0,53.3933615887328,-3.02267129068915,51.51349214773037,-0.11436054290620458,3.4629727866220086
Conwy,CNW,1.0,53.280106240192,-3.83052500023981,51.51349214773037,-0.11436054290620458,4.114705776314219
Cooden Beach,COB,0.0,50.8333700419813,0.426858738350685,51.51349214773037,-0.11436054290620458,0.869186049780353
Cookham,COO,1.0,51.557462203665,-0.722079072881563,51.51349214773037,-0.11436054290620458,0.6093071290361742
Cooksbridge,CBR,0.0,50.9037547738731,-0.0092027514388362,51.51349214773037,-0.11436054290620458,0.6187388998476238
Coombe Junction Halt,COE,1.0,50.4459252926848,-4.48185232237372,51.51349214773037,-0.11436054290620458,4.496074224666248
Copplestone,COP,1.0,50.8144709700958,-3.75157247453534,51.51349214773037,-0.11436054290620458,3.703773918905819
Corbridge,CRB,1.0,54.9662625268169,-2.01840032187859,51.51349214773037,-0.11436054290620458,3.9429672545694
Corby,COR,0.0,52.4888508478421,-0.6883354035657,51.51349214773037,-0.11436054290620458,1.1317118602156373
Corkerhill,CKH,1.0,55.8375061471062,-4.33429351905428,51.51349214773037,-0.11436054290620458,6.041931097751786
Corkickle,CKL,1.0,54.5416834476749,-3.58216474823985,51.51349214773037,-0.11436054290620458,4.6038688682009035
Corpach,CPA,2.0,56.8428332781627,-5.12195790866533,51.51349214773037,-0.11436054290620458,7.312859103119347
Corrour,CRR,2.0,56.7602193492772,-4.69060138585505,51.51349214773037,-0.11436054290620458,6.962049021669167
Coryton,COY,1.0,51.5204395971461,-3.23181845626842,51.51349214773037,-0.11436054290620458,3.1174656547647936
Coseley,CSY,1.0,52.5450842204875,-2.08577774384501,51.51349214773037,-0.11436054290620458,2.2250096594695394
Cosford,COS,1.0,52.6448359469502,-2.30027497544232,51.51349214773037,-0.11436054290620458,2.461333114067021
Cosham,CSA,0.0,50.8419241447189,-1.06732879438891,51.51349214773037,-0.11436054290620458,1.165826775727343
Cottingham,CGM,0.0,53.7816479755855,-0.406433983012819,51.51349214773037,-0.11436054290620458,2.286883852286537
Cottingley,COT,1.0,53.7678175756796,-1.58770821538294,51.51349214773037,-0.11436054290620458,2.6930905107498906
Coulsdon South,CDS,0.0,51.3158366640872,-0.137887293899879,51.51349214773037,-0.11436054290620458,0.19905074284345886
Coulsdon Town,CDN,0.0,51.3220411523246,-0.134464231082376,51.51349214773037,-0.11436054290620458,0.19250361534304627
Coventry,COV,0.0,52.4008144382941,-1.51345977599177,51.51349214773037,-0.11436054290620458,1.6567496827680042
Coventry Arena,CAA,1.0,52.4477337100526,-1.49412470531811,51.51349214773037,-0.11436054290620458,1.6663002252434933
Cowden (Kent),CWN,0.0,51.1556353416943,0.110032723034128,51.51349214773037,-0.11436054290620458,0.422390614746238
Cowdenbeath,COW,1.0,56.1120953327991,-3.34318635187069,51.51349214773037,-0.11436054290620458,5.618938276788548
Cradley Heath,CRA,0.0,52.4696552938033,-2.09048839521938,51.51349214773037,-0.11436054290620458,2.195297075704327
Craigendoran,CGD,1.0,55.9948018624344,-4.71124492675969,51.51349214773037,-0.11436054290620458,6.4197727995324545
Cramlington,CRM,1.0,55.0877690033603,-1.59859511992401,51.51349214773037,-0.11436054290620458,3.8701947393260485
Cranbrook (Devon),CBK,0.0,50.7500952464281,-3.42041599201744,51.51349214773037,-0.11436054290620458,3.393048402471735
Craven Arms,CRV,1.0,52.4425417003323,-2.83742232035607,51.51349214773037,-0.11436054290620458,2.8771858673012884
Crawley,CRW,0.0,51.1122123903253,-0.186672935434113,51.51349214773037,-0.11436054290620458,0.40774321063162144
Crayford,CRY,0.0,51.4482779041524,0.178936075571555,51.51349214773037,-0.11436054290620458,0.30045932166590406
Crediton,CDI,1.0,50.7833069483759,-3.64677829535681,51.51349214773037,-0.11436054290620458,3.6070965613890222
Cressing (Essex),CES,0.0,51.8523340604127,0.577961040362359,51.51349214773037,-0.11436054290620458,0.7707937574018829
Cressington,CSG,2.0,53.3587520488864,-2.91200333610422,51.51349214773037,-0.11436054290620458,3.351386176069116
Creswell,CWD,1.0,53.264112781138,-1.21639486472377,51.51349214773037,-0.11436054290620458,2.068611188352333
Crewe,CRE,0.0,53.0896271575516,-2.4329691730368,51.51349214773037,-0.11436054290620458,2.8035954681266415
Crewkerne,CKN,0.0,50.8735384311373,-2.77849644743115,51.51349214773037,-0.11436054290620458,2.739919866923161
Crews Hill,CWH,0.0,51.684484296328,-0.106887096068869,51.51349214773037,-0.11436054290620458,0.17115538930943938
Crianlarich,CNR,2.0,56.3904817962502,-4.61843468589525,51.51349214773037,-0.11436054290620458,6.638652869167967
Criccieth,CCC,1.0,52.9184156772103,-4.23751289496718,51.51349214773037,-0.11436054290620458,4.355937952036541
Cricklewood,CRI,0.0,51.5584516063089,-0.21267663535896,51.51349214773037,-0.11436054290620458,0.10810831120156067
Croftfoot,CFF,1.0,55.8182615046635,-4.2283256121718,51.51349214773037,-0.11436054290620458,5.954472924409678
Crofton Park,CFT,0.0,51.4551875557246,-0.0365030454664447,51.51349214773037,-0.11436054290620458,0.0972687789403226
Cromer,CMR,1.0,52.930080690008,1.29282430287158,51.51349214773037,-0.11436054290620458,1.9967203831029792
Cromford,CMF,1.0,53.1129329746475,-1.5491620139343,51.51349214773037,-0.11436054290620458,2.148689419174801
Crookston,CKT,1.0,55.842318324364,-4.3646760010174,51.51349214773037,-0.11436054290620458,6.06662324204887
Cross Gates,CRG,1.0,53.8049143949973,-1.45158048553366,51.51349214773037,-0.11436054290620458,2.6530686177010954
Crossflatts,CFL,1.0,53.85846717734,-1.84488619236594,51.51349214773037,-0.11436054290620458,2.9143827670590476
Crosshill,COI,1.0,55.833290292641,-4.25681226287329,51.51349214773037,-0.11436054290620458,5.985028175792627
Crosskeys,CKY,1.0,51.6209052713811,-3.12617046220163,51.51349214773037,-0.11436054290620458,3.0137247002834755
Crossmyloof,CMY,1.0,55.8339508036377,-4.28431839013047,51.51349214773037,-0.11436054290620458,6.00457421013612
Croston,CSO,1.0,53.6675629248262,-2.7777501372441,51.51349214773037,-0.11436054290620458,3.4254437732891807
Crouch Hill,CRH,2.0,51.5713003694514,-0.117148819750171,51.51349214773037,-0.11436054290620458,0.05787542644600235
Crowborough,COH,0.0,51.0463795309772,0.188012411090755,51.51349214773037,-0.11436054290620458,0.5564383164725817
Crowhurst,CWU,0.0,50.8885767869689,0.501336510177375,51.51349214773037,-0.11436054290620458,0.877269667372264
Crowle,CWE,1.0,53.5897328427991,-0.81735865187716,51.51349214773037,-0.11436054290620458,2.192026862307175
Crowthorne,CRN,1.0,51.366727169526,-0.819273411974494,51.51349214773037,-0.11436054290620458,0.720029243715431
Croy,CRO,1.0,55.9556821274184,-4.0359768431357,51.51349214773037,-0.11436054290620458,5.925548600920123
Crystal Palace,CYP,0.0,51.4181074460731,-0.072609878955063,51.51349214773037,-0.11436054290620458,0.10412184809446536
Cuddington,CUD,1.0,53.2399218257185,-2.59930662534034,51.51349214773037,-0.11436054290620458,3.0258083986999162
Cuffley,CUF,0.0,51.7087202077633,-0.10978341309134,51.51349214773037,-0.11436054290620458,0.1952817081591722
Culham,CUM,0.0,51.6537935596445,-1.23651383491957,51.51349214773037,-0.11436054290620458,1.1308901347883142
Culrain,CUA,2.0,57.9195183107936,-4.40427167605383,51.51349214773037,-0.11436054290620458,7.709767099734892
Cumbernauld,CUB,1.0,55.9420305501203,-3.98033519205288,51.51349214773037,-0.11436054290620458,5.878580812516499
Cupar,CUP,1.0,56.3169904139478,-3.00875666756718,51.51349214773037,-0.11436054290620458,5.60813021603514
Curriehill,CUH,1.0,55.9005690535793,-3.3187519699346,51.51349214773037,-0.11436054290620458,5.432731191163988
Cuxton,CUX,1.0,51.3739241251142,0.46170858180193,51.51349214773037,-0.11436054290620458,0.5927350752055958
Cwmbach,CMH,1.0,51.7019311514616,-3.41372372042933,51.51349214773037,-0.11436054290620458,3.3047400253760832
Cwmbran,CWM,1.0,51.656589162343,-3.01620383997003,51.51349214773037,-0.11436054290620458,2.905369387238962
Cynghordy,CYN,1.0,52.0515022362178,-3.7482113284355,51.51349214773037,-0.11436054290620458,3.6734624520751717
Dagenham Dock,DDK,0.0,51.5260877297843,0.146102888033722,51.51349214773037,-0.11436054290620458,0.26076780388743404
Daisy Hill,DSY,1.0,53.5394553429484,-2.51586138257427,51.51349214773037,-0.11436054290620458,3.141931436442318
Dalgety Bay,DAG,1.0,56.0420983541516,-3.36772120470528,51.51349214773037,-0.11436054290620458,5.57607655691514
Dalmally,DAL,2.0,56.4011953995722,-4.98355341151622,51.51349214773037,-0.11436054290620458,6.899179825876977
Dalmarnock,DAK,1.0,55.8420903351636,-4.2177095618254,51.51349214773037,-0.11436054290620458,5.964414090194892
Dalmeny,DAM,1.0,55.9863224095627,-3.38162023146767,51.51349214773037,-0.11436054290620458,5.539060969484077
Dalmuir,DMR,1.0,55.9119346513924,-4.42668195442919,51.51349214773037,-0.11436054290620458,6.159741261960629
Dalreoch,DLR,1.0,55.9474206110829,-4.57786407515961,51.51349214773037,-0.11436054290620458,6.291469256109128
Dalry,DLY,1.0,55.7062259599313,-4.71108082709015,51.51349214773037,-0.11436054290620458,6.221644010307975
Dalston (Cumbria),DLS,1.0,54.8461793005894,-2.98885243258072,51.51349214773037,-0.11436054290620458,4.401080240422367
Dalston Junction,DLJ,1.0,51.5461140533343,-0.075137571913028,51.51349214773037,-0.11436054290620458,0.05101597964131852
Dalston Kingsland,DLK,1.0,51.548146614991,-0.0757008270787684,51.51349214773037,-0.11436054290620458,0.05191826007269688
Dalton (Cumbria),DLT,1.0,54.1542402484565,-3.17900332996882,51.51349214773037,-0.11436054290620458,4.045440142158033
Dalwhinnie,DLW,1.0,56.9351747606959,-4.24619941232607,51.51349214773037,-0.11436054290620458,6.816651289202169
Danby,DNY,2.0,54.4661531404483,-0.910955849347219,51.51349214773037,-0.11436054290620458,3.058230046965383
Danescourt,DCT,1.0,51.5005094348701,-3.2339173943314,51.51349214773037,-0.11436054290620458,3.1195838664967948
Danzey,DZY,1.0,52.3248139247282,-1.82087736085094,51.51349214773037,-0.11436054290620458,1.8895615035661424
Darlington,DAR,0.0,54.5204487638895,-1.5473239913848,51.51349214773037,-0.11436054290620458,3.330941659071625
Darnall,DAN,1.0,53.3845848539264,-1.4125672166063,51.51349214773037,-0.11436054290620458,2.2773511988315396
Darsham,DSM,1.0,52.2729949292624,1.52346982245693,51.51349214773037,-0.11436054290620458,1.8053622298199432
Dartford,DFD,0.0,51.4473686091583,0.219247795125754,51.51349214773037,-0.11436054290620458,0.34009828808410203
Darton,DRT,1.0,53.5883685698073,-1.53165757467506,51.51349214773037,-0.11436054290620458,2.5127361666421693
Darwen,DWN,2.0,53.6980382551398,-2.46494001713562,51.51349214773037,-0.11436054290620458,3.208966431745015
Datchet,DAT,0.0,51.4830761133821,-0.579421910690656,51.51349214773037,-0.11436054290620458,0.4660549441332212
Davenport,DVN,1.0,53.3909022414929,-2.15295802817964,51.51349214773037,-0.11436054290620458,2.771380227815127
Dawlish,DWL,0.0,50.5808243984253,-3.46462586729764,51.51349214773037,-0.11436054290620458,3.477663996767576
Dawlish Warren,DWW,1.0,50.5987145190544,-3.44356213176095,51.51349214773037,-0.11436054290620458,3.4525934207721294
Deal,DEA,0.0,51.2230404404227,1.39884675211659,51.51349214773037,-0.11436054290620458,1.5408304617926472
Dean (Wilts),DEN,1.0,51.0424618999667,-1.63486720856804,51.51349214773037,-0.11436054290620458,1.591794589333175
Deansgate,DGT,1.0,53.4741857640751,-2.25105124318295,51.51349214773037,-0.11436054290620458,2.8999597593456574
Deganwy,DGY,1.0,53.2947519812566,-3.83338710286836,51.51349214773037,-0.11436054290620458,4.123596142717889
Deighton,DHN,1.0,53.6684837829464,-1.75189659292689,51.51349214773037,-0.11436054290620458,2.7065685402310486
Delamere,DLM,1.0,53.2287779256449,-2.66656070710605,51.51349214773037,-0.11436054290620458,3.0750497521272036
Denby Dale,DBD,1.0,53.5726320929315,-1.66321052492305,51.51349214773037,-0.11436054290620458,2.5766244547307435
Denham,DNM,0.0,51.578836362709,-0.497436854492594,51.51349214773037,-0.11436054290620458,0.38860947869269213
Denham Golf Club,DGC,0.0,51.580596815156,-0.51778668246761,51.51349214773037,-0.11436054290620458,0.4089690531956216
Denmark Hill,DMK,0.0,51.4682011118168,-0.0893608845630425,51.51349214773037,-0.11436054290620458,0.05173258983850128
Dent,DNT,1.0,54.2824108456213,-2.36359889232972,51.51349214773037,-0.11436054290620458,3.5673497036381834
Denton,DTN,1.0,53.4568674739172,-2.13165979003999,51.51349214773037,-0.11436054290620458,2.80110762215919
Deptford,DEP,0.0,51.4788463642079,-0.026270214115525,51.51349214773037,-0.11436054290620458,0.09465852493217906
Derby,DBY,0.0,52.9165485818253,-1.46335478012848,51.51349214773037,-0.11436054290620458,1.946369134905839
Derby Road (Ipswich),DBR,1.0,52.050551175491,1.18264326424955,51.51349214773037,-0.11436054290620458,1.403798872729181
Devonport (Devon),DPT,1.0,50.3785384996853,-4.17071080992923,51.51349214773037,-0.11436054290620458,4.21213690090773
Devonport Dockyard,DOC,1.0,50.3821742019037,-4.1758986568326,51.51349214773037,-0.11436054290620458,4.216156086463859
Dewsbury,DEW,1.0,53.6921323675954,-1.63310655566078,51.51349214773037,-0.11436054290620458,2.655760278879001
Didcot Parkway,DID,0.0,51.6109546860743,-1.24289356096081,51.51349214773037,-0.11436054290620458,1.1327337371244308
Digby & Sowton,DIG,1.0,50.713993328666,-3.47356109719659,51.51349214773037,-0.11436054290620458,3.453031526880424
Dilton Marsh,DMH,1.0,51.2489890910928,-2.20791557793657,51.51349214773037,-0.11436054290620458,2.1101977517928527
Dinas (Rhondda),DMG,1.0,51.6178378851192,-3.43754173872447,51.51349214773037,-0.11436054290620458,3.324818986524129
Dinas Powys,DNS,1.0,51.4316678020878,-3.21835212130232,51.51349214773037,-0.11436054290620458,3.1050698771998424
Dingle Road,DGL,1.0,51.4400570944876,-3.18059109298652,51.51349214773037,-0.11436054290620458,3.0671097947889967
Dingwall,DIN,1.0,57.59424066943,-4.42219986587001,51.51349214773037,-0.11436054290620458,7.452045505539102
Dinsdale,DND,1.0,54.5147295901116,-1.46706513570219,51.51349214773037,-0.11436054290620458,3.2919957322150935
Dinting,DTG,1.0,53.4493321635491,-1.97029878612479,51.51349214773037,-0.11436054290620458,2.681787338602068
Disley,DSL,1.0,53.3581843467523,-2.04248177088045,51.51349214773037,-0.11436054290620458,2.6684341436312975
Diss,DIS,0.0,52.3736543722193,1.12369734579394,51.51349214773037,-0.11436054290620458,1.5075365296437784
Dodworth,DOD,1.0,53.5443255754093,-1.53169088048623,51.51349214773037,-0.11436054290620458,2.4765115983582393
Dolau,DOL,1.0,52.29535399865,-3.26362091602153,51.51349214773037,-0.11436054290620458,3.244864997437945
Doleham,DLH,1.0,50.9185854757412,0.609974730800684,51.51349214773037,-0.11436054290620458,0.9373236031986267
Dolgarrog,DLG,1.0,53.1863525124092,-3.82263691779208,51.51349214773037,-0.11436054290620458,4.068141525592507
Dolwyddelan,DWD,1.0,53.0520169904365,-3.88513298649778,51.51349214773037,-0.11436054290620458,4.072564734043341
Doncaster,DON,0.0,53.5221497040669,-1.13984532561563,51.51349214773037,-0.11436054290620458,2.2552880565897646
Dorchester South,DCH,0.0,50.7092941817416,-2.43724302167314,51.51349214773037,-0.11436054290620458,2.4581532455611668
Dorchester West,DCW,1.0,50.7109558301461,-2.44254130185048,51.51349214773037,-0.11436054290620458,2.462618563107178
Dore & Totley,DOR,1.0,53.3276351284421,-1.51529775653157,51.51349214773037,-0.11436054290620458,2.2921038002206706
Dorking (Main),DKG,0.0,51.2409286574082,-0.324250782074152,51.51349214773037,-0.11436054290620458,0.3440127450467235
Dorking Deepdene,DPD,1.0,51.2388030074627,-0.324643185528021,51.51349214773037,-0.11436054290620458,0.34593773076813294
Dorking West,DKT,1.0,51.2362248191187,-0.339978560509645,51.51349214773037,-0.11436054290620458,0.35746420993262384
Dormans,DMS,0.0,51.1557900843982,-0.00430826569700688,51.51349214773037,-0.11436054290620458,0.37424894098851036
Dorridge,DDG,0.0,52.3720695979365,-1.7529004491151,51.51349214773037,-0.11436054290620458,1.8498562815098696
Dove Holes,DVH,1.0,53.3000293384446,-1.88975176117671,51.51349214773037,-0.11436054290620458,2.5186760632755334
Dover Priory,DVP,0.0,51.1256965964877,1.30529347028767,51.51349214773037,-0.11436054290620458,1.471666710482057
Dovercourt,DVC,0.0,51.9387345600673,1.28061089295205,51.51349214773037,-0.11436054290620458,1.4583471521248215
Dovey Junction,DVY,1.0,52.5643635350253,-3.92390297461625,51.51349214773037,-0.11436054290620458,3.9518279582535554
Downham Market,DOW,0.0,52.6041065863828,0.365681057551921,51.51349214773037,-0.11436054290620458,1.191587089543838
Drayton Green,DRG,0.0,51.516615460614,-0.33019425245541,51.51349214773037,-0.11436054290620458,0.21585630697558927
Drayton Park,DYP,0.0,51.5527683445258,-0.105509008966857,51.51349214773037,-0.11436054290620458,0.04026126286883091
Drem,DRM,1.0,56.0051254677484,-2.78604825861367,51.51349214773037,-0.11436054290620458,5.22615395216773
Driffield,DRF,1.0,54.0015272627459,-0.434665009990613,51.51349214773037,-0.11436054290620458,2.508568054724566
Drigg,DRI,1.0,54.3769633209494,-3.44341362306065,51.51349214773037,-0.11436054290620458,4.391134428634835
Droitwich Spa,DTW,1.0,52.2682048110456,-2.15836341611519,51.51349214773037,-0.11436054290620458,2.1788847949937504
Dronfield,DRO,1.0,53.301369608262,-1.46877868224617,51.51349214773037,-0.11436054290620458,2.2429788920206475
Drumchapel,DMC,1.0,55.9048173082117,-4.36287986166729,51.51349214773037,-0.11436054290620458,6.110127090901017
Drumfrochar,DFR,1.0,55.941253590074,-4.7747672712099,51.51349214773037,-0.11436054290620458,6.42841055499128
Drumgelloch,DRU,1.0,55.8673580650901,-3.94888294626481,51.51349214773037,-0.11436054290620458,5.8016989311929805
Drumry,DMY,1.0,55.9045972303031,-4.38547328830428,51.51349214773037,-0.11436054290620458,6.125700607285499
Dublin Ferryport,DFP,1.0,nan,nan,51.51349214773037,-0.11436054290620458,nan
Dublin Port - Stena,DPS,1.0,nan,nan,51.51349214773037,-0.11436054290620458,nan
Duddeston,DUD,1.0,52.4883642047734,-1.87139067866748,51.51349214773037,-0.11436054290620458,2.009360700714681
Dudley Port,DDP,1.0,52.5246530129006,-2.04947980373852,51.51349214773037,-0.11436054290620458,2.183376478964638
Duffield,DFI,1.0,52.9884014400862,-1.48597186949023,51.51349214773037,-0.11436054290620458,2.0141189269482505
Duirinish,DRN,2.0,57.319983293958,-5.69131781581449,51.51349214773037,-0.11436054290620458,8.050949748636153
Duke Street,DST,2.0,55.8584414373244,-4.2130485563449,51.51349214773037,-0.11436054290620458,5.9730919765771
Dullingham,DUL,1.0,52.2016485756332,0.366663821056869,51.51349214773037,-0.11436054290620458,0.839609259114063
Dumbarton Central,DBC,1.0,55.9466604798905,-4.566921701259,51.51349214773037,-0.11436054290620458,6.283174542390129
Dumbarton East,DBE,1.0,55.9422524714118,-4.55413782204535,51.51349214773037,-0.11436054290620458,6.271007916832431
Dumbreck,DUM,1.0,55.8446540909046,-4.30124003607443,51.51349214773037,-0.11436054290620458,6.024028856862605
Dumfries,DMF,1.0,55.072560279693,-3.60430398071058,51.51349214773037,-0.11436054290620458,4.984643534599622
Dumpton Park,DMP,0.0,51.3456955683759,1.42581850787212,51.51349214773037,-0.11436054290620458,1.549292483845281
Dunbar,DUN,0.0,55.9982961094783,-2.51334649990357,51.51349214773037,-0.11436054290620458,5.086118382143743
Dunblane,DBL,0.0,56.1858943626205,-3.96548684337943,51.51349214773037,-0.11436054290620458,6.054957988285866
Duncraig,DCG,2.0,57.3370088020812,-5.63713233286221,51.51349214773037,-0.11436054290620458,8.025855372945326
Dundee,DEE,0.0,56.4564890772048,-2.97120503713119,51.51349214773037,-0.11436054290620458,5.709183751551292
Dunfermline Queen Margaret,DFL,1.0,56.0805782860466,-3.42146840922136,51.51349214773037,-0.11436054290620458,5.6387266500730355
Dunfermline Town,DFE,1.0,56.068193893139,-3.45252931740364,51.51349214773037,-0.11436054290620458,5.647006176431731
Dunkeld & Birnam,DKD,1.0,56.5570605801315,-3.57839962708896,51.51349214773037,-0.11436054290620458,6.118590467506295
Dunlop,DNL,1.0,55.7118854515322,-4.53238991249355,51.51349214773037,-0.11436054290620458,6.094709988501864
Dunrobin Castle,DNO,-999.0,57.9855381206844,-3.94892170714185,51.51349214773037,-0.11436054290620458,7.52271482898925
Dunston,DOT,1.0,54.9500563207881,-1.64204458851339,51.51349214773037,-0.11436054290620458,3.760823295336636
Dunton Green,DNG,0.0,51.2964882631909,0.170937116397448,51.51349214773037,-0.11436054290620458,0.3584486578428782
Durham,DHM,0.0,54.7793912284615,-1.58175210120156,51.51349214773037,-0.11436054290620458,3.580409863531956
Durrington-on-Sea,DUR,0.0,50.8175268119417,-0.411468707281776,51.51349214773037,-0.11436054290620458,0.7567304737871067
Dyce,DYC,1.0,57.2056516865783,-2.19232258891137,51.51349214773037,-0.11436054290620458,6.05958797942034
Dyffryn Ardudwy,DYF,1.0,52.7888563835265,-4.10464455585967,51.51349214773037,-0.11436054290620458,4.189143162745798
Eaglescliffe,EAG,0.0,54.5294320938467,-1.34943715428009,51.51349214773037,-0.11436054290620458,3.2590348256106423
Ealing Broadway,EAL,0.0,51.5148402459065,-0.301751768794788,51.51349214773037,-0.11436054290620458,0.18739607495547655
Earlestown,ERL,1.0,53.4511393445328,-2.63766364961555,51.51349214773037,-0.11436054290620458,3.181436032298206
Earley,EAR,0.0,51.4410997593376,-0.917988243278776,51.51349214773037,-0.11436054290620458,0.8068817377430955
Earlsfield,EAD,0.0,51.4423355716453,-0.187714934858848,51.51349214773037,-0.11436054290620458,0.10219650257661383
Earlswood (Surrey),ELD,0.0,51.2273270225923,-0.170823068766138,51.51349214773037,-0.11436054290620458,0.2916821826436618
Earlswood (West Midlands),EWD,1.0,52.3665825052423,-1.8611697000963,51.51349214773037,-0.11436054290620458,1.9439921269704272
East Croydon,ECR,0.0,51.375452247008,-0.0927797007945513,51.51349214773037,-0.11436054290620458,0.13971666664249302
East Didsbury,EDY,1.0,53.4093102676041,-2.22199660364924,51.51349214773037,-0.11436054290620458,2.8348291144592803
East Dulwich,EDW,0.0,51.4614929058056,-0.0805717011574361,51.51349214773037,-0.11436054290620458,0.0620129582222452
East Farleigh,EFL,1.0,51.2552351625774,0.48472893141574,51.51349214773037,-0.11436054290620458,0.6523839886321893
East Garforth,EGF,1.0,53.791978068865,-1.37053696173991,51.51349214773037,-0.11436054290620458,2.6018219170501666
East Grinstead,EGR,0.0,51.1262718897162,-0.0179000957224751,51.51349214773037,-0.11436054290620458,0.3990540641159334
East Kilbride,EKL,1.0,55.7660084213155,-4.18022795719083,51.51349214773037,-0.11436054290620458,5.883466026726754
East Malling,EML,0.0,51.2858073765709,0.439280267235468,51.51349214773037,-0.11436054290620458,0.5986305218348513
East Midlands Parkway,EMD,0.0,52.8625009507858,-1.26323198480542,51.51349214773037,-0.11436054290620458,1.7719284242690603
East Tilbury,ETL,0.0,51.4848289691417,0.412927781783206,51.51349214773037,-0.11436054290620458,0.5280668093722337
East Worthing,EWR,0.0,50.8216440311297,-0.354893751833792,51.51349214773037,-0.11436054290620458,0.7324684573692527
Eastbourne,EBN,0.0,50.769375796356,0.281246925814933,51.51349214773037,-0.11436054290620458,0.8427421988310808
Eastbrook,EBK,1.0,51.4376389302109,-3.20613799233607,51.51349214773037,-0.11436054290620458,3.0927077953487787
Easterhouse,EST,1.0,55.8597611434519,-4.10717729312099,51.51349214773037,-0.11436054290620458,5.901918313901507
Eastham Rake,ERA,1.0,53.307541541813,-2.98113292052366,51.51349214773037,-0.11436054290620458,3.3818629619602723
Eastleigh,ESL,0.0,50.9692506626551,-1.35008459359062,51.51349214773037,-0.11436054290620458,1.3502639458701522
Eastrington,EGN,1.0,53.7551607566439,-0.787630411364113,51.51349214773037,-0.11436054290620458,2.340591905472134
Ebbsfleet International,EBD,0.0,51.4429709652907,0.32092083234529,51.51349214773037,-0.11436054290620458,0.44095704191397334
Ebbw Vale Parkway,EBV,1.0,51.7571470124788,-3.19610327359543,51.51349214773037,-0.11436054290620458,3.091359887051564
Ebbw Vale Town,EBB,1.0,51.7766914366017,-3.20257748551815,51.51349214773037,-0.11436054290620458,3.0994124846973574
Eccles (Manchester),ECC,1.0,53.4853606544673,-2.33451459617625,51.51349214773037,-0.11436054290620458,2.9694022004626373
Eccles Road,ECS,1.0,52.470880756208,0.9699171605498,51.51349214773037,-0.11436054290620458,1.4464615742751545
Eccleston Park,ECL,1.0,53.4307889509427,-2.78004194630839,51.51349214773037,-0.11436054290620458,3.2835779838542694
Edale,EDL,1.0,53.3649724276593,-1.81662641323107,51.51349214773037,-0.11436054290620458,2.515092109692725
Eden Park,EDN,0.0,51.3900893651293,-0.0263551602667185,51.51349214773037,-0.11436054290620458,0.15156910677050592
Edenbridge,EBR,1.0,51.2084338014699,0.0606462610283875,51.51349214773037,-0.11436054290620458,0.3516930139291529
Edenbridge Town,EBT,0.0,51.2000809020151,0.0671730164326339,51.51349214773037,-0.11436054290620458,0.36218923521692636
Edge Hill,EDG,1.0,53.4026192646978,-2.94648344109004,51.51349214773037,-0.11436054290620458,3.4043679845866954
Edinburgh,EDB,0.0,55.9523963079519,-3.18822824323027,51.51349214773037,-0.11436054290620458,5.39930854672407
Edinburgh Gateway,EGY,1.0,55.9409436079933,-3.32025199802754,51.51349214773037,-0.11436054290620458,5.466266226136844
Edinburgh Park,EDP,1.0,55.9275544602882,-3.30766474611863,51.51349214773037,-0.11436054290620458,5.4480398156949565
Edmonton Green,EDR,0.0,51.6249271577681,-0.061112495341183,51.51349214773037,-0.11436054290620458,0.12350350615102379
Effingham Junction,EFF,0.0,51.2914943131304,-0.419965418267021,51.51349214773037,-0.11436054290620458,0.37772659214221976
Eggesford,EGG,1.0,50.8877413451847,-3.8747459315936,51.51349214773037,-0.11436054290620458,3.8120942194993295
Egham,EGH,0.0,51.4296459643391,-0.546512233572854,51.51349214773037,-0.11436054290620458,0.44021047944741754
Egton,EGT,1.0,54.4374810712663,-0.761464966771902,51.51349214773037,-0.11436054290620458,2.9947379451877523
Elephant & Castle,EPH,0.0,51.4940272342536,-0.098725576447673,51.51349214773037,-0.11436054290620458,0.024966678449834755
Elephant & Castle (Underground),ZEL,-999.0,nan,nan,51.51349214773037,-0.11436054290620458,nan
Elgin,ELG,1.0,57.6429130327793,-3.3112465068439,51.51349214773037,-0.11436054290620458,6.913022512077901
Ellesmere Port,ELP,1.0,53.2821939982944,-2.89642303912049,51.51349214773037,-0.11436054290620458,3.296691973635193
Elmers End,ELE,0.0,51.3984907228231,-0.0495703490218307,51.51349214773037,-0.11436054290620458,0.13199657932793998
Elmstead Woods,ESD,0.0,51.4171158227735,0.0442740591944571,51.51349214773037,-0.11436054290620458,0.18561609034732515
Elmswell,ESW,1.0,52.2380370806758,0.912589403049404,51.51349214773037,-0.11436054290620458,1.2568180263487359
Elsecar,ELR,1.0,53.4986597288227,-1.42742391502071,51.51349214773037,-0.11436054290620458,2.380131455237022
Elsenham (Essex),ESM,0.0,51.9205434621908,0.228070270071964,51.51349214773037,-0.11436054290620458,0.5319301028150738
Elstree & Borehamwood,ELS,0.0,51.653068116385,-0.280081540392811,51.51349214773037,-0.11436054290620458,0.21666771802424753
Eltham,ELW,0.0,51.4556417308034,0.0524723310748576,51.51349214773037,-0.11436054290620458,0.17657825058428053
Elton & Orston,ELO,1.0,52.9521360042829,-0.855512437952713,51.51349214773037,-0.11436054290620458,1.6183331787760424
Ely,ELY,0.0,52.3912277010784,0.266827583237292,51.51349214773037,-0.11436054290620458,0.9569347360839013
Emerson Park,EMP,1.0,51.5686403621106,0.220113229215512,51.51349214773037,-0.11436054290620458,0.3389897192934588
Emsworth,EMS,0.0,50.8516141341351,-0.938429764103964,51.51349214773037,-0.11436054290620458,1.0569638528380725
Energlyn & Churchill Park,ECP,1.0,51.5832164323409,-3.22879606589368,51.51349214773037,-0.11436054290620458,3.115215899855212
Enfield Chase,ENC,0.0,51.6532525338014,-0.0906963712828411,51.51349214773037,-0.11436054290620458,0.14174963327410725
Enfield Lock,ENL,0.0,51.6709204354558,-0.0285324658222715,51.51349214773037,-0.11436054290620458,0.179304558202201
Enfield Town,ENF,0.0,51.6520239893496,-0.0793276428368423,51.51349214773037,-0.11436054290620458,0.14289288026240596
Entwistle,ENT,2.0,53.6559786935683,-2.41454505509583,51.51349214773037,-0.11436054290620458,3.1434212872622695
Epsom (Surrey),EPS,0.0,51.3343914612577,-0.268777680483958,51.51349214773037,-0.11436054290620458,0.23647771199985598
Epsom Downs,EPD,0.0,51.3236861855796,-0.2389548499911,51.51349214773037,-0.11436054290620458,0.22704634906984353
Erdington,ERD,1.0,52.5282854859969,-1.83950909009634,51.51349214773037,-0.11436054290620458,2.0014852058564845
Eridge,ERI,0.0,51.0889635853662,0.201431713057724,51.51349214773037,-0.11436054290620458,0.5291023050316198
Erith,ERH,0.0,51.481668933412,0.175054448859463,51.51349214773037,-0.11436054290620458,0.2911593282522029
Esher,ESH,0.0,51.3798899750361,-0.353337838372063,51.51349214773037,-0.11436054290620458,0.2737876700963816
Eskbank,EKB,1.0,55.8818057426337,-3.08307353739981,51.51349214773037,-0.11436054290620458,5.281611544509165
Essex Road,EXR,0.0,51.5407037990573,-0.0962760595924929,51.51349214773037,-0.11436054290620458,0.03267296289996219
Etchingham,ETC,0.0,51.0105437070136,0.442356266553348,51.51349214773037,-0.11436054290620458,0.7502604480806971
Euxton Balshaw Lane,EBA,1.0,53.6604819715387,-2.67202385840804,51.51349214773037,-0.11436054290620458,3.339342291380202
Evesham,EVE,0.0,52.0983985539654,-1.94731370609441,51.51349214773037,-0.11436054290620458,1.9240147615068943
Ewell East,EWE,0.0,51.3452982319215,-0.241529638967969,51.51349214773037,-0.11436054290620458,0.21085818055813688
Ewell West,EWW,0.0,51.3500435722978,-0.256986619886036,51.51349214773037,-0.11436054290620458,0.21692771755954263
Exeter Central,EXC,0.0,50.726488241429,-3.53327709081269,51.51349214773037,-0.11436054290620458,3.5083280220188087
Exeter St David's,EXD,0.0,50.729278976491,-3.54328686333265,51.51349214773037,-0.11436054290620458,3.5174601645020154
Exeter St Thomas,EXT,0.0,50.7171518711947,-3.53883698274128,51.51349214773037,-0.11436054290620458,3.5158493601146246
Exhibition Centre (Glasgow),EXG,1.0,55.8615560763509,-4.28358973053668,51.51349214773037,-0.11436054290620458,6.0239631428454885
Exmouth,EXM,1.0,50.6216387262065,-3.41497227480739,51.51349214773037,-0.11436054290620458,3.4189823530178645
Exton,EXN,1.0,50.6683075102992,-3.44409684947275,51.51349214773037,-0.11436054290620458,3.4353283602324063
Eynsford,EYN,0.0,51.3627183040984,0.204393120925889,51.51349214773037,-0.11436054290620458,0.35261402429560307
Fairbourne,FRB,1.0,52.6960464630273,-4.04941426648684,51.51349214773037,-0.11436054290620458,4.108902836049208
Fairfield,FRF,1.0,53.471295546374,-2.14577519882972,51.51349214773037,-0.11436054290620458,2.821283334236641
Fairlie,FRL,1.0,55.7519484298977,-4.85326868616408,51.51349214773037,-0.11436054290620458,6.357811104938518
Fairwater,FRW,1.0,51.4939101690858,-3.23383998994953,51.51349214773037,-0.11436054290620458,3.1195409076358285
Falconwood,FCN,0.0,51.4591526356848,0.0793044770026859,51.51349214773037,-0.11436054290620458,0.20114403422836363
Falkirk Grahamston,FKG,0.0,56.0026177290346,-3.78504688532692,51.51349214773037,-0.11436054290620458,5.798809076797925
Falkirk High,FKK,1.0,55.9918195759738,-3.79224489222847,51.51349214773037,-0.11436054290620458,5.795019399583326
Falls of Cruachan,FOC,-999.0,56.393889401057,-5.11247911920548,51.51349214773037,-0.11436054290620458,6.985661504326275
Falmer,FMR,1.0,50.8621274713423,-0.0873855066246158,51.51349214773037,-0.11436054290620458,0.6519229971618797
Falmouth Docks,FAL,1.0,50.1507142799667,-5.05602948101336,51.51349214773037,-0.11436054290620458,5.126134548635998
Falmouth Town,FMT,1.0,50.1483473407862,-5.06493628645553,51.51349214773037,-0.11436054290620458,5.13535008899545
Fareham,FRM,0.0,50.8530338308312,-1.19203724188042,51.51349214773037,-0.11436054290620458,1.2639589613089666
Farnborough (Main),FNB,0.0,51.296604884603,-0.755725724931643,51.51349214773037,-0.11436054290620458,0.6770445935249791
Farnborough North,FNN,1.0,51.3020444491095,-0.743026929007782,51.51349214773037,-0.11436054290620458,0.6632733631513316
Farncombe,FNC,0.0,51.1971531239671,-0.604548878459314,51.51349214773037,-0.11436054290620458,0.5833995048573716
Farnham,FNH,0.0,51.2119042298562,-0.792427196436538,51.51349214773037,-0.11436054290620458,0.7421116215486049
Farningham Road,FNR,0.0,51.4016634815392,0.235452055986937,51.51349214773037,-0.11436054290620458,0.3672526445465969
Farnworth,FNW,1.0,53.5500060922431,-2.38784997242115,51.51349214773037,-0.11436054290620458,3.052235776002733
Farringdon,ZFD,0.0,51.5201655608346,-0.105204669877814,51.51349214773037,-0.11436054290620458,0.011329803765808643
Fauldhouse,FLD,1.0,55.8224777300448,-3.71931936502271,51.51349214773037,-0.11436054290620458,5.618103314976442
Faversham,FAV,0.0,51.3117105445912,0.891044848807162,51.51349214773037,-0.11436054290620458,1.025453956573244
Faygate,FGT,0.0,51.095889351236,-0.263018670595782,51.51349214773037,-0.11436054290620458,0.4432734309295834
Fazakerley,FAZ,2.0,53.4690878780859,-2.93672370069026,51.51349214773037,-0.11436054290620458,3.433669823236005
Fearn,FRN,1.0,57.7781470089061,-3.99393654949616,51.51349214773037,-0.11436054290620458,7.368650522352192
Featherstone,FEA,1.0,53.6790669195959,-1.35844424440448,51.51349214773037,-0.11436054290620458,2.4974904101665913
Felixstowe,FLX,1.0,51.9670684291527,1.35043499148186,51.51349214773037,-0.11436054290620458,1.5334136430305176
Feltham,FEL,0.0,51.4478973442697,-0.409838240699482,51.51349214773037,-0.11436054290620458,0.30267102295109
Feniton,FNT,0.0,50.7866805768598,-3.28541829669429,51.51349214773037,-0.11436054290620458,3.253284853407534
Fenny Stratford,FEN,1.0,52.0000683454646,-0.715997362186537,51.51349214773037,-0.11436054290620458,0.7737720972710609
Fernhill,FER,1.0,51.6864988102667,-3.39588328122109,51.51349214773037,-0.11436054290620458,3.2860801553461205
Ferriby,FRY,1.0,53.7171537976793,-0.507830473428837,51.51349214773037,-0.11436054290620458,2.2385136259762066
Ferryside,FYS,0.0,51.7683725332786,-4.36945917743674,51.51349214773037,-0.11436054290620458,4.262725466238805
Ffairfach,FFA,1.0,51.8724792728464,-3.9928602757854,51.51349214773037,-0.11436054290620458,3.895077911151851
Filey,FIL,1.0,54.2098572113142,-0.293849397915568,51.51349214773037,-0.11436054290620458,2.702332474953447
Filton Abbey Wood,FIT,1.0,51.5049414768014,-2.56243092363725,51.51349214773037,-0.11436054290620458,2.4480853136657594
Finchley Road & Frognal,FNY,1.0,51.5502644624917,-0.183140600658463,51.51349214773037,-0.11436054290620458,0.07799294504831998
Finsbury Park,FPK,0.0,51.5643002449157,-0.106284978884699,51.51349214773037,-0.11436054290620458,0.05144586935663106
Finstock,FIN,1.0,51.852782857678,-1.4693431033147,51.51349214773037,-0.11436054290620458,1.3968163533077391
Fishbourne (Sussex),FSB,0.0,50.839050994238,-0.815084252072113,51.51349214773037,-0.11436054290620458,0.9725659803382717
Fishersgate,FSG,1.0,50.8342331969519,-0.219423238635621,51.51349214773037,-0.11436054290620458,0.6873360839113553
Fishguard & Goodwick,FGW,1.0,52.0041205147366,-4.99483911549407,51.51349214773037,-0.11436054290620458,4.905077704991072
Fishguard Harbour,FGH,1.0,52.0115490590944,-4.98564336378428,51.51349214773037,-0.11436054290620458,4.896678160543057
